"Interval"|"ms"|0|0|1,"Utc"|"ms"|0|0|1,"ElapsedTime"|"Min"|0.0|0.0|10,"Battery"|"Volts"|0.0|20.0|1,"AccelX"|"G"|-3.0|3.0|25,"AccelY"|"G"|-3.0|3.0|25,"AccelZ"|"G"|-3.0|3.0|25,"Yaw"|"Deg/Sec"|-120|120|25,"Pitch"|"Deg/Sec"|-120|120|25,"Roll"|"Deg/Sec"|-120|120|25,"Gsum"|"G"|0.0|3.0|25,"GsumMax"|"G"|0.0|3.0|25,"GsumPct"|"%"|0|100|25,"StAngle"|"Deg"|-100|100|10,"SuspPosFL"|"mm"|0.0|150.0|10,"SuspPosFR"|"mm"|0.0|150.0|10,"SuspPosRL"|"mm"|0.0|150.0|10,"SuspPosRR"|"mm"|0.0|150.0|10,"ADL_BAT"|"V"|0.0|20.0|10,"RPM"|""|0|20000|10,"TPS"|"%"|0|100|10,"IAT"|"F"|0|300|10,"MAP"|"KPa"|0.0|255.0|10,"LambdaAim"|""|0.0|1.75|10,"Lambda"|""|0.0|1.75|10,"ECU_BAT"|"V"|0.0|20.0|10,"FuelCut"|""|0.0|100.0|10,"InjDuty"|"%"|0.0|100.0|10,"BrakePres-F"|"psi"|0|1200|10,"BrakePres-R"|"psi"|0|1200|10,"AuxUpDuty"|"%"|0|100|10,"AuxDownDuty"|"%"|0|100|10,"EngineTemp"|"F"|0|300|10,"WheelSpdRL"|""|0|100|10,"WheelSpdRR"|""|0|100|10,"WheelSpdFL"|""|0|100|10,"WheelSpdFR"|""|0|100|10,"Gear"|""|0|10|10,"TireTmpLF1"|"C"|-40|200|50,"TireTmpLF2"|"C"|-40|200|50,"TireTmpLF3"|"C"|-40|200|50,"TireTmpLF4"|"C"|-40|200|50,"TireTmpLF5"|"C"|-40|200|50,"TireTmpLF6"|"C"|-40|200|50,"TireTmpLF7"|"C"|-40|200|50,"TireTmpLF8"|"C"|-40|200|50,"TireTmpRF1"|"C"|-40|200|50,"TireTmpRF2"|"C"|-40|200|50,"TireTmpRF3"|"C"|-40|200|50,"TireTmpRF4"|"C"|-40|200|50,"TireTmpRF5"|"C"|-40|200|50,"TireTmpRF6"|"C"|-40|200|50,"TireTmpRF7"|"C"|-40|200|50,"TireTmpRF8"|"C"|-40|200|50,"TireTmpLR1"|"C"|-40|200|50,"TireTmpLR2"|"C"|-40|200|50,"TireTmpLR3"|"C"|-40|200|50,"TireTmpLR4"|"C"|-40|200|50,"TireTmpLR5"|"C"|-40|200|50,"TireTmpLR6"|"C"|-40|200|50,"TireTmpLR7"|"C"|-40|200|50,"TireTmpLR8"|"C"|-40|200|50,"TireTmpRR1"|"C"|-40|200|50,"TireTmpRR2"|"C"|-40|200|50,"TireTmpRR3"|"C"|-40|200|50,"TireTmpRR4"|"C"|-40|200|50,"TireTmpRR5"|"C"|-40|200|50,"TireTmpRR6"|"C"|-40|200|50,"TireTmpRR7"|"C"|-40|200|50,"TireTmpRR8"|"C"|-40|200|50,"Latitude"|"Degrees"|-180.0|180.0|10,"Longitude"|"Degrees"|-180.0|180.0|10,"Speed"|"kph"|0.0|150.0|10,"Altitude"|"m"|0.0|4000.0|10,"GPSSats"|""|0|20|10,"GPSQual"|""|0|5|10,"GPSDOP"|""|0.0|20.0|10,"LapCount"|""|0|0|10,"LapTime"|"Min"|0.0|0.0|10,"Sector"|""|0|0|10,"SectorTime"|"Min"|0.0|0.0|10,"CurrentLap"|""|0|0|10,"Distance"|"mi"|0.0|0.0|10,"SessionTime"|"Min"|0.0|0.0|10
1514,0,0.0252,,,,,,,,,,,,,,,,,,,,,,,,,,,,,,,,,,,,24,24,24,25,25,25,25,26,27,29,28,28,28,28,28,26,24,26,26,26,26,26,26,26,26,26,26,25,25,24,24,24,,,,,,,,,,,,,,
1334,0,0.0222,,0.15,-0.04,-0.09,-0,1,1,0.18,1.88,10,,,,,,,,,,,,,,,,,,,,,,,,,,,,,,,,,,,,,,,,,,,,,,,,,,,,,,,,,,,,,,,,,,,,,,,
1354,0,0.0226,,,,,,,,,,,1,113.76,28.53,72.96,116.37,12.91,3174,1,23,59.9,0.97,0.86,12.72,0.0,120.0,65,63,0,0,48,0,0,0,0,0,24,24,24,26,25,25,25,26,27,29,28,28,28,28,28,26,24,26,26,26,26,26,26,26,26,26,26,25,24,24,24,24,0.0,0.0,0.0,0.0,0,0,0.0,0,0.0,-1,0.0,0,0.0,0.0226
1374,0,0.0229,,0.29,-0.01,-0.19,-0,0,0,0.34,1.88,18,,,,,,,,,,,,,,,,,,,,,,,,,,24,24,24,26,25,25,25,26,27,29,28,28,28,28,28,26,24,26,26,26,26,26,26,26,26,26,26,25,24,24,24,24,,,,,,,,,,,,,,
1394,0,0.0232,,,,,,,,,,,,,,,,,,,,,,,,,,,,,,,,,,,,24,24,24,25,25,25,25,26,27,29,28,28,29,28,28,26,24,26,26,26,26,26,26,26,26,26,26,25,24,24,24,24,,,,,,,,,,,,,,
1414,0,0.0236,,0.2,0.01,0.0,-0,-0,0,0.2,1.88,10,,,,,,,,,,,,,,,,,,,,,,,,,,24,24,24,25,25,25,25,26,27,29,28,28,29,28,28,26,24,26,26,26,26,26,26,26,26,26,26,25,24,24,24,24,,,,,,,,,,,,,,
1434,0,0.0239,,,,,,,,,,,,,,,,,,,,,,,,,,,,,,,,,,,,24,24,24,25,25,25,25,26,27,29,28,28,29,28,28,26,24,26,26,26,26,26,26,26,26,26,26,25,24,24,24,24,,,,,,,,,,,,,,
1454,0,0.0242,,0.09,0.01,0.12,0,-1,1,0.15,1.88,8,1,113.52,28.53,73.05,118.02,12.92,3171,1,23,58.2,0.97,0.84,12.72,0.0,118.0,63,63,0,0,48,0,0,0,0,0,24,24,24,25,25,25,25,26,27,29,28,29,28,28,28,26,24,26,26,26,26,26,26,26,26,26,26,25,25,24,24,24,0.0,0.0,0.0,0.0,0,0,0.0,0,0.0,-1,0.0,0,0.0,0.0242
1474,0,0.0246,,,,,,,,,,,,,,,,,,,,,,,,,,,,,,,,,,,,24,24,24,25,25,25,25,26,27,29,28,29,28,28,28,26,24,26,26,26,26,26,26,26,26,26,26,25,25,24,24,24,,,,,,,,,,,,,,
1494,0,0.0249,,0.04,0.03,0.21,0,-1,1,0.22,1.88,12,,,,,,,,,,,,,,,,,,,,,,,,,,24,24,24,25,25,25,25,26,27,29,28,29,28,28,28,26,24,26,26,26,26,26,26,26,26,26,26,25,25,24,24,24,,,,,,,,,,,,,,
1514,0,0.0252,,,,,,,,,,,,,,,,,,,,,,,,,,,,,,,,,,,,24,24,24,25,25,25,25,26,27,29,28,28,28,28,28,26,24,26,26,26,26,26,26,26,26,26,26,25,25,24,24,24,,,,,,,,,,,,,,
1534,0,0.0256,,-0.0,0.03,0.17,0,-0,1,0.17,1.88,9,,,,,,,,,,,,,,,,,,,,,,,,,,24,24,24,25,25,25,25,26,27,29,28,28,28,28,28,26,24,26,26,26,26,26,26,26,26,26,26,24,24,24,24,24,,,,,,,,,,,,,,
1554,0,0.0259,,,,,,,,,,,1,113.52,28.53,73.05,116.46,12.92,2939,0,23,62.2,0.97,0.84,12.72,0.0,112.0,64,63,0,0,48,0,0,0,0,0,24,24,24,25,25,25,25,26,27,29,28,28,28,28,28,26,24,26,26,26,26,26,26,26,26,26,26,24,24,24,24,24,0.0,0.0,0.0,0.0,0,0,0.0,0,0.0,-1,0.0,0,0.0,0.0259
1574,0,0.0262,,0.0,0.02,0.14,0,0,0,0.14,1.88,8,,,,,,,,,,,,,,,,,,,,,,,,,,24,24,24,25,25,25,25,26,27,29,29,28,28,28,28,26,24,26,26,26,26,26,26,26,26,26,26,24,24,24,24,24,,,,,,,,,,,,,,
1594,0,0.0266,,,,,,,,,,,,,,,,,,,,,,,,,,,,,,,,,,,,24,24,24,25,25,25,25,26,27,29,29,28,28,28,28,26,24,26,26,26,26,26,26,26,26,25,25,24,24,24,24,24,,,,,,,,,,,,,,
1614,0,0.0269,,-0.01,0.01,0.3,0,0,-0,0.3,1.88,16,,,,,,,,,,,,,,,,,,,,,,,,,,24,24,24,25,25,25,25,26,27,29,29,28,28,28,28,26,24,26,26,26,26,26,26,26,26,25,25,24,24,24,24,24,,,,,,,,,,,,,,
1634,0,0.0272,,,,,,,,,,,,,,,,,,,,,,,,,,,,,,,,,,,,24,24,24,25,25,25,25,26,27,29,29,28,28,28,28,26,24,26,26,26,26,26,26,26,26,25,25,24,24,24,24,24,,,,,,,,,,,,,,
1654,0,0.0276,,-0.04,0.0,0.22,0,-0,0,0.22,1.88,12,1,113.64,28.44,72.84,118.44,12.89,2952,1,23,59.6,0.97,0.84,12.72,0.0,110.0,66,63,0,0,48,0,0,0,0,0,24,24,24,25,25,25,25,26,27,29,28,28,28,28,28,26,24,26,26,26,26,26,26,26,26,25,26,24,24,24,24,23,0.0,0.0,0.0,0.0,0,0,0.0,0,0.0,-1,0.0,0,0.0,0.0276
1674,0,0.0279,,,,,,,,,,,,,,,,,,,,,,,,,,,,,,,,,,,,24,24,24,25,25,25,25,26,27,29,28,28,28,28,28,26,24,26,26,26,26,26,26,26,26,25,26,24,24,24,24,23,,,,,,,,,,,,,,
1694,0,0.0282,,-0.08,-0.01,0.23,0,-1,1,0.24,1.88,13,,,,,,,,,,,,,,,,,,,,,,,,,,24,24,24,25,25,25,25,26,27,29,28,28,28,28,28,26,24,26,26,26,26,26,26,26,26,25,26,24,24,24,24,23,,,,,,,,,,,,,,
1714,0,0.0286,,,,,,,,,,,,,,,,,,,,,,,,,,,,,,,,,,,,24,24,24,25,25,25,25,26,27,29,28,28,28,28,28,26,24,26,26,26,26,26,26,26,26,26,26,24,24,24,24,24,,,,,,,,,,,,,,
1734,0,0.0289,,-0.16,-0.02,0.03,0,-1,1,0.17,1.88,9,,,,,,,,,,,,,,,,,,,,,,,,,,24,24,24,25,25,25,25,26,27,29,28,28,28,28,28,26,24,26,26,26,26,26,26,26,26,26,26,24,24,24,24,24,,,,,,,,,,,,,,
1754,0,0.0292,,,,,,,,,,,1,113.64,28.44,72.84,114.93,12.89,3189,0,23,64.1,0.97,0.83,12.72,0.0,117.0,64,62,0,0,48,0,0,0,0,0,24,24,24,25,25,25,25,26,27,29,28,28,28,28,28,26,24,26,26,26,26,26,26,26,26,26,26,24,24,24,24,24,0.0,0.0,0.0,0.0,0,0,0.0,0,0.0,-1,0.0,0,0.0,0.0292
1774,0,0.0296,,-0.22,-0.01,-0.02,0,1,1,0.22,1.88,12,,,,,,,,,,,,,,,,,,,,,,,,,,24,24,24,25,25,25,25,26,28,29,29,29,29,28,28,26,24,26,26,26,26,26,26,26,26,26,25,24,24,24,24,23,,,,,,,,,,,,,,
1794,0,0.0299,,,,,,,,,,,,,,,,,,,,,,,,,,,,,,,,,,,,24,24,24,25,25,25,25,26,28,29,29,29,29,28,28,26,24,26,26,26,26,26,26,26,26,26,25,24,24,24,24,23,,,,,,,,,,,,,,
1814,0,0.0302,,-0.35,-0.01,-0.1,0,0,0,0.36,1.88,19,,,,,,,,,,,,,,,,,,,,,,,,,,24,24,24,25,25,25,25,26,28,29,29,29,29,28,28,26,24,26,26,26,26,26,26,26,26,26,25,24,24,24,24,23,,,,,,,,,,,,,,
1834,0,0.0306,,,,,,,,,,,,,,,,,,,,,,,,,,,,,,,,,,,,24,24,24,26,25,25,26,26,27,29,28,28,29,28,28,26,24,26,26,26,26,26,26,26,26,26,26,25,24,24,24,24,,,,,,,,,,,,,,
1854,0,0.0309,,-0.06,-0.02,-0.22,0,-0,-0,0.23,1.88,12,0,113.31,28.44,72.96,124.05,12.89,3394,1,23,60.8,0.97,0.84,12.72,0.0,122.0,64,63,0,0,48,0,0,0,0,0,24,24,24,26,25,25,26,26,27,29,28,28,29,28,28,26,24,26,26,26,26,26,26,26,26,26,26,25,24,24,24,24,0.0,0.0,0.0,0.0,0,0,0.0,0,0.0,-1,0.0,0,0.0,0.0309
1874,0,0.0312,,,,,,,,,,,,,,,,,,,,,,,,,,,,,,,,,,,,24,24,24,26,25,25,26,26,27,29,28,28,29,28,28,26,24,26,26,26,26,26,26,26,26,26,26,25,24,24,24,24,,,,,,,,,,,,,,
1894,0,0.0316,,0.03,-0.01,-0.13,0,-1,-0,0.14,1.88,7,,,,,,,,,,,,,,,,,,,,,,,,,,24,24,24,26,25,25,26,26,28,29,28,28,29,28,28,26,24,26,26,26,26,26,26,26,26,26,26,25,24,24,24,24,,,,,,,,,,,,,,
1914,0,0.0319,,,,,,,,,,,,,,,,,,,,,,,,,,,,,,,,,,,,24,24,24,26,25,25,26,26,28,29,28,28,29,28,28,26,24,26,26,26,26,26,26,26,26,25,26,24,24,24,24,23,,,,,,,,,,,,,,
1934,0,0.0322,,-0.1,-0.01,0.05,-0,-1,1,0.12,1.88,6,,,,,,,,,,,,,,,,,,,,,,,,,,24,24,24,26,25,25,26,26,28,29,28,28,29,28,28,26,24,26,26,26,26,26,26,26,26,25,26,24,24,24,24,23,,,,,,,,,,,,,,
1954,0,0.0326,,,,,,,,,,,1,113.64,28.44,72.84,116.46,12.88,3232,1,23,58.1,0.97,0.82,12.72,0.0,110.0,64,63,0,0,48,0,0,0,0,0,24,24,24,25,25,25,25,26,27,29,29,28,29,28,28,26,24,26,26,26,26,26,26,26,26,25,26,24,24,24,24,23,0.0,0.0,0.0,0.0,0,0,0.0,0,0.0,-1,0.0,0,0.0,0.0326
1974,0,0.0329,,-0.19,0.01,0.11,0,0,1,0.22,1.88,12,,,,,,,,,,,,,,,,,,,,,,,,,,24,24,24,25,25,25,25,26,27,29,29,28,29,28,28,26,24,26,26,26,26,26,26,26,26,26,26,24,24,24,24,24,,,,,,,,,,,,,,
1994,0,0.0332,,,,,,,,,,,,,,,,,,,,,,,,,,,,,,,,,,,,24,24,24,25,25,25,25,26,27,29,29,28,29,28,28,26,24,26,26,26,26,26,26,26,26,26,26,24,24,24,24,24,,,,,,,,,,,,,,
2014,0,0.0336,,-0.26,0.02,0.12,0,0,0,0.28,1.88,15,,,,,,,,,,,,,,,,,,,,,,,,,,24,24,24,26,25,25,26,26,27,29,29,28,29,28,28,26,24,26,26,26,26,26,26,26,26,26,26,24,24,24,24,24,,,,,,,,,,,,,,
2034,0,0.0339,,,,,,,,,,,,,,,,,,,,,,,,,,,,,,,,,,,,24,24,24,26,25,25,26,26,27,29,29,28,29,28,28,26,24,26,26,26,26,26,26,26,26,26,26,24,24,24,24,24,,,,,,,,,,,,,,
2054,0,0.0342,13.15,0.0,-0.0,-0.14,-0,-0,0,0.14,1.88,7,1,113.76,28.44,72.96,119.1,12.91,3335,1,23,61.8,0.97,0.85,12.72,0.0,126.0,65,63,0,0,48,0,0,0,0,0,24,24,24,26,25,25,26,26,27,29,29,28,29,28,28,26,24,26,26,26,26,26,26,26,26,26,26,24,24,24,24,24,0.0,0.0,0.0,0.0,0,0,0.0,0,0.0,-1,0.0,0,0.0,0.0342
2074,0,0.0346,,,,,,,,,,,,,,,,,,,,,,,,,,,,,,,,,,,,24,24,24,26,25,25,25,26,27,29,29,28,29,28,28,26,24,26,26,26,26,26,26,26,26,26,26,24,24,24,24,24,,,,,,,,,,,,,,
2094,0,0.0349,,-0.01,-0.04,-0.08,-0,-1,-0,0.09,1.88,5,,,,,,,,,,,,,,,,,,,,,,,,,,24,24,24,26,25,25,25,26,27,29,28,28,28,28,28,26,24,26,26,26,26,26,26,26,26,26,26,24,24,24,24,24,,,,,,,,,,,,,,
2114,0,0.0352,,,,,,,,,,,,,,,,,,,,,,,,,,,,,,,,,,,,24,24,24,26,25,25,25,26,27,29,28,28,28,28,28,26,24,26,26,26,26,26,26,26,26,26,26,24,24,24,24,24,,,,,,,,,,,,,,
2134,0,0.0356,,-0.11,-0.04,-0.01,-0,-1,0,0.12,1.88,6,,,,,,,,,,,,,,,,,,,,,,,,,,24,24,24,26,25,25,25,26,27,29,28,28,28,28,28,26,24,26,26,26,26,26,26,26,26,26,26,24,24,24,24,24,,,,,,,,,,,,,,
2154,0,0.0359,,,,,,,,,,,1,113.52,28.44,72.96,114.27,12.9,3217,1,23,60.4,0.97,0.84,12.72,0.0,118.0,64,63,0,0,48,0,0,0,0,0,24,24,24,26,25,25,25,26,28,29,28,28,28,28,28,26,24,26,26,26,26,26,26,26,26,26,26,25,24,24,24,24,0.0,0.0,0.0,0.0,0,0,0.0,0,0.0,-1,0.0,0,0.0,0.0359
2174,0,0.0362,,-0.24,-0.01,-0.22,0,-1,-0,0.33,1.88,17,,,,,,,,,,,,,,,,,,,,,,,,,,24,24,24,26,25,25,25,26,28,29,28,28,28,28,28,26,24,26,26,26,26,26,26,26,26,26,26,25,24,24,24,24,,,,,,,,,,,,,,
2194,0,0.0366,,,,,,,,,,,,,,,,,,,,,,,,,,,,,,,,,,,,24,24,24,26,25,25,25,26,28,29,28,28,28,28,28,26,24,26,26,26,26,26,26,26,26,26,26,25,24,24,24,24,,,,,,,,,,,,,,
2214,0,0.0369,,-0.25,-0.02,-0.05,0,-1,-0,0.25,1.88,13,,,,,,,,,,,,,,,,,,,,,,,,,,24,24,24,25,25,25,25,26,28,29,29,29,29,28,28,26,24,26,26,26,26,26,26,26,26,26,25,25,24,24,24,24,,,,,,,,,,,,,,
2234,0,0.0372,,,,,,,,,,,,,,,,,,,,,,,,,,,,,,,,,,,,24,24,24,25,25,25,25,26,28,29,29,29,29,28,28,26,24,26,26,26,26,26,26,26,26,26,25,25,24,24,24,24,,,,,,,,,,,,,,
2254,0,0.0376,,0.07,-0.03,-0.16,-0,-0,-0,0.17,1.88,9,1,113.85,28.44,72.72,119.88,12.93,3152,1,23,58.9,0.97,0.82,12.71,0.0,117.0,64,63,0,0,48,0,0,0,0,0,24,24,24,25,25,25,25,26,28,29,29,29,29,28,28,26,24,26,26,26,26,26,26,26,26,26,25,25,24,24,24,24,0.0,0.0,0.0,0.0,0,0,0.0,0,0.0,-1,0.0,0,0.0,0.0376
2274,0,0.0379,,,,,,,,,,,,,,,,,,,,,,,,,,,,,,,,,,,,23,24,24,25,25,25,25,26,27,29,28,28,28,28,28,26,24,26,26,26,26,26,26,26,26,26,25,25,24,24,24,24,,,,,,,,,,,,,,
2294,0,0.0382,,0.17,-0.03,-0.18,-0,-1,-0,0.25,1.88,14,,,,,,,,,,,,,,,,,,,,,,,,,,23,24,24,25,25,25,25,26,27,29,28,28,28,28,28,26,24,26,26,26,26,26,26,26,26,26,26,24,24,24,24,24,,,,,,,,,,,,,,
2314,0,0.0386,,,,,,,,,,,,,,,,,,,,,,,,,,,,,,,,,,,,23,24,24,25,25,25,25,26,27,29,28,28,28,28,28,26,24,26,26,26,26,26,26,26,26,26,26,24,24,24,24,24,,,,,,,,,,,,,,
2334,0,0.0389,,0.12,-0.02,0.03,-0,-1,-0,0.12,1.88,7,,,,,,,,,,,,,,,,,,,,,,,,,,24,24,24,25,25,25,25,26,27,29,28,28,28,28,28,26,24,26,26,26,26,26,26,26,26,26,26,24,24,24,24,24,,,,,,,,,,,,,,
2354,0,0.0392,,,,,,,,,,,1,113.76,28.44,72.84,117.12,12.92,3239,1,23,56.9,0.97,0.84,12.72,0.0,111.0,64,64,0,0,48,0,0,0,0,0,24,24,24,25,25,25,25,26,27,29,28,28,28,28,28,26,24,26,26,26,26,26,26,26,26,26,26,24,24,24,24,24,0.0,0.0,0.0,0.0,0,0,0.0,0,0.0,-1,0.0,0,0.0,0.0392
2374,0,0.0396,,-0.0,-0.0,0.19,-0,-1,1,0.19,1.88,10,,,,,,,,,,,,,,,,,,,,,,,,,,24,24,24,25,25,25,25,26,27,29,28,28,28,28,28,26,24,26,26,26,26,26,26,26,26,26,26,24,24,24,24,24,,,,,,,,,,,,,,
2394,0,0.0399,,,,,,,,,,,,,,,,,,,,,,,,,,,,,,,,,,,,24,24,24,25,25,25,25,26,27,29,28,28,28,28,28,26,24,26,26,26,26,26,26,26,26,26,26,24,24,24,24,24,,,,,,,,,,,,,,
2414,0,0.0402,,-0.06,0.04,0.14,0,-0,-0,0.16,1.88,8,,,,,,,,,,,,,,,,,,,,,,,,,,24,24,24,25,25,25,25,26,27,29,29,28,28,28,28,26,24,26,26,26,26,26,26,26,26,25,25,24,24,24,24,24,,,,,,,,,,,,,,
2434,0,0.0406,,,,,,,,,,,,,,,,,,,,,,,,,,,,,,,,,,,,24,24,24,25,25,25,25,26,27,29,29,28,28,28,28,26,24,26,26,26,26,26,27,26,26,25,25,24,24,24,24,24,,,,,,,,,,,,,,
2454,0,0.0409,,-0.21,0.06,-0.08,0,1,0,0.23,1.88,12,1,113.43,28.44,73.05,117.36,12.89,3172,0,23,61.3,0.97,0.87,12.72,0.0,112.0,64,62,0,0,48,0,0,0,0,0,24,24,24,25,25,25,25,26,27,29,29,28,28,28,28,26,24,26,26,26,26,26,27,26,26,25,25,24,24,24,24,24,0.0,0.0,0.0,0.0,0,0,0.0,0,0.0,-1,0.0,0,0.0,0.0409
2474,0,0.0412,,,,,,,,,,,,,,,,,,,,,,,,,,,,,,,,,,,,24,24,24,25,25,25,25,26,28,29,28,28,29,28,28,26,24,26,26,26,26,26,27,26,26,26,26,24,24,24,24,24,,,,,,,,,,,,,,
2494,0,0.0416,,-0.33,0.04,-0.16,0,-0,-1,0.37,1.88,20,,,,,,,,,,,,,,,,,,,,,,,,,,24,24,24,25,25,25,25,26,28,29,28,28,29,28,28,26,24,26,26,26,26,26,26,26,26,26,26,24,24,24,24,24,,,,,,,,,,,,,,
2514,0,0.0419,,,,,,,,,,,,,,,,,,,,,,,,,,,,,,,,,,,,24,24,24,25,25,25,25,26,28,29,28,28,29,28,28,26,24,26,26,26,26,26,26,26,26,26,26,24,24,24,24,24,,,,,,,,,,,,,,
2534,0,0.0422,,-0.36,0.01,-0.0,0,0,-0,0.36,1.88,19,,,,,,,,,,,,,,,,,,,,,,,,,,24,24,24,25,25,25,26,26,27,29,28,28,28,28,28,26,24,26,26,26,26,26,26,26,26,26,26,24,24,24,24,24,,,,,,,,,,,,,,
2554,0,0.0426,,,,,,,,,,,1,113.43,28.53,73.05,118.89,12.9,2986,0,23,60.3,0.97,0.82,12.72,0.0,117.0,65,63,0,0,48,0,0,0,0,0,24,24,24,25,25,25,26,26,27,29,28,28,28,28,28,26,24,26,26,26,26,26,26,26,26,26,26,24,24,24,24,24,0.0,0.0,0.0,0.0,0,0,0.0,0,0.0,-1,0.0,0,0.0,0.0426
2574,0,0.0429,,-0.23,-0.05,-0.07,0,-0,-1,0.24,1.88,13,,,,,,,,,,,,,,,,,,,,,,,,,,24,24,24,25,25,25,26,26,27,29,28,28,28,28,28,26,24,26,26,26,26,26,26,26,26,26,26,24,24,24,24,24,,,,,,,,,,,,,,
2594,0,0.0432,,,,,,,,,,,,,,,,,,,,,,,,,,,,,,,,,,,,24,24,24,25,24,24,25,26,27,29,28,28,28,28,28,26,24,26,26,26,26,26,26,26,26,25,25,24,24,24,24,24,,,,,,,,,,,,,,
2614,0,0.0436,,0.04,-0.06,-0.08,-0,-0,0,0.11,1.88,6,,,,,,,,,,,,,,,,,,,,,,,,,,24,24,24,25,24,24,25,26,27,29,28,28,28,28,28,26,24,26,26,26,26,26,27,26,26,25,25,24,24,24,24,24,,,,,,,,,,,,,,
2634,0,0.0439,,,,,,,,,,,,,,,,,,,,,,,,,,,,,,,,,,,,24,24,24,25,24,24,25,26,27,29,28,28,28,28,28,26,24,26,26,26,26,26,27,26,26,25,25,24,24,24,24,24,,,,,,,,,,,,,,
2654,0,0.0442,,0.27,-0.03,-0.27,-0,0,1,0.38,1.88,20,1,113.43,28.44,73.17,112.74,12.9,2994,0,23,66.2,0.97,0.85,12.72,0.0,112.0,64,63,0,0,48,0,0,0,0,0,23,24,24,25,24,25,25,26,27,29,28,28,29,28,28,26,24,26,26,26,26,26,27,26,26,25,25,24,24,24,24,24,0.0,0.0,0.0,0.0,0,0,0.0,0,0.0,-1,0.0,0,0.0,0.0442
2674,0,0.0446,,,,,,,,,,,,,,,,,,,,,,,,,,,,,,,,,,,,23,24,24,25,24,25,25,26,27,29,28,28,29,28,28,26,24,26,26,26,26,26,26,26,26,25,26,24,24,24,24,24,,,,,,,,,,,,,,
2694,0,0.0449,,0.44,0.04,-0.29,-1,1,2,0.53,1.88,28,,,,,,,,,,,,,,,,,,,,,,,,,,23,24,24,25,24,25,25,26,27,29,28,28,29,28,28,26,24,26,26,26,26,26,26,26,26,25,26,24,24,24,24,24,,,,,,,,,,,,,,
2714,0,0.0452,,,,,,,,,,,,,,,,,,,,,,,,,,,,,,,,,,,,24,24,24,26,25,25,25,26,28,29,28,28,29,28,28,26,24,26,26,26,26,26,26,26,26,25,26,24,24,24,24,24,,,,,,,,,,,,,,
2734,0,0.0456,,0.53,0.11,-0.34,-1,1,2,0.64,1.88,34,,,,,,,,,,,,,,,,,,,,,,,,,,24,24,24,26,25,25,25,26,28,29,28,28,29,28,28,26,24,26,26,26,26,26,26,26,26,25,26,24,24,24,24,24,,,,,,,,,,,,,,
2754,0,0.0459,,,,,,,,,,,1,113.43,28.32,73.17,114.48,12.92,3061,1,23,62.4,0.97,0.85,12.72,0.0,114.0,63,63,0,0,48,0,0,0,0,0,24,24,24,26,25,25,25,26,28,29,28,28,29,28,28,26,24,26,26,26,26,26,26,26,26,25,26,24,24,24,24,24,0.0,0.0,0.0,0.0,0,0,0.0,0,0.0,-1,0.0,0,0.0,0.0459
2774,0,0.0462,,0.55,0.14,-0.5,-0,-0,1,0.75,1.88,40,,,,,,,,,,,,,,,,,,,,,,,,,,24,24,24,26,25,25,26,26,28,29,28,28,29,28,28,26,24,26,26,26,26,26,26,26,26,25,26,24,24,24,24,24,,,,,,,,,,,,,,
2794,0,0.0466,,,,,,,,,,,,,,,,,,,,,,,,,,,,,,,,,,,,24,24,24,26,25,25,26,26,28,30,28,28,28,28,28,26,24,26,26,26,26,26,26,26,26,25,25,24,24,24,24,23,,,,,,,,,,,,,,
2814,0,0.0469,,0.52,0.19,-0.48,-0,-1,0,0.73,1.88,39,,,,,,,,,,,,,,,,,,,,,,,,,,24,24,24,26,25,25,26,26,28,30,28,28,28,28,28,26,24,26,26,26,26,26,26,26,26,25,25,24,24,24,24,23,,,,,,,,,,,,,,
2834,0,0.0472,,,,,,,,,,,,,,,,,,,,,,,,,,,,,,,,,,,,24,24,24,25,25,25,25,26,28,30,28,28,28,28,28,26,24,26,26,26,26,26,26,26,26,25,25,24,24,24,24,23,,,,,,,,,,,,,,
2854,0,0.0476,,0.42,0.19,-0.22,-0,-1,0,0.51,1.88,27,1,113.52,28.44,73.17,112.41,12.88,3105,1,23,60.7,0.97,0.85,12.72,0.0,114.0,64,63,0,0,48,0,0,0,0,0,24,24,24,25,25,25,25,26,27,29,28,28,28,28,28,26,24,26,26,26,26,26,26,26,26,26,25,24,24,24,24,24,0.0,0.0,0.0,0.0,0,0,0.0,0,0.0,-1,0.0,0,0.0,0.0476
2874,0,0.0479,,,,,,,,,,,,,,,,,,,,,,,,,,,,,,,,,,,,24,24,24,25,25,25,25,26,27,29,28,28,28,28,28,26,24,26,26,26,26,26,26,26,26,26,25,24,24,24,24,24,,,,,,,,,,,,,,
2894,0,0.0482,,0.29,0.12,-0.07,0,-1,0,0.32,1.88,17,,,,,,,,,,,,,,,,,,,,,,,,,,24,24,24,25,25,25,25,26,27,29,28,28,28,28,28,26,24,26,26,26,26,26,26,26,26,26,25,24,24,24,24,24,,,,,,,,,,,,,,
2914,0,0.0486,,,,,,,,,,,,,,,,,,,,,,,,,,,,,,,,,,,,24,24,24,25,25,25,25,26,27,29,28,28,28,28,28,26,24,26,26,26,26,26,26,26,26,25,25,24,24,24,24,23,,,,,,,,,,,,,,
2934,0,0.0489,,0.15,0.1,-0.01,0,-0,0,0.18,1.88,9,,,,,,,,,,,,,,,,,,,,,,,,,,24,24,24,25,25,25,25,26,27,29,28,28,28,28,28,26,24,26,26,26,26,26,26,26,26,25,25,24,24,24,24,23,,,,,,,,,,,,,,
2954,0,0.0492,,,,,,,,,,,0,113.43,28.44,72.84,120.75,12.9,3324,1,23,63.1,0.97,0.86,12.72,0.0,119.0,65,62,0,0,48,0,0,0,0,0,24,24,24,25,25,25,25,26,27,29,28,28,28,28,28,26,24,26,26,26,26,26,26,26,26,25,25,24,24,24,24,23,0.0,0.0,0.0,0.0,0,0,0.0,0,0.0,-1,0.0,0,0.0,0.0492
2974,0,0.0496,,-0.02,0.1,-0.2,1,-1,-0,0.23,1.88,12,,,,,,,,,,,,,,,,,,,,,,,,,,23,24,24,25,24,25,25,26,27,30,28,28,29,28,28,26,24,26,26,26,26,26,26,26,26,25,26,24,24,24,24,24,,,,,,,,,,,,,,
2994,0,0.0499,,,,,,,,,,,,,,,,,,,,,,,,,,,,,,,,,,,,23,24,24,25,24,25,25,26,27,30,28,28,29,28,28,26,24,26,26,26,26,26,26,26,26,25,26,24,24,24,24,24,,,,,,,,,,,,,,
3014,0,0.0502,,0.07,0.08,-0.34,0,-2,-1,0.36,1.88,19,,,,,,,,,,,,,,,,,,,,,,,,,,23,24,24,25,24,25,25,26,27,30,28,28,29,28,28,26,24,26,26,26,26,26,26,26,26,25,26,24,24,24,24,24,,,,,,,,,,,,,,
3034,0,0.0506,,,,,,,,,,,,,,,,,,,,,,,,,,,,,,,,,,,,23,24,24,25,24,25,25,26,27,29,28,28,28,28,28,26,24,26,26,26,26,26,26,26,26,25,26,24,24,24,24,24,,,,,,,,,,,,,,
3054,0,0.0509,13.18,0.21,0.07,-0.33,0,-2,-1,0.39,1.88,21,1,113.76,28.44,72.84,115.71,12.92,3457,1,23,60.2,0.97,0.83,12.72,0.0,118.0,65,64,0,0,48,0,0,0,0,0,23,24,24,25,24,25,25,26,27,29,28,28,28,28,28,26,24,26,26,26,26,26,26,26,26,25,25,24,24,24,24,24,0.0,0.0,0.0,0.0,0,0,0.0,0,0.0,-1,0.0,0,0.0,0.0509
3074,0,0.0512,,,,,,,,,,,,,,,,,,,,,,,,,,,,,,,,,,,,23,24,24,25,24,25,25,26,27,29,28,28,28,28,28,26,24,26,26,26,26,26,26,26,26,25,25,24,24,24,24,24,,,,,,,,,,,,,,
3094,0,0.0516,,0.08,0.04,-0.13,0,-2,-0,0.16,1.88,8,,,,,,,,,,,,,,,,,,,,,,,,,,23,24,24,25,24,24,25,26,27,29,28,28,28,28,28,26,24,26,26,26,26,26,26,26,26,25,25,24,24,24,24,24,,,,,,,,,,,,,,
3114,0,0.0519,,,,,,,,,,,,,,,,,,,,,,,,,,,,,,,,,,,,23,24,24,25,24,24,25,26,27,29,28,28,28,28,28,26,24,26,26,26,26,26,26,26,26,25,25,24,24,24,24,24,,,,,,,,,,,,,,
3134,0,0.0522,,0.03,0.04,0.01,0,-0,1,0.05,1.88,3,,,,,,,,,,,,,,,,,,,,,,,,,,23,24,24,25,24,24,25,26,27,29,28,28,28,28,28,26,24,26,26,26,26,26,27,26,26,25,25,24,24,24,24,24,,,,,,,,,,,,,,
3154,0,0.0526,,,,,,,,,,,1,113.43,28.53,73.05,120.3,12.91,3092,1,23,58.5,0.97,0.83,12.71,0.0,114.0,63,62,0,0,49,0,0,0,0,0,23,24,24,25,24,25,25,26,27,29,28,28,28,28,28,26,24,26,26,26,26,26,27,26,26,25,25,24,24,24,24,24,0.0,0.0,0.0,0.0,0,0,0.0,0,0.0,-1,0.0,0,0.0,0.0526
3174,0,0.0529,,-0.13,0.07,-0.05,0,-0,0,0.16,1.88,8,,,,,,,,,,,,,,,,,,,,,,,,,,23,24,24,25,24,25,25,26,27,29,28,28,28,28,28,26,24,26,26,26,26,26,27,26,27,26,26,24,24,24,24,24,,,,,,,,,,,,,,
3194,0,0.0532,,,,,,,,,,,,,,,,,,,,,,,,,,,,,,,,,,,,23,24,24,25,24,25,25,26,27,29,28,28,28,28,28,26,24,26,26,26,26,26,26,26,27,26,26,24,24,24,24,24,,,,,,,,,,,,,,
3214,0,0.0536,,-0.15,0.07,0.04,0,-0,-0,0.17,1.88,9,,,,,,,,,,,,,,,,,,,,,,,,,,24,24,24,25,25,25,25,26,27,29,28,28,28,28,28,26,24,26,26,26,26,26,26,26,27,26,26,24,24,24,24,24,,,,,,,,,,,,,,
3234,0,0.0539,,,,,,,,,,,,,,,,,,,,,,,,,,,,,,,,,,,,24,24,24,25,25,25,25,26,28,29,28,28,29,28,28,26,24,26,26,26,26,26,26,26,26,26,26,24,24,24,24,24,,,,,,,,,,,,,,
3254,0,0.0542,,0.13,0.05,-0.09,0,-0,-0,0.17,1.88,9,1,113.52,28.53,72.84,120.3,12.89,3293,0,23,62.1,0.97,0.85,12.72,0.0,122.0,65,64,0,0,49,0,0,0,0,0,24,24,24,25,25,25,25,26,28,29,28,28,29,28,28,26,24,26,26,26,26,26,26,26,26,26,26,24,24,24,24,24,0.0,0.0,0.0,0.0,0,0,0.0,0,0.0,-1,0.0,0,0.0,0.0542
3274,0,0.0546,,,,,,,,,,,,,,,,,,,,,,,,,,,,,,,,,,,,24,24,24,25,25,25,25,26,28,29,28,28,29,28,28,26,24,26,26,26,26,26,26,26,26,26,26,24,24,24,24,24,,,,,,,,,,,,,,
3294,0,0.0549,,0.18,0.05,-0.16,0,-1,-1,0.25,1.88,13,,,,,,,,,,,,,,,,,,,,,,,,,,24,24,24,25,25,25,25,26,27,29,28,28,28,28,28,26,24,26,26,26,26,26,26,26,26,26,26,24,24,24,24,24,,,,,,,,,,,,,,
3314,0,0.0552,,,,,,,,,,,,,,,,,,,,,,,,,,,,,,,,,,,,24,24,24,25,25,25,25,26,27,29,28,28,28,28,28,26,24,26,26,26,26,26,26,26,26,26,26,24,24,24,24,24,,,,,,,,,,,,,,
3334,0,0.0556,,0.09,0.02,0.01,0,-2,-1,0.09,1.88,5,,,,,,,,,,,,,,,,,,,,,,,,,,24,24,24,25,25,25,25,26,27,29,28,28,28,28,28,26,24,26,26,26,26,26,26,26,26,26,26,24,24,24,24,24,,,,,,,,,,,,,,
3354,0,0.0559,,,,,,,,,,,1,113.97,28.53,72.72,116.79,12.91,3310,0,23,60.9,0.97,0.86,12.72,0.0,117.0,64,64,0,0,49,0,0,0,0,0,24,24,24,25,25,25,25,26,27,29,28,28,28,28,28,26,24,26,26,26,26,26,26,26,26,26,26,24,24,24,24,23,0.0,0.0,0.0,0.0,0,0,0.0,0,0.0,-1,0.0,0,0.0,0.0559
3374,0,0.0562,,0.03,0.03,0.17,0,-1,0,0.17,1.88,9,,,,,,,,,,,,,,,,,,,,,,,,,,24,24,24,25,25,25,25,26,27,29,28,28,28,28,28,26,24,26,26,26,26,26,26,26,26,26,26,24,24,24,24,23,,,,,,,,,,,,,,
3394,0,0.0566,,,,,,,,,,,,,,,,,,,,,,,,,,,,,,,,,,,,24,24,24,25,25,25,25,26,27,29,28,28,28,28,28,26,24,26,26,26,26,26,26,26,26,26,26,24,24,24,24,23,,,,,,,,,,,,,,
3414,0,0.0569,,-0.03,0.04,0.12,0,-0,0,0.13,1.88,7,,,,,,,,,,,,,,,,,,,,,,,,,,23,24,24,25,24,25,25,26,27,29,28,28,28,28,28,26,24,26,26,26,26,26,26,26,26,26,26,24,24,24,24,23,,,,,,,,,,,,,,
3434,0,0.0572,,,,,,,,,,,,,,,,,,,,,,,,,,,,,,,,,,,,23,24,24,25,24,25,25,26,27,29,28,28,28,28,28,26,24,26,26,26,26,26,26,26,26,26,26,24,24,24,24,24,,,,,,,,,,,,,,
3454,0,0.0576,,-0.08,0.05,0.16,0,2,0,0.19,1.88,10,1,113.76,28.44,72.84,116.13,12.92,2944,0,23,59.6,0.97,0.88,12.71,0.0,110.0,64,62,0,0,49,0,0,0,0,0,23,24,24,25,24,25,25,26,27,29,28,28,28,28,28,26,24,26,26,26,26,26,26,26,26,26,26,24,24,24,24,24,0.0,0.0,0.0,0.0,0,0,0.0,0,0.0,-1,0.0,0,0.0,0.0576
3474,0,0.0579,,,,,,,,,,,,,,,,,,,,,,,,,,,,,,,,,,,,24,24,24,25,25,25,25,26,27,29,28,28,28,28,28,26,24,26,26,26,26,26,26,26,26,26,26,24,24,24,24,24,,,,,,,,,,,,,,
3494,0,0.0582,,-0.18,0.06,0.2,0,3,0,0.27,1.88,15,,,,,,,,,,,,,,,,,,,,,,,,,,24,24,24,25,25,25,25,26,27,29,28,28,28,28,28,26,24,26,26,26,26,26,26,26,26,26,26,24,24,24,24,24,,,,,,,,,,,,,,
3514,0,0.0586,,,,,,,,,,,,,,,,,,,,,,,,,,,,,,,,,,,,24,24,24,25,25,25,25,26,27,29,28,28,28,28,28,26,24,26,26,26,26,26,26,26,26,26,26,24,24,24,24,24,,,,,,,,,,,,,,
3534,0,0.0589,,-0.28,0.07,-0.0,0,2,-1,0.29,1.88,15,,,,,,,,,,,,,,,,,,,,,,,,,,24,24,24,25,25,25,25,26,27,29,28,28,28,28,28,26,24,26,26,26,26,26,26,26,26,26,26,24,24,24,24,24,,,,,,,,,,,,,,
3554,0,0.0592,,,,,,,,,,,1,113.85,28.44,72.72,115.71,12.93,3220,1,23,63.6,0.97,0.84,12.72,0.0,110.0,66,63,0,0,49,0,0,0,0,0,24,24,24,25,25,25,25,26,27,29,28,28,28,28,28,26,24,26,26,26,26,26,26,26,26,26,26,25,24,24,24,24,0.0,0.0,0.0,0.0,0,0,0.0,0,0.0,-1,0.0,0,0.0,0.0592
3574,0,0.0596,,-0.41,0.06,-0.2,0,0,-1,0.46,1.88,25,,,,,,,,,,,,,,,,,,,,,,,,,,24,24,24,25,25,25,25,26,27,29,28,28,28,28,28,26,24,26,26,26,26,26,26,26,26,26,26,25,24,24,24,24,,,,,,,,,,,,,,
3594,0,0.0599,,,,,,,,,,,,,,,,,,,,,,,,,,,,,,,,,,,,24,24,24,25,25,25,25,26,27,29,28,28,28,28,28,26,24,26,26,26,26,26,26,26,26,26,26,25,24,24,24,24,,,,,,,,,,,,,,
3614,0,0.0602,,-0.43,0.01,-0.09,0,0,-1,0.44,1.88,24,,,,,,,,,,,,,,,,,,,,,,,,,,24,24,24,25,25,25,25,26,27,29,28,28,29,28,28,26,24,26,26,26,26,26,26,26,26,26,26,24,24,24,24,24,,,,,,,,,,,,,,
3634,0,0.0606,,,,,,,,,,,,,,,,,,,,,,,,,,,,,,,,,,,,24,24,24,25,25,25,25,26,27,29,28,28,29,28,28,26,24,26,26,26,26,26,26,26,26,26,26,24,24,24,24,24,,,,,,,,,,,,,,
3654,0,0.0609,,-0.1,-0.03,-0.18,-0,1,0,0.21,1.88,11,1,113.64,28.44,72.96,121.29,12.93,3264,0,23,60.5,0.97,0.87,12.71,0.0,119.0,65,63,0,0,49,0,0,0,0,0,24,24,24,26,25,25,25,26,27,29,28,28,29,28,28,26,24,26,26,26,26,26,26,26,26,26,26,24,24,24,24,24,0.0,0.0,0.0,0.0,0,0,0.0,0,0.0,-1,0.0,0,0.0,0.0609
3674,0,0.0612,,,,,,,,,,,,,,,,,,,,,,,,,,,,,,,,,,,,24,24,24,26,25,25,25,26,27,29,28,28,29,28,28,26,24,26,26,26,26,26,26,26,26,26,26,24,24,24,24,24,,,,,,,,,,,,,,
3694,0,0.0616,,0.0,-0.02,-0.08,-0,0,1,0.08,1.88,4,,,,,,,,,,,,,,,,,,,,,,,,,,24,24,24,26,25,25,25,26,27,29,28,28,29,28,28,26,24,26,26,26,26,26,26,26,26,26,26,24,24,24,24,24,,,,,,,,,,,,,,
3714,0,0.0619,,,,,,,,,,,,,,,,,,,,,,,,,,,,,,,,,,,,24,24,24,26,25,25,25,26,27,29,28,28,29,28,28,26,24,26,26,26,26,26,26,26,26,26,26,24,24,24,24,24,,,,,,,,,,,,,,
3734,0,0.0622,,-0.12,-0.03,0.12,-0,-0,1,0.17,1.88,9,,,,,,,,,,,,,,,,,,,,,,,,,,24,24,24,26,25,25,25,26,28,29,28,28,29,28,28,26,24,26,26,26,26,26,26,26,26,26,26,25,24,24,24,24,,,,,,,,,,,,,,
3754,0,0.0626,,,,,,,,,,,1,113.52,28.98,73.29,119.55,12.92,3280,0,23,58.3,0.97,0.85,12.72,0.0,110.0,63,63,0,0,49,0,0,0,0,0,24,24,24,26,25,25,25,26,28,29,28,28,29,28,28,26,24,26,26,26,26,26,26,26,26,26,26,25,24,24,24,24,0.0,0.0,0.0,0.0,0,0,0.0,0,0.0,-1,0.0,0,0.0,0.0626
3774,0,0.0629,,-0.24,0.02,0.2,-0,1,2,0.31,1.88,16,,,,,,,,,,,,,,,,,,,,,,,,,,24,24,24,26,25,25,25,26,28,29,28,28,29,28,28,26,24,26,26,26,26,26,26,26,26,26,26,25,24,24,24,24,,,,,,,,,,,,,,
3794,0,0.0632,,,,,,,,,,,,,,,,,,,,,,,,,,,,,,,,,,,,24,24,24,26,25,26,26,26,28,29,29,28,28,28,28,26,24,26,26,26,26,26,26,26,26,26,26,25,24,24,24,24,,,,,,,,,,,,,,
3814,0,0.0636,,-0.26,0.03,0.19,-0,1,1,0.32,1.88,17,,,,,,,,,,,,,,,,,,,,,,,,,,24,24,24,26,25,26,26,26,28,29,29,28,28,28,28,26,24,26,26,26,26,26,26,26,26,26,26,24,24,24,24,24,,,,,,,,,,,,,,
3834,0,0.0639,,,,,,,,,,,,,,,,,,,,,,,,,,,,,,,,,,,,24,24,24,26,25,26,26,26,28,29,29,28,28,28,28,26,24,26,26,26,26,26,26,26,26,26,26,24,24,24,24,24,,,,,,,,,,,,,,
3854,0,0.0642,,0.02,0.04,-0.03,-0,1,1,0.05,1.88,3,1,113.85,28.98,73.17,117.69,12.91,3274,1,23,60.3,0.97,0.83,12.72,0.0,121.0,65,63,0,0,49,0,0,0,0,0,24,24,24,26,25,25,26,26,27,29,28,28,28,28,28,26,24,26,26,26,26,26,26,26,26,26,26,24,24,24,24,24,0.0,0.0,0.0,0.0,0,0,0.0,0,0.0,-1,0.0,0,0.0,0.0642
3874,0,0.0646,,,,,,,,,,,,,,,,,,,,,,,,,,,,,,,,,,,,24,24,24,26,25,25,26,26,27,29,28,28,28,28,28,26,24,26,26,26,26,26,26,26,26,26,26,24,24,24,24,24,,,,,,,,,,,,,,
3894,0,0.0649,,0.1,0.03,-0.09,-0,-1,-0,0.14,1.88,7,,,,,,,,,,,,,,,,,,,,,,,,,,24,24,24,26,25,25,26,26,27,29,28,28,28,28,28,26,24,26,26,26,26,26,26,26,26,26,26,24,24,24,24,24,,,,,,,,,,,,,,
3914,0,0.0652,,,,,,,,,,,,,,,,,,,,,,,,,,,,,,,,,,,,24,24,24,26,25,26,25,26,27,29,28,28,28,28,28,26,24,26,26,26,26,26,26,26,26,26,26,24,24,24,24,24,,,,,,,,,,,,,,
3934,0,0.0656,,0.03,0.01,0.11,0,-1,0,0.11,1.88,6,,,,,,,,,,,,,,,,,,,,,,,,,,24,24,24,26,25,26,25,26,26,28,28,28,28,28,28,26,24,26,26,26,26,26,26,26,26,26,26,24,24,24,24,24,,,,,,,,,,,,,,
3954,0,0.0659,,,,,,,,,,,1,113.52,28.98,73.29,115.92,12.94,3293,1,23,60.4,0.97,0.86,12.72,0.0,119.0,64,63,0,0,49,0,0,0,0,0,24,24,24,26,25,26,25,26,26,28,28,28,28,28,28,26,24,26,26,26,26,26,26,26,26,26,26,24,24,24,24,24,0.0,0.0,0.0,0.0,0,0,0.0,0,0.0,-1,0.0,0,0.0,0.0659
3974,0,0.0662,,-0.09,0.04,0.19,0,0,1,0.22,1.88,12,,,,,,,,,,,,,,,,,,,,,,,,,,24,24,24,25,25,25,25,26,26,28,28,28,28,28,28,26,24,26,26,26,26,26,26,26,26,26,26,24,24,24,24,24,,,,,,,,,,,,,,
3994,0,0.0666,,,,,,,,,,,,,,,,,,,,,,,,,,,,,,,,,,,,24,24,24,25,25,25,25,26,27,29,28,28,28,28,28,26,24,26,26,26,26,26,26,26,26,25,26,24,24,24,24,24,,,,,,,,,,,,,,
4014,0,0.0669,,-0.24,0.07,0.13,0,0,0,0.28,1.88,15,,,,,,,,,,,,,,,,,,,,,,,,,,24,24,24,25,25,25,25,26,27,29,28,28,28,28,28,26,24,26,26,26,26,26,26,26,26,25,26,24,24,24,24,24,,,,,,,,,,,,,,
4034,0,0.0672,,,,,,,,,,,,,,,,,,,,,,,,,,,,,,,,,,,,24,24,24,26,25,25,25,26,27,29,28,28,28,28,28,26,24,26,26,26,26,26,26,26,26,25,26,24,24,24,24,24,,,,,,,,,,,,,,
4054,0,0.0676,13.15,-0.23,0.03,0.21,0,1,1,0.31,1.88,17,1,113.52,29.07,73.38,117.36,12.92,3053,1,23,58.9,0.97,0.86,12.72,0.0,119.0,64,62,0,0,49,0,0,0,0,0,24,24,24,26,25,25,25,26,27,29,28,28,28,28,28,26,24,26,26,26,26,26,26,26,26,25,25,24,24,24,24,23,0.0,0.0,0.0,0.0,0,0,0.0,0,0.0,-1,0.0,0,0.0,0.0676
4074,0,0.0679,,,,,,,,,,,,,,,,,,,,,,,,,,,,,,,,,,,,24,24,24,26,25,25,25,26,27,29,28,28,28,28,28,26,24,26,26,26,26,26,26,26,26,25,25,24,24,24,24,23,,,,,,,,,,,,,,
4094,0,0.0682,,0.09,-0.02,0.12,-0,1,1,0.15,1.88,8,,,,,,,,,,,,,,,,,,,,,,,,,,24,24,24,26,25,25,25,26,27,29,28,28,28,28,28,26,24,26,26,26,26,26,26,26,26,25,25,24,24,24,24,23,,,,,,,,,,,,,,
4114,0,0.0686,,,,,,,,,,,,,,,,,,,,,,,,,,,,,,,,,,,,24,24,24,26,25,25,26,26,27,29,28,28,29,28,28,26,24,26,26,26,26,26,26,26,26,26,25,24,24,24,24,24,,,,,,,,,,,,,,
4134,0,0.0689,,0.17,-0.03,0.18,-0,-0,1,0.25,1.88,13,,,,,,,,,,,,,,,,,,,,,,,,,,24,24,24,26,25,25,26,26,27,29,28,28,29,28,28,26,24,26,26,26,26,26,26,26,26,26,25,24,24,24,24,24,,,,,,,,,,,,,,
4154,0,0.0692,,,,,,,,,,,1,113.76,28.86,73.05,119.88,12.92,3195,1,23,57.5,0.97,0.85,12.73,0.0,114.0,64,64,0,0,49,0,0,0,0,0,24,24,24,26,25,25,26,26,27,29,28,28,29,28,28,26,24,26,26,26,26,26,26,26,26,26,25,24,24,24,24,24,0.0,0.0,0.0,0.0,0,0,0.0,0,0.0,-1,0.0,0,0.0,0.0692
4174,0,0.0696,,0.07,-0.01,0.29,-0,-1,1,0.3,1.88,16,,,,,,,,,,,,,,,,,,,,,,,,,,24,24,24,26,26,25,26,26,27,29,28,28,28,28,28,26,24,26,26,26,26,26,26,26,26,25,26,24,24,24,24,23,,,,,,,,,,,,,,
4194,0,0.0699,,,,,,,,,,,,,,,,,,,,,,,,,,,,,,,,,,,,24,24,24,26,26,25,26,26,27,29,28,28,28,28,28,26,24,26,26,26,26,26,26,26,26,25,26,24,24,24,24,23,,,,,,,,,,,,,,
4214,0,0.0702,,0.0,0.01,0.4,0,0,2,0.4,1.88,21,,,,,,,,,,,,,,,,,,,,,,,,,,24,24,24,26,26,25,26,26,27,29,28,28,28,28,28,26,24,26,26,26,26,26,26,26,26,25,26,24,24,24,24,23,,,,,,,,,,,,,,
4234,0,0.0706,,,,,,,,,,,,,,,,,,,,,,,,,,,,,,,,,,,,24,24,24,26,25,25,26,26,27,29,28,28,28,28,28,26,24,26,26,26,26,26,26,26,26,25,26,24,24,24,24,23,,,,,,,,,,,,,,
4254,0,0.0709,,-0.03,0.05,0.25,0,1,1,0.26,1.88,14,1,113.64,28.98,73.05,115.92,12.88,3112,1,23,61.1,0.97,0.88,12.73,0.0,106.0,64,63,0,0,49,0,0,0,0,0,24,24,24,26,25,25,26,26,27,29,28,28,28,28,28,26,24,26,26,26,26,26,26,26,26,26,26,24,24,24,24,24,0.0,0.0,0.0,0.0,0,0,0.0,0,0.0,-1,0.0,0,0.0,0.0709
4274,0,0.0712,,,,,,,,,,,,,,,,,,,,,,,,,,,,,,,,,,,,24,24,24,26,25,25,26,26,27,29,28,28,28,28,28,26,24,26,26,26,26,26,26,26,26,26,26,24,24,24,24,24,,,,,,,,,,,,,,
4294,0,0.0716,,-0.1,0.05,0.36,0,3,1,0.37,1.88,20,,,,,,,,,,,,,,,,,,,,,,,,,,24,24,24,26,25,25,26,26,27,29,28,28,28,28,28,26,24,26,26,26,26,26,26,26,26,26,26,24,24,24,24,24,,,,,,,,,,,,,,
4314,0,0.0719,,,,,,,,,,,,,,,,,,,,,,,,,,,,,,,,,,,,24,24,24,26,25,25,26,26,27,29,28,28,28,28,28,26,24,26,26,26,26,26,26,26,27,26,26,25,24,24,24,24,,,,,,,,,,,,,,
4334,0,0.0722,,-0.22,0.06,0.24,0,3,1,0.33,1.88,17,,,,,,,,,,,,,,,,,,,,,,,,,,24,24,24,26,25,25,26,26,27,29,28,28,28,28,28,26,24,26,26,26,26,26,26,26,27,26,26,25,24,24,24,24,,,,,,,,,,,,,,
4354,0,0.0726,,,,,,,,,,,1,113.64,28.98,72.96,116.04,12.91,2962,1,23,60.1,0.97,0.86,12.72,0.0,107.0,65,62,0,0,49,0,0,0,0,0,24,24,24,25,25,25,26,26,27,29,28,28,28,28,28,26,24,26,26,26,26,26,26,26,27,26,26,25,24,24,24,24,0.0,0.0,0.0,0.0,0,0,0.0,0,0.0,-1,0.0,0,0.0,0.0726
4374,0,0.0729,,-0.34,0.06,-0.07,0,1,-0,0.36,1.88,19,,,,,,,,,,,,,,,,,,,,,,,,,,24,24,24,25,25,25,26,26,27,29,28,28,29,28,28,26,24,26,26,26,26,26,26,26,26,26,26,24,24,24,24,24,,,,,,,,,,,,,,
4394,0,0.0732,,,,,,,,,,,,,,,,,,,,,,,,,,,,,,,,,,,,24,24,24,25,25,25,26,26,27,29,28,28,29,28,28,26,24,26,26,26,26,26,26,26,26,26,26,24,24,24,24,24,,,,,,,,,,,,,,
4414,0,0.0736,,-0.42,0.03,-0.04,0,1,-0,0.42,1.88,22,,,,,,,,,,,,,,,,,,,,,,,,,,24,24,24,25,25,25,25,26,27,29,28,28,29,28,28,26,24,26,26,26,26,26,26,26,26,26,26,24,24,24,24,24,,,,,,,,,,,,,,
4434,0,0.0739,,,,,,,,,,,,,,,,,,,,,,,,,,,,,,,,,,,,24,24,24,25,25,25,25,26,27,29,28,28,28,28,28,26,24,26,26,26,26,26,26,26,26,26,25,24,24,24,24,24,,,,,,,,,,,,,,
4454,0,0.0742,,-0.45,-0.0,0.05,0,1,0,0.45,1.88,24,1,113.52,28.86,73.05,115.14,12.93,3024,1,23,63.7,0.97,0.85,12.72,0.0,115.0,65,63,0,0,49,0,0,0,0,0,24,24,24,25,25,25,25,26,27,29,28,28,28,28,28,26,24,26,26,26,26,26,26,26,26,26,25,24,24,24,24,24,0.0,0.0,0.0,0.0,0,0,0.0,0,0.0,-1,0.0,0,0.0,0.0742
4474,0,0.0746,,,,,,,,,,,,,,,,,,,,,,,,,,,,,,,,,,,,24,24,24,25,25,25,25,26,27,29,28,28,28,28,28,26,24,26,26,26,26,26,26,26,26,26,25,24,24,24,24,24,,,,,,,,,,,,,,
4494,0,0.0749,,-0.43,-0.03,-0.06,-0,1,0,0.43,1.88,23,,,,,,,,,,,,,,,,,,,,,,,,,,24,24,24,25,25,25,25,26,27,29,28,28,28,28,28,26,24,26,26,26,26,26,26,26,26,25,26,24,24,24,24,24,,,,,,,,,,,,,,
4514,0,0.0752,,,,,,,,,,,,,,,,,,,,,,,,,,,,,,,,,,,,24,24,24,25,25,25,25,26,27,29,28,28,28,28,28,26,24,26,26,26,26,26,26,26,26,25,26,24,24,24,24,24,,,,,,,,,,,,,,
4534,0,0.0756,,-0.32,-0.06,-0.02,-0,1,1,0.33,1.88,17,,,,,,,,,,,,,,,,,,,,,,,,,,24,24,24,25,25,25,25,26,27,29,28,28,28,28,28,26,24,26,26,26,26,26,26,26,26,25,26,24,24,24,24,24,,,,,,,,,,,,,,
4554,0,0.0759,,,,,,,,,,,1,113.52,28.86,73.05,115.71,12.93,2911,0,23,62.0,0.97,0.85,12.72,0.0,116.0,64,62,0,0,49,0,0,0,0,0,24,24,24,26,25,25,25,26,27,29,28,28,28,28,28,26,24,26,26,26,26,26,26,26,26,26,26,24,24,24,24,24,0.0,0.0,0.0,0.0,0,0,0.0,0,0.0,-1,0.0,0,0.0,0.0759
4574,0,0.0762,,-0.08,-0.1,0.01,-1,1,2,0.13,1.88,7,,,,,,,,,,,,,,,,,,,,,,,,,,24,24,24,26,25,25,25,26,27,29,28,28,28,28,28,26,24,26,26,26,26,26,26,26,26,26,26,24,24,24,24,24,,,,,,,,,,,,,,
4594,0,0.0766,,,,,,,,,,,,,,,,,,,,,,,,,,,,,,,,,,,,24,24,24,26,25,25,25,26,27,29,28,28,28,28,28,26,24,26,26,26,26,26,26,26,26,26,26,24,24,24,24,24,,,,,,,,,,,,,,
4614,0,0.0769,,0.17,-0.06,-0.01,-1,1,2,0.18,1.88,9,,,,,,,,,,,,,,,,,,,,,,,,,,24,24,24,26,25,25,26,26,27,29,28,28,29,28,28,26,24,26,26,26,26,26,26,26,26,26,26,24,24,24,24,24,,,,,,,,,,,,,,
4634,0,0.0772,,,,,,,,,,,,,,,,,,,,,,,,,,,,,,,,,,,,24,24,24,26,25,25,26,26,27,29,28,28,29,28,28,26,24,26,26,26,26,26,26,26,26,25,25,24,24,24,24,24,,,,,,,,,,,,,,
4654,0,0.0776,,0.1,-0.02,0.13,-0,0,2,0.16,1.88,9,1,113.31,28.86,73.17,121.86,12.92,3287,0,23,59.5,0.97,0.86,12.72,0.0,121.0,64,64,0,0,49,0,0,0,0,0,24,24,24,26,25,25,26,26,27,29,28,28,29,28,28,26,24,26,26,26,26,26,26,26,26,25,25,24,24,24,24,24,0.0,0.0,0.0,0.0,0,0,0.0,0,0.0,-1,0.0,0,0.0,0.0776
4674,0,0.0779,,,,,,,,,,,,,,,,,,,,,,,,,,,,,,,,,,,,24,24,24,26,25,25,26,26,27,29,28,28,29,28,28,26,24,26,26,26,26,26,26,26,26,25,25,24,24,24,24,24,,,,,,,,,,,,,,
4694,0,0.0782,,0.02,-0.0,0.28,-0,0,2,0.28,1.88,15,,,,,,,,,,,,,,,,,,,,,,,,,,24,24,24,26,25,25,26,26,27,29,29,28,29,28,28,26,24,26,26,26,26,26,26,26,26,26,26,24,24,24,24,24,,,,,,,,,,,,,,
4714,0,0.0786,,,,,,,,,,,,,,,,,,,,,,,,,,,,,,,,,,,,24,24,24,26,25,25,26,26,27,29,29,28,29,28,28,26,24,26,26,26,26,26,26,26,26,26,26,24,24,24,24,24,,,,,,,,,,,,,,
4734,0,0.0789,,-0.04,0.0,0.28,-0,2,2,0.28,1.88,15,,,,,,,,,,,,,,,,,,,,,,,,,,24,24,24,25,25,25,25,26,27,29,29,28,29,28,28,26,24,26,26,26,26,26,26,26,26,26,26,24,24,24,24,24,,,,,,,,,,,,,,
4754,0,0.0792,,,,,,,,,,,1,113.1,28.98,73.29,114.15,12.9,3303,1,23,62.3,0.97,0.84,12.72,0.0,116.0,64,62,0,0,49,0,0,0,0,0,24,24,24,25,25,25,25,26,27,29,28,29,29,28,28,26,24,26,26,26,26,26,26,26,26,25,25,24,24,24,24,24,0.0,0.0,0.0,0.0,0,0,0.0,0,0.0,-1,0.0,0,0.0,0.0792
4774,0,0.0796,,-0.21,0.02,0.31,0,1,1,0.37,1.88,20,,,,,,,,,,,,,,,,,,,,,,,,,,24,24,24,25,25,25,25,26,27,29,28,29,29,28,28,26,24,26,26,26,26,26,26,26,26,25,25,24,24,24,24,24,,,,,,,,,,,,,,
4794,0,0.0799,,,,,,,,,,,,,,,,,,,,,,,,,,,,,,,,,,,,24,24,24,25,25,25,25,26,27,29,28,29,29,28,28,26,24,26,26,26,26,26,26,26,26,25,25,24,24,24,24,24,,,,,,,,,,,,,,
4814,0,0.0802,,-0.08,-0.02,0.13,0,1,1,0.15,1.88,8,,,,,,,,,,,,,,,,,,,,,,,,,,24,24,24,25,25,25,25,26,28,30,29,29,29,29,28,26,24,26,26,26,26,26,26,26,26,25,26,24,24,24,24,24,,,,,,,,,,,,,,
4834,0,0.0806,,,,,,,,,,,,,,,,,,,,,,,,,,,,,,,,,,,,24,24,24,25,25,25,25,26,28,30,29,29,29,29,28,26,24,26,26,26,26,26,26,26,26,25,26,24,24,24,24,24,,,,,,,,,,,,,,
4854,0,0.0809,,0.23,-0.05,-0.0,-0,1,1,0.24,1.88,13,1,113.52,28.98,73.05,118.35,12.91,3436,0,23,60.2,0.97,0.86,12.72,0.0,114.0,66,64,0,0,49,0,0,0,0,0,24,24,24,25,25,25,25,26,28,30,29,29,29,29,28,26,24,26,26,26,26,26,26,26,26,25,26,24,24,24,24,24,0.0,0.0,0.0,0.0,0,0,0.0,0,0.0,-1,0.0,0,0.0,0.0809
4874,0,0.0812,,,,,,,,,,,,,,,,,,,,,,,,,,,,,,,,,,,,24,24,24,25,25,25,25,26,27,29,29,28,29,28,28,26,24,26,26,26,26,26,26,26,26,26,26,24,24,24,24,24,,,,,,,,,,,,,,
4894,0,0.0816,,0.26,-0.05,0.17,-0,0,1,0.31,1.88,17,,,,,,,,,,,,,,,,,,,,,,,,,,24,24,24,25,25,25,25,26,27,29,29,28,29,28,28,26,24,26,26,26,26,26,26,26,26,26,26,24,24,24,24,24,,,,,,,,,,,,,,
4914,0,0.0819,,,,,,,,,,,,,,,,,,,,,,,,,,,,,,,,,,,,24,24,24,25,25,25,25,26,27,29,29,28,29,28,28,26,24,26,26,26,26,26,26,26,26,26,26,24,24,24,24,24,,,,,,,,,,,,,,
4934,0,0.0822,,0.08,-0.04,0.32,-0,-0,2,0.33,1.88,18,,,,,,,,,,,,,,,,,,,,,,,,,,24,24,24,25,25,25,25,26,28,30,29,29,29,28,28,26,24,26,26,26,26,26,26,26,26,25,26,24,24,24,24,24,,,,,,,,,,,,,,
4954,0,0.0826,,,,,,,,,,,1,113.43,28.98,73.05,118.44,12.91,3168,1,23,58.0,0.97,0.83,12.73,0.0,111.0,64,63,0,0,49,0,0,0,0,0,24,24,24,25,25,25,25,26,28,30,29,29,29,28,28,26,24,26,26,26,26,26,26,26,26,25,26,24,24,24,24,24,0.0,0.0,0.0,0.0,0,0,0.0,0,0.0,-1,0.0,0,0.0,0.0826
4974,0,0.0829,,-0.05,0.01,0.3,-0,1,2,0.31,1.88,16,,,,,,,,,,,,,,,,,,,,,,,,,,24,24,24,25,25,25,25,26,28,30,29,29,29,28,28,26,24,26,26,26,26,26,27,26,26,25,26,24,24,24,24,24,,,,,,,,,,,,,,
4994,0,0.0832,,,,,,,,,,,,,,,,,,,,,,,,,,,,,,,,,,,,24,24,24,26,25,25,25,26,27,29,29,28,29,28,28,26,24,26,26,26,26,26,27,26,26,25,26,24,24,24,24,24,,,,,,,,,,,,,,
5014,0,0.0836,,-0.19,0.02,0.18,-0,0,1,0.26,1.88,14,,,,,,,,,,,,,,,,,,,,,,,,,,24,24,24,26,25,25,25,26,27,29,29,28,29,28,28,26,24,26,26,26,26,26,27,26,26,26,25,24,24,24,24,24,,,,,,,,,,,,,,
5034,0,0.0839,,,,,,,,,,,,,,,,,,,,,,,,,,,,,,,,,,,,24,24,24,26,25,25,25,26,27,29,29,28,29,28,28,26,24,26,26,26,26,26,26,26,26,26,25,24,24,24,24,24,,,,,,,,,,,,,,
5054,0,0.0842,13.19,-0.04,-0.02,0.15,-0,0,1,0.15,1.88,8,1,113.31,28.98,73.29,113.16,12.93,3211,0,23,63.5,0.97,0.85,12.73,0.0,121.0,65,63,0,0,49,0,0,0,0,0,24,24,24,25,25,25,25,26,27,29,29,28,29,28,28,26,24,26,26,26,26,26,26,26,26,26,25,24,24,24,24,24,0.0,0.0,0.0,0.0,0,0,0.0,0,0.0,-1,0.0,0,0.0,0.0842
5074,0,0.0846,,,,,,,,,,,,,,,,,,,,,,,,,,,,,,,,,,,,24,24,24,25,25,25,25,26,27,30,28,29,29,28,28,26,24,26,26,26,26,26,26,26,26,25,25,24,24,24,24,24,,,,,,,,,,,,,,
5094,0,0.0849,,0.24,-0.01,0.09,-0,1,1,0.26,1.88,14,,,,,,,,,,,,,,,,,,,,,,,,,,24,24,24,25,25,25,25,26,27,30,28,29,29,28,28,26,24,26,26,26,26,26,26,26,26,25,25,24,24,24,24,24,,,,,,,,,,,,,,
5114,0,0.0852,,,,,,,,,,,,,,,,,,,,,,,,,,,,,,,,,,,,24,24,24,25,25,25,25,26,27,30,28,29,29,28,28,26,24,26,26,26,26,26,26,26,26,25,25,24,24,24,24,24,,,,,,,,,,,,,,
5134,0,0.0856,,0.29,0.0,0.09,-0,0,0,0.3,1.88,16,,,,,,,,,,,,,,,,,,,,,,,,,,24,24,24,25,25,25,25,26,28,29,29,29,29,29,28,26,24,26,26,26,26,26,26,26,26,25,26,24,24,24,24,24,,,,,,,,,,,,,,
5154,0,0.0859,,,,,,,,,,,1,113.43,28.98,73.17,114.93,12.94,3293,0,23,60.7,0.97,0.86,12.73,0.0,115.0,65,64,0,0,49,0,0,0,0,0,24,24,24,25,25,25,25,26,28,29,29,29,29,29,28,26,24,26,26,26,26,26,26,26,26,25,26,24,24,24,24,24,0.0,0.0,0.0,0.0,0,0,0.0,0,0.0,-1,0.0,0,0.0,0.0859
5174,0,0.0862,,0.2,0.01,0.25,-0,-0,0,0.32,1.88,17,,,,,,,,,,,,,,,,,,,,,,,,,,24,24,24,25,25,25,25,26,28,29,29,29,29,29,28,26,24,26,26,26,26,26,26,26,26,25,26,24,24,24,24,24,,,,,,,,,,,,,,
5194,0,0.0866,,,,,,,,,,,,,,,,,,,,,,,,,,,,,,,,,,,,24,24,24,25,25,25,25,26,27,29,28,28,29,28,28,26,24,26,26,26,26,26,26,26,26,25,26,24,24,24,24,24,,,,,,,,,,,,,,
5214,0,0.0869,,0.1,-0.01,0.27,0,-1,1,0.29,1.88,15,,,,,,,,,,,,,,,,,,,,,,,,,,24,24,24,25,25,25,25,26,27,29,28,28,29,28,28,26,24,26,26,26,26,26,26,26,26,25,26,24,24,24,24,24,,,,,,,,,,,,,,
5234,0,0.0872,,,,,,,,,,,,,,,,,,,,,,,,,,,,,,,,,,,,23,24,24,25,25,25,25,26,27,29,28,28,29,28,28,26,24,26,26,26,26,26,27,26,26,25,26,24,24,24,24,24,,,,,,,,,,,,,,
5254,0,0.0876,,0.04,0.01,0.4,0,-0,2,0.4,1.88,22,1,113.64,28.98,73.05,119.97,12.92,3132,1,23,58.0,0.97,0.88,12.73,0.0,116.0,64,63,0,0,49,0,0,0,0,0,23,24,24,25,25,25,25,26,27,29,29,28,29,28,28,26,24,26,26,26,26,26,27,26,26,26,26,24,24,24,24,24,0.0,0.0,0.0,0.0,0,0,0.0,0,0.0,-1,0.0,0,0.0,0.0876
5274,0,0.0879,,,,,,,,,,,,,,,,,,,,,,,,,,,,,,,,,,,,23,24,24,25,25,25,25,26,27,29,29,28,29,28,28,26,24,26,26,26,26,26,27,26,26,26,26,24,24,24,24,24,,,,,,,,,,,,,,
5294,0,0.0882,,-0.02,-0.0,0.3,0,0,1,0.3,1.88,16,,,,,,,,,,,,,,,,,,,,,,,,,,23,24,24,25,25,25,25,26,27,29,29,28,29,28,28,26,24,26,26,26,26,26,26,26,26,26,26,24,24,24,24,24,,,,,,,,,,,,,,
5314,0,0.0886,,,,,,,,,,,,,,,,,,,,,,,,,,,,,,,,,,,,23,24,24,25,25,25,25,26,27,29,28,29,29,28,28,26,24,26,26,26,26,26,26,26,26,25,26,24,24,24,24,24,,,,,,,,,,,,,,
5334,0,0.0889,,-0.12,-0.0,0.17,0,1,1,0.21,1.88,11,,,,,,,,,,,,,,,,,,,,,,,,,,23,24,24,25,25,25,25,26,27,29,28,29,29,28,28,26,24,26,26,26,26,26,26,26,26,25,26,24,24,24,24,24,,,,,,,,,,,,,,
5354,0,0.0892,,,,,,,,,,,1,113.76,28.98,73.05,119.55,12.89,3177,1,23,62.6,0.97,0.85,12.72,0.0,117.0,65,62,0,0,49,0,0,0,0,0,23,24,24,25,25,25,25,26,27,29,28,29,29,28,28,26,24,26,26,26,26,26,26,26,26,25,26,24,24,24,24,24,0.0,0.0,0.0,0.0,0,0,0.0,0,0.0,-1,0.0,0,0.0,0.0892
5374,0,0.0896,,-0.29,0.0,0.09,0,-0,0,0.3,1.88,16,,,,,,,,,,,,,,,,,,,,,,,,,,23,24,24,25,24,24,25,26,28,30,29,29,29,29,28,26,24,26,26,26,26,26,26,26,26,25,26,24,24,24,24,24,,,,,,,,,,,,,,
5394,0,0.0899,,,,,,,,,,,,,,,,,,,,,,,,,,,,,,,,,,,,23,24,24,25,24,24,25,26,28,30,29,29,29,29,28,26,24,26,26,26,26,26,26,26,26,26,25,24,24,24,24,24,,,,,,,,,,,,,,
5414,0,0.0902,,-0.31,-0.04,-0.03,0,-0,-0,0.32,1.88,17,,,,,,,,,,,,,,,,,,,,,,,,,,23,24,24,25,24,24,25,26,28,30,29,29,29,29,28,26,24,26,26,26,26,26,27,26,26,26,25,24,24,24,24,24,,,,,,,,,,,,,,
5434,0,0.0906,,,,,,,,,,,,,,,,,,,,,,,,,,,,,,,,,,,,23,24,24,25,24,25,25,26,28,30,29,29,29,29,28,26,24,26,26,26,26,26,27,26,26,26,25,24,24,24,24,24,,,,,,,,,,,,,,
5454,0,0.0909,,-0.11,-0.11,-0.03,0,-0,0,0.16,1.88,8,1,113.97,28.86,72.84,116.25,12.93,3115,1,23,60.8,0.97,0.87,12.72,0.0,114.0,66,63,0,0,49,0,0,0,0,0,23,24,24,25,24,25,25,26,28,30,29,29,29,29,28,26,24,26,26,26,26,26,27,26,26,26,26,25,24,24,24,24,0.0,0.0,0.0,0.0,0,0,0.0,0,0.0,-1,0.0,0,0.0,0.0909
5474,0,0.0912,,,,,,,,,,,,,,,,,,,,,,,,,,,,,,,,,,,,23,24,24,25,24,25,25,26,28,30,29,29,29,29,28,26,24,26,26,26,26,26,27,26,26,26,26,25,24,24,24,24,,,,,,,,,,,,,,
5494,0,0.0916,,0.16,-0.12,-0.33,0,-0,1,0.38,1.88,20,,,,,,,,,,,,,,,,,,,,,,,,,,24,24,24,25,25,25,25,26,28,30,29,29,29,29,28,26,24,26,26,26,26,26,27,26,26,26,26,25,24,24,24,24,,,,,,,,,,,,,,
5514,0,0.0919,,,,,,,,,,,,,,,,,,,,,,,,,,,,,,,,,,,,24,24,24,25,25,25,25,26,27,30,29,29,29,28,28,26,24,26,26,26,26,26,27,26,26,26,26,24,24,24,24,24,,,,,,,,,,,,,,
5534,0,0.0922,,0.33,-0.06,-0.31,-0,-0,1,0.46,1.88,25,,,,,,,,,,,,,,,,,,,,,,,,,,24,24,24,25,25,25,25,26,27,30,29,29,29,28,28,26,24,26,26,26,26,26,26,26,26,26,26,24,24,24,24,24,,,,,,,,,,,,,,
5554,0,0.0926,,,,,,,,,,,1,113.52,28.86,72.96,117.78,12.9,3150,1,23,62.1,0.97,0.86,12.72,0.0,113.0,64,64,0,0,49,0,0,0,0,0,24,24,24,25,25,25,25,26,27,30,29,29,29,28,28,26,24,26,26,26,26,26,26,26,26,26,26,24,24,24,24,24,0.0,0.0,0.0,0.0,0,0,0.0,0,0.0,-1,0.0,0,0.0,0.0926
5574,0,0.0929,,0.29,0.0,-0.33,-0,-2,0,0.44,1.88,23,,,,,,,,,,,,,,,,,,,,,,,,,,24,24,24,25,25,25,25,26,27,29,29,28,29,28,28,26,24,26,26,26,26,26,26,26,26,26,26,24,24,24,24,24,,,,,,,,,,,,,,
5594,0,0.0932,,,,,,,,,,,,,,,,,,,,,,,,,,,,,,,,,,,,24,24,24,25,25,25,25,26,27,29,29,28,29,28,28,26,24,26,26,26,26,26,26,26,26,26,26,24,24,24,24,24,,,,,,,,,,,,,,
5614,0,0.0936,,0.18,0.04,-0.09,-0,-1,1,0.21,1.88,11,,,,,,,,,,,,,,,,,,,,,,,,,,24,24,24,26,25,25,26,26,27,29,29,28,29,28,28,26,24,26,26,26,26,26,26,26,26,26,26,24,24,24,24,24,,,,,,,,,,,,,,
5634,0,0.0939,,,,,,,,,,,,,,,,,,,,,,,,,,,,,,,,,,,,24,24,24,26,25,25,26,26,27,29,29,29,29,28,28,26,24,26,26,26,26,26,26,26,26,26,26,24,24,24,24,23,,,,,,,,,,,,,,
5654,0,0.0942,,0.06,0.02,-0.19,-0,-3,0,0.2,1.88,11,1,113.52,28.86,73.17,115.59,12.92,3236,1,23,62.7,0.97,0.84,12.72,0.0,104.0,63,63,0,0,49,0,0,0,0,0,24,24,24,26,25,25,26,26,27,29,29,29,29,28,28,26,24,26,26,26,26,26,26,26,26,26,26,24,24,24,24,23,0.0,0.0,0.0,0.0,0,0,0.0,0,0.0,-1,0.0,0,0.0,0.0942
5674,0,0.0946,,,,,,,,,,,,,,,,,,,,,,,,,,,,,,,,,,,,24,24,24,26,25,25,25,26,27,29,29,29,29,28,28,26,24,26,26,26,26,26,26,26,26,26,26,24,24,24,24,23,,,,,,,,,,,,,,
5694,0,0.0949,,0.04,0.04,0.02,0,-1,1,0.06,1.88,3,,,,,,,,,,,,,,,,,,,,,,,,,,24,24,24,26,25,25,25,26,28,30,29,29,29,28,28,26,24,26,26,26,26,26,26,26,26,25,26,24,24,24,24,24,,,,,,,,,,,,,,
5714,0,0.0952,,,,,,,,,,,,,,,,,,,,,,,,,,,,,,,,,,,,24,24,24,26,25,25,25,26,28,30,29,29,29,28,28,26,24,26,26,26,26,26,26,26,26,25,26,24,24,24,24,24,,,,,,,,,,,,,,
5734,0,0.0956,,-0.02,0.02,-0.31,0,-0,0,0.31,1.88,17,,,,,,,,,,,,,,,,,,,,,,,,,,24,24,24,26,25,25,25,26,28,30,29,29,29,28,28,26,24,26,26,26,26,26,27,26,26,25,26,24,24,24,24,24,,,,,,,,,,,,,,
5754,0,0.0959,,,,,,,,,,,1,113.1,28.86,73.29,120.63,12.9,3097,0,23,60.1,0.97,0.86,12.72,0.0,111.0,65,62,0,0,49,0,0,0,0,0,24,24,24,26,25,25,26,26,27,29,28,29,29,28,28,26,24,26,26,26,26,26,27,26,26,25,26,24,24,24,24,24,0.0,0.0,0.0,0.0,0,0,0.0,0,0.0,-1,0.0,0,0.0,0.0959
5774,0,0.0962,,-0.14,0.01,-0.3,1,0,-0,0.33,1.88,18,,,,,,,,,,,,,,,,,,,,,,,,,,24,24,24,26,25,25,26,26,27,29,28,29,29,28,28,26,24,26,26,26,26,26,27,26,26,25,26,24,24,24,24,24,,,,,,,,,,,,,,
5794,0,0.0966,,,,,,,,,,,,,,,,,,,,,,,,,,,,,,,,,,,,24,24,24,26,25,25,26,26,27,29,28,29,29,28,28,26,24,26,26,26,26,26,26,26,26,25,26,24,24,24,24,24,,,,,,,,,,,,,,
5814,0,0.0969,,0.0,-0.06,-0.23,0,0,0,0.24,1.88,13,,,,,,,,,,,,,,,,,,,,,,,,,,24,24,24,26,25,26,26,26,27,29,28,29,29,28,28,26,24,26,26,26,26,26,26,26,26,25,26,24,24,24,24,24,,,,,,,,,,,,,,
5834,0,0.0972,,,,,,,,,,,,,,,,,,,,,,,,,,,,,,,,,,,,24,24,24,26,25,26,26,26,27,30,29,29,29,29,28,26,24,26,26,26,26,26,26,26,26,26,25,24,24,24,24,23,,,,,,,,,,,,,,
5854,0,0.0976,,0.22,-0.05,-0.25,0,0,-0,0.34,1.88,18,1,113.31,28.86,73.17,120.63,12.93,3276,0,23,59.9,0.97,0.86,12.73,0.0,120.0,66,64,0,0,49,0,0,0,0,0,24,24,24,26,25,26,26,26,27,30,29,29,29,29,28,26,24,26,26,26,26,26,26,26,26,26,25,24,24,24,24,23,0.0,0.0,0.0,0.0,0,0,0.0,0,0.0,-1,0.0,0,0.0,0.0976
5874,0,0.0979,,,,,,,,,,,,,,,,,,,,,,,,,,,,,,,,,,,,24,24,24,26,25,26,26,26,27,30,29,29,29,29,28,26,24,26,26,26,26,26,26,26,26,26,25,24,24,24,24,23,,,,,,,,,,,,,,
5894,0,0.0982,,0.12,-0.08,-0.03,0,-0,0,0.15,1.88,8,,,,,,,,,,,,,,,,,,,,,,,,,,24,24,24,26,25,26,26,26,28,30,29,29,29,29,28,26,24,26,26,26,26,26,26,26,26,26,25,24,24,24,24,23,,,,,,,,,,,,,,
5914,0,0.0986,,,,,,,,,,,,,,,,,,,,,,,,,,,,,,,,,,,,24,24,24,26,25,26,26,26,28,30,29,29,29,29,28,26,24,26,26,26,26,26,26,26,26,26,25,24,24,24,24,23,,,,,,,,,,,,,,
5934,0,0.0989,,0.02,-0.06,0.15,0,1,1,0.16,1.88,8,,,,,,,,,,,,,,,,,,,,,,,,,,24,24,24,26,25,25,25,26,28,30,29,29,29,29,28,26,24,26,26,26,26,26,26,26,26,26,25,24,24,24,24,23,,,,,,,,,,,,,,
5954,0,0.0992,,,,,,,,,,,1,113.76,28.86,73.05,119.88,12.93,3255,1,23,61.3,0.97,0.86,12.73,0.0,116.0,63,62,0,0,49,0,0,0,0,0,24,24,24,26,25,25,25,26,28,30,29,29,29,29,28,26,24,26,26,26,26,26,26,26,26,26,26,24,24,24,24,23,0.0,0.0,0.0,0.0,0,0,0.0,0,0.0,-1,0.0,0,0.0,0.0992
5974,0,0.0996,,-0.1,0.0,0.06,0,1,1,0.12,1.88,6,,,,,,,,,,,,,,,,,,,,,,,,,,24,24,24,26,25,25,25,26,28,30,29,29,29,29,28,26,24,26,26,26,26,26,26,26,26,26,26,24,24,24,24,23,,,,,,,,,,,,,,
5994,0,0.0999,,,,,,,,,,,,,,,,,,,,,,,,,,,,,,,,,,,,24,24,24,25,25,25,26,26,28,30,29,29,29,29,28,26,24,26,26,26,26,26,26,26,26,26,26,24,24,24,24,23,,,,,,,,,,,,,,
6014,0,0.1002,,-0.3,0.02,-0.11,0,1,0,0.32,1.88,17,,,,,,,,,,,,,,,,,,,,,,,,,,24,24,24,25,25,25,26,26,28,30,29,29,29,29,28,26,24,26,26,26,26,26,26,26,26,25,25,24,24,24,24,23,,,,,,,,,,,,,,
6034,0,0.1006,,,,,,,,,,,,,,,,,,,,,,,,,,,,,,,,,,,,24,24,24,25,25,25,26,26,28,30,29,29,29,29,28,26,24,26,26,26,26,26,26,26,26,25,25,24,24,24,24,23,,,,,,,,,,,,,,
6054,0,0.1009,13.13,-0.36,-0.01,-0.04,0,0,0,0.36,1.88,19,1,113.64,28.86,73.17,117.9,12.94,2885,1,23,59.9,0.97,0.87,12.73,0.0,112.0,64,62,0,0,49,0,0,0,0,0,24,24,24,26,25,25,26,26,28,30,29,29,29,29,28,26,24,26,26,26,26,26,26,26,26,25,25,24,24,24,24,23,0.0,0.0,0.0,0.0,0,0,0.0,0,0.0,-1,0.0,0,0.0,0.1009
6074,0,0.1012,,,,,,,,,,,,,,,,,,,,,,,,,,,,,,,,,,,,24,24,24,26,25,25,26,26,28,30,29,29,29,29,29,26,24,26,26,26,26,26,26,26,26,26,26,24,24,24,24,24,,,,,,,,,,,,,,
6094,0,0.1016,,-0.37,-0.07,-0.13,0,0,0,0.4,1.88,21,,,,,,,,,,,,,,,,,,,,,,,,,,24,24,24,26,25,25,26,26,28,30,29,29,29,29,29,26,24,26,26,26,26,26,26,26,26,26,26,24,24,24,24,24,,,,,,,,,,,,,,
6114,0,0.1019,,,,,,,,,,,,,,,,,,,,,,,,,,,,,,,,,,,,24,24,24,26,25,25,26,26,28,30,29,29,29,29,29,26,24,26,26,26,26,26,27,26,26,26,26,24,24,24,24,24,,,,,,,,,,,,,,
6134,0,0.1022,,-0.34,-0.13,-0.09,0,-0,-0,0.38,1.88,20,,,,,,,,,,,,,,,,,,,,,,,,,,24,24,24,25,25,25,25,26,27,30,29,29,29,29,28,26,24,26,26,26,26,26,27,26,26,26,26,24,24,24,24,24,,,,,,,,,,,,,,
6154,0,0.1026,,,,,,,,,,,1,113.64,28.86,73.05,114.39,12.94,3016,1,23,64.5,0.97,0.84,12.72,0.0,111.0,64,62,0,0,50,0,0,0,0,0,24,24,24,25,25,25,25,26,27,30,29,29,29,29,28,26,24,26,26,26,26,26,27,26,26,26,26,24,24,24,24,23,0.0,0.0,0.0,0.0,0,0,0.0,0,0.0,-1,0.0,0,0.0,0.1026
6174,0,0.1029,,-0.26,-0.18,-0.05,-0,-0,0,0.31,1.88,17,,,,,,,,,,,,,,,,,,,,,,,,,,24,24,24,25,25,25,25,26,27,30,29,29,29,29,28,26,24,26,26,26,26,26,27,26,26,26,26,24,24,24,24,23,,,,,,,,,,,,,,
6194,0,0.1032,,,,,,,,,,,,,,,,,,,,,,,,,,,,,,,,,,,,23,24,24,25,24,24,25,26,27,30,29,29,29,29,28,26,24,26,26,26,26,26,27,26,26,26,26,24,24,24,24,23,,,,,,,,,,,,,,
6214,0,0.1036,,-0.03,-0.2,-0.09,-0,-0,1,0.22,1.88,12,,,,,,,,,,,,,,,,,,,,,,,,,,23,24,24,25,24,24,25,26,28,30,29,29,29,29,29,26,24,26,26,26,26,26,27,26,26,26,26,24,24,24,24,24,,,,,,,,,,,,,,
6234,0,0.1039,,,,,,,,,,,,,,,,,,,,,,,,,,,,,,,,,,,,23,24,24,25,24,24,25,26,28,30,29,29,29,29,29,26,24,26,26,26,26,26,26,26,26,26,26,24,24,24,24,24,,,,,,,,,,,,,,
6254,0,0.1042,,0.19,-0.16,-0.26,-1,0,2,0.36,1.88,19,1,113.64,28.86,73.17,116.79,12.92,3380,0,23,61.7,0.97,0.84,12.72,0.0,115.0,63,62,0,0,50,0,0,0,0,0,24,24,24,25,24,25,25,26,28,30,29,29,29,29,29,26,24,26,26,26,26,26,26,26,26,26,26,24,24,24,24,24,0.0,0.0,0.0,0.0,0,0,0.0,0,0.0,-1,0.0,0,0.0,0.1042
6274,0,0.1046,,,,,,,,,,,,,,,,,,,,,,,,,,,,,,,,,,,,24,24,24,25,24,25,25,26,28,30,29,29,29,29,28,27,24,26,26,26,26,26,26,26,26,25,25,24,24,24,24,23,,,,,,,,,,,,,,
6294,0,0.1049,,0.18,-0.09,-0.1,-1,-1,1,0.22,1.88,12,,,,,,,,,,,,,,,,,,,,,,,,,,24,24,24,25,24,25,25,26,28,30,29,29,29,29,28,27,24,26,26,26,26,26,26,26,26,25,25,24,24,24,24,23,,,,,,,,,,,,,,
6314,0,0.1052,,,,,,,,,,,,,,,,,,,,,,,,,,,,,,,,,,,,24,24,24,25,25,25,25,26,28,30,29,29,29,29,28,27,24,26,26,26,26,26,26,26,26,25,25,24,24,24,24,23,,,,,,,,,,,,,,
6334,0,0.1056,,0.02,-0.07,0.06,-0,-1,2,0.1,1.88,5,,,,,,,,,,,,,,,,,,,,,,,,,,24,24,24,25,25,25,25,26,28,30,29,29,29,29,28,26,24,26,26,26,26,26,26,26,26,25,26,24,24,24,24,23,,,,,,,,,,,,,,
6354,0,0.1059,,,,,,,,,,,1,113.19,28.86,73.29,118.56,12.91,3221,1,23,58.4,0.97,0.86,12.72,0.0,110.0,62,62,0,0,50,0,0,0,0,0,24,24,24,25,25,25,25,26,28,30,29,29,29,29,28,26,24,26,26,26,26,26,26,26,26,25,26,24,24,24,24,23,0.0,0.0,0.0,0.0,0,0,0.0,0,0.0,-1,0.0,0,0.0,0.1059
6374,0,0.1062,,-0.02,-0.02,0.09,-0,1,2,0.09,1.88,5,,,,,,,,,,,,,,,,,,,,,,,,,,24,24,24,26,25,26,26,26,28,30,29,29,29,29,28,26,24,26,26,26,26,26,26,26,26,25,26,24,24,24,24,23,,,,,,,,,,,,,,
6394,0,0.1066,,,,,,,,,,,,,,,,,,,,,,,,,,,,,,,,,,,,24,24,24,26,25,26,26,26,28,30,29,29,29,29,28,27,24,26,26,26,26,26,26,26,26,26,26,24,24,24,24,23,,,,,,,,,,,,,,
6414,0,0.1069,,-0.16,-0.01,-0.12,0,-0,1,0.2,1.88,11,,,,,,,,,,,,,,,,,,,,,,,,,,24,24,24,26,25,26,26,26,28,30,29,29,29,29,28,27,24,26,26,26,26,26,26,26,26,26,26,24,24,24,24,23,,,,,,,,,,,,,,
6434,0,0.1072,,,,,,,,,,,,,,,,,,,,,,,,,,,,,,,,,,,,24,24,24,26,25,26,26,26,28,30,29,29,29,29,28,27,24,26,26,26,26,26,26,26,26,26,26,24,24,24,24,23,,,,,,,,,,,,,,
6454,0,0.1076,,-0.22,-0.01,-0.02,0,0,1,0.22,1.88,12,1,113.76,28.86,73.29,117.9,12.94,3246,1,23,62.7,0.97,0.83,12.72,0.0,116.0,63,61,0,0,50,0,0,0,0,0,24,24,24,26,25,26,26,26,28,30,29,29,29,28,29,26,24,26,26,26,26,26,26,26,26,25,26,24,24,24,24,23,0.0,0.0,0.0,0.0,0,0,0.0,0,0.0,-1,0.0,0,0.0,0.1076
6474,0,0.1079,,,,,,,,,,,,,,,,,,,,,,,,,,,,,,,,,,,,24,24,24,26,25,26,26,26,28,30,29,29,29,28,29,26,24,26,26,26,26,26,26,26,26,25,26,24,24,24,24,23,,,,,,,,,,,,,,
6494,0,0.1082,,-0.11,-0.09,-0.1,0,-1,1,0.17,1.88,9,,,,,,,,,,,,,,,,,,,,,,,,,,24,24,24,26,25,26,26,26,28,30,29,29,29,28,29,26,24,26,26,26,26,26,27,26,26,25,26,24,24,24,24,23,,,,,,,,,,,,,,
6514,0,0.1086,,,,,,,,,,,,,,,,,,,,,,,,,,,,,,,,,,,,24,24,24,26,25,25,26,26,28,30,29,29,29,28,28,26,24,26,26,26,26,26,27,26,26,25,26,24,24,24,24,23,,,,,,,,,,,,,,
6534,0,0.1089,,0.2,-0.11,-0.24,-0,0,1,0.33,1.88,18,,,,,,,,,,,,,,,,,,,,,,,,,,24,24,24,26,25,25,26,26,28,30,29,29,29,28,28,26,24,26,26,26,26,26,27,26,26,26,26,24,24,24,24,23,,,,,,,,,,,,,,
6554,0,0.1092,,,,,,,,,,,1,113.85,28.86,73.17,119.67,12.92,3519,1,23,60.8,0.97,0.87,12.73,0.0,121.0,64,62,0,0,50,0,0,0,0,0,24,24,24,26,25,25,26,26,28,30,29,29,29,28,28,26,24,26,26,26,26,26,27,26,26,26,26,24,24,24,24,23,0.0,0.0,0.0,0.0,0,0,0.0,0,0.0,-1,0.0,0,0.0,0.1092
6574,0,0.1096,,0.23,-0.05,-0.25,-0,-1,1,0.35,1.88,18,,,,,,,,,,,,,,,,,,,,,,,,,,24,24,24,26,25,25,26,26,28,30,29,29,29,29,28,26,24,26,26,26,26,26,27,26,26,26,26,24,24,24,24,23,,,,,,,,,,,,,,
6594,0,0.1099,,,,,,,,,,,,,,,,,,,,,,,,,,,,,,,,,,,,24,24,24,26,25,25,26,26,28,30,29,29,29,29,28,26,24,26,26,26,26,26,27,26,26,25,25,24,24,24,24,23,,,,,,,,,,,,,,
6614,0,0.1102,,0.11,-0.02,-0.23,-0,-1,1,0.26,1.88,14,,,,,,,,,,,,,,,,,,,,,,,,,,24,24,24,26,25,25,26,26,28,30,29,29,29,29,28,26,24,26,26,26,26,26,27,26,26,25,25,24,24,24,24,23,,,,,,,,,,,,,,
6634,0,0.1106,,,,,,,,,,,,,,,,,,,,,,,,,,,,,,,,,,,,24,24,24,26,25,26,26,26,28,30,29,29,29,29,28,26,24,26,26,26,26,26,27,26,26,25,25,24,24,24,24,23,,,,,,,,,,,,,,
6654,0,0.1109,,-0.06,0.01,-0.14,-0,-1,1,0.15,1.88,8,1,113.76,28.74,73.29,121.2,12.91,3106,1,23,58.1,0.97,0.86,12.73,0.0,121.0,61,61,0,0,50,0,0,0,0,0,24,24,24,26,25,26,26,26,27,30,29,29,29,29,28,26,24,26,26,26,26,26,27,26,26,26,26,24,24,24,24,24,0.0,0.0,0.0,0.0,0,0,0.0,0,0.0,-1,0.0,0,0.0,0.1109
6674,0,0.1112,,,,,,,,,,,,,,,,,,,,,,,,,,,,,,,,,,,,24,24,24,26,25,26,26,26,27,30,29,29,29,29,28,26,24,26,26,26,26,26,27,26,26,26,26,24,24,24,24,24,,,,,,,,,,,,,,
6694,0,0.1116,,-0.02,-0.01,-0.09,-0,-1,1,0.09,1.88,5,,,,,,,,,,,,,,,,,,,,,,,,,,24,24,24,26,26,26,26,26,27,30,29,29,29,29,28,26,24,26,26,26,26,26,27,26,26,26,26,24,24,24,24,24,,,,,,,,,,,,,,
6714,0,0.1119,,,,,,,,,,,,,,,,,,,,,,,,,,,,,,,,,,,,24,24,24,26,26,26,26,26,28,30,29,29,29,29,28,26,24,26,26,26,26,26,27,26,26,26,26,24,24,24,24,23,,,,,,,,,,,,,,
6734,0,0.1122,,0.22,-0.01,-0.35,-0,-0,1,0.42,1.88,22,,,,,,,,,,,,,,,,,,,,,,,,,,24,24,24,26,26,26,26,26,28,30,29,29,29,29,28,26,24,26,26,26,26,26,27,26,26,26,26,24,24,24,24,23,,,,,,,,,,,,,,
6754,0,0.1126,,,,,,,,,,,1,113.76,28.86,73.17,116.79,12.93,3339,1,23,58.3,0.97,0.82,12.73,0.0,118.0,62,61,0,0,50,0,0,0,0,0,24,24,24,26,25,25,26,26,28,30,29,29,29,29,28,26,24,26,26,26,26,26,27,26,26,26,26,24,24,24,24,23,0.0,0.0,0.0,0.0,0,0,0.0,0,0.0,-1,0.0,0,0.0,0.1126
6774,0,0.1129,,0.21,-0.0,-0.13,-0,-0,1,0.25,1.88,13,,,,,,,,,,,,,,,,,,,,,,,,,,24,24,24,26,25,25,26,26,28,30,29,29,29,29,28,26,24,26,26,26,26,26,27,26,26,25,25,24,24,24,24,23,,,,,,,,,,,,,,
6794,0,0.1132,,,,,,,,,,,,,,,,,,,,,,,,,,,,,,,,,,,,24,24,24,26,25,25,26,26,28,30,29,29,29,29,28,26,24,26,26,26,26,26,27,26,26,25,25,24,24,24,24,23,,,,,,,,,,,,,,
6814,0,0.1136,,0.11,-0.0,-0.11,-0,-0,2,0.16,1.88,8,,,,,,,,,,,,,,,,,,,,,,,,,,24,24,24,26,26,26,26,26,28,30,29,29,29,29,28,26,24,26,26,26,26,26,27,27,26,25,25,24,24,24,24,23,,,,,,,,,,,,,,
6834,0,0.1139,,,,,,,,,,,,,,,,,,,,,,,,,,,,,,,,,,,,24,24,24,26,26,26,26,26,27,29,29,29,29,28,28,26,24,26,26,26,26,26,27,27,26,26,26,24,24,24,24,23,,,,,,,,,,,,,,
6854,0,0.1142,,-0.04,0.04,-0.18,0,0,1,0.19,1.88,10,1,114.18,28.74,73.05,116.7,12.91,3272,1,23,60.6,0.97,0.85,12.74,0.0,117.0,62,60,0,0,50,0,0,0,0,0,24,24,24,26,26,26,26,26,27,29,29,29,29,28,28,26,24,26,26,26,26,26,27,27,26,26,26,24,24,24,24,23,0.0,0.0,0.0,0.0,0,0,0.0,0,0.0,-1,0.0,0,0.0,0.1142
6874,0,0.1146,,,,,,,,,,,,,,,,,,,,,,,,,,,,,,,,,,,,24,24,24,26,26,26,26,26,27,29,29,29,29,28,28,26,24,26,26,26,26,26,26,26,26,26,26,24,24,24,24,23,,,,,,,,,,,,,,
6894,0,0.1149,,-0.13,0.03,-0.03,0,0,1,0.13,1.88,7,,,,,,,,,,,,,,,,,,,,,,,,,,24,24,24,26,25,26,26,26,27,30,29,29,29,28,28,26,24,26,26,26,26,26,26,26,26,26,26,24,24,24,24,23,,,,,,,,,,,,,,
6914,0,0.1152,,,,,,,,,,,,,,,,,,,,,,,,,,,,,,,,,,,,24,24,24,26,25,26,26,26,27,30,29,29,29,28,28,26,24,26,26,26,26,26,26,26,26,26,26,25,24,24,24,24,,,,,,,,,,,,,,
6934,0,0.1156,,0.05,-0.04,-0.21,-0,-1,1,0.22,1.88,12,,,,,,,,,,,,,,,,,,,,,,,,,,24,24,24,26,25,26,26,26,27,30,29,29,29,28,28,26,24,26,26,26,26,26,27,26,26,26,26,25,24,24,24,24,,,,,,,,,,,,,,
6954,0,0.1159,,,,,,,,,,,1,113.85,28.86,73.29,115.92,12.94,3201,0,23,59.5,0.97,0.88,12.73,0.0,117.0,62,61,0,0,50,0,0,0,0,0,24,24,24,26,25,25,26,26,27,29,28,28,29,28,28,26,24,26,26,26,26,26,27,26,26,26,26,25,24,24,24,24,0.0,0.0,0.0,0.0,0,0,0.0,0,0.0,-1,0.0,0,0.0,0.1159
6974,0,0.1162,,0.3,-0.02,-0.5,-0,-1,1,0.59,1.88,31,,,,,,,,,,,,,,,,,,,,,,,,,,24,24,24,26,25,25,26,26,27,29,28,28,29,28,28,26,24,26,26,26,26,26,27,26,26,26,26,25,24,24,24,24,,,,,,,,,,,,,,
6994,0,0.1166,,,,,,,,,,,,,,,,,,,,,,,,,,,,,,,,,,,,24,24,24,26,25,25,26,26,27,29,28,28,29,28,28,26,24,26,26,26,26,26,27,26,26,26,26,25,24,24,24,24,,,,,,,,,,,,,,
7014,0,0.1169,,0.35,-0.01,-0.45,-0,-1,0,0.57,1.88,30,,,,,,,,,,,,,,,,,,,,,,,,,,24,24,24,25,25,25,25,26,27,29,28,28,29,28,28,26,24,26,26,26,26,26,27,26,26,26,26,25,24,24,24,24,,,,,,,,,,,,,,
7034,0,0.1172,,,,,,,,,,,,,,,,,,,,,,,,,,,,,,,,,,,,24,24,24,25,25,25,25,26,27,30,29,29,29,29,28,26,24,26,26,26,26,26,27,26,26,26,26,24,24,24,24,23,,,,,,,,,,,,,,
7054,0,0.1176,13.16,0.23,0.0,-0.19,-0,-2,0,0.3,1.88,16,1,113.43,28.86,73.5,119.1,12.91,3202,1,23,58.5,0.97,0.87,12.74,0.0,116.0,61,61,0,0,50,0,0,0,0,0,24,24,24,25,25,25,25,26,27,30,29,29,29,29,28,26,24,26,26,26,26,26,27,26,26,26,26,24,24,24,24,23,0.0,0.0,0.0,0.0,0,0,0.0,0,0.0,-1,0.0,0,0.0,0.1176
7074,0,0.1179,,,,,,,,,,,,,,,,,,,,,,,,,,,,,,,,,,,,23,24,24,25,24,24,25,26,27,30,29,29,29,29,28,26,24,26,26,26,26,26,27,26,26,26,26,24,24,24,24,23,,,,,,,,,,,,,,
7094,0,0.1182,,0.13,0.0,-0.04,-0,-2,0,0.14,1.88,7,,,,,,,,,,,,,,,,,,,,,,,,,,23,24,24,25,24,24,25,26,28,29,29,28,29,28,28,26,24,26,26,26,26,26,27,26,26,26,26,24,24,24,24,23,,,,,,,,,,,,,,
7114,0,0.1186,,,,,,,,,,,,,,,,,,,,,,,,,,,,,,,,,,,,23,24,24,25,24,24,25,26,28,29,29,28,29,28,28,26,24,26,26,26,26,26,27,26,26,26,26,24,24,24,24,23,,,,,,,,,,,,,,
7134,0,0.1189,,0.07,0.03,0.01,0,-1,1,0.08,1.88,4,,,,,,,,,,,,,,,,,,,,,,,,,,23,24,24,25,25,25,25,26,28,29,29,28,29,28,28,26,24,26,26,26,26,26,27,26,26,26,26,24,24,24,24,23,,,,,,,,,,,,,,
7154,0,0.1192,,,,,,,,,,,1,113.85,28.86,73.5,113.07,12.89,3220,0,23,61.7,0.97,0.88,12.73,0.0,115.0,61,61,0,0,50,0,0,0,0,0,23,24,24,25,25,25,25,26,28,30,29,29,29,28,28,26,24,26,26,26,26,26,27,26,26,26,26,24,24,24,24,23,0.0,0.0,0.0,0.0,0,0,0.0,0,0.0,-1,0.0,0,0.0,0.1192
7174,0,0.1196,,-0.0,0.01,0.11,0,0,1,0.11,1.88,6,,,,,,,,,,,,,,,,,,,,,,,,,,23,24,24,25,25,25,25,26,28,30,29,29,29,28,28,26,24,26,26,26,26,26,27,26,26,26,26,24,24,24,24,23,,,,,,,,,,,,,,
7194,0,0.1199,,,,,,,,,,,,,,,,,,,,,,,,,,,,,,,,,,,,23,24,24,25,24,25,25,26,28,30,29,29,29,28,28,26,24,26,26,26,26,26,27,26,26,26,26,24,24,24,24,23,,,,,,,,,,,,,,
7214,0,0.1202,,-0.17,0.02,-0.18,0,0,-0,0.25,1.88,14,,,,,,,,,,,,,,,,,,,,,,,,,,23,24,24,25,24,25,25,26,28,30,29,29,29,29,28,26,24,26,26,26,26,26,27,26,26,26,26,24,24,24,24,23,,,,,,,,,,,,,,
7234,0,0.1206,,,,,,,,,,,,,,,,,,,,,,,,,,,,,,,,,,,,23,24,24,25,24,25,25,26,28,30,29,29,29,29,28,26,24,26,26,26,26,26,27,26,26,26,26,24,24,24,24,23,,,,,,,,,,,,,,
