"Interval"|"ms"|0|0|1,"Utc"|"ms"|0|0|1,"ElapsedTime"|"Min"|0.0|0.0|10,"Battery"|"Volts"|0.0|20.0|1,"AccelX"|"G"|-3.0|3.0|25,"AccelY"|"G"|-3.0|3.0|25,"AccelZ"|"G"|-3.0|3.0|25,"Yaw"|"Deg/Sec"|-120|120|25,"Pitch"|"Deg/Sec"|-120|120|25,"Roll"|"Deg/Sec"|-120|120|25,"Gsum"|"G"|0.0|3.0|25,"GsumMax"|"G"|0.0|3.0|25,"GsumPct"|"%"|0|100|25,"StAngle"|"Deg"|-100|100|10,"SuspPosFL"|"mm"|0.0|150.0|50,"SuspPosFR"|"mm"|0.0|150.0|50,"SuspPosRL"|"mm"|0.0|150.0|50,"SuspPosRR"|"mm"|0.0|150.0|50,"ADL_BAT"|"V"|0.0|20.0|10,"RPM"|""|0|20000|10,"TPS"|"%"|0|100|10,"IAT"|"F"|0|300|10,"MAP"|"KPa"|0.0|255.0|10,"LambdaAim"|""|0.0|1.75|10,"Lambda"|""|0.0|1.75|10,"ECU_BAT"|"V"|0.0|20.0|10,"FuelCut"|""|0.0|100.0|10,"InjDuty"|"%"|0.0|100.0|10,"BrakePres-F"|"psi"|0|1200|10,"BrakePres-R"|"psi"|0|1200|10,"AuxUpDuty"|"%"|0|100|10,"AuxDownDuty"|"%"|0|100|10,"EngineTemp"|"F"|0|300|10,"WheelSpdRL"|""|0|100|10,"WheelSpdRR"|""|0|100|10,"WheelSpdFL"|""|0|100|10,"WheelSpdFR"|""|0|100|10,"Gear"|""|0|10|10,"TireTmpLF1"|"C"|20|90|50,"TireTmpLF2"|"C"|20|90|50,"TireTmpLF3"|"C"|20|90|50,"TireTmpLF4"|"C"|20|90|50,"TireTmpLF5"|"C"|20|90|50,"TireTmpLF6"|"C"|20|90|50,"TireTmpLF7"|"C"|20|90|50,"TireTmpLF8"|"C"|20|90|50,"TireTmpRF1"|"C"|20|90|50,"TireTmpRF2"|"C"|20|90|50,"TireTmpRF3"|"C"|20|90|50,"TireTmpRF4"|"C"|20|90|50,"TireTmpRF5"|"C"|20|90|50,"TireTmpRF6"|"C"|20|90|50,"TireTmpRF7"|"C"|20|90|50,"TireTmpRF8"|"C"|20|90|50,"TireTmpLR1"|"C"|20|90|50,"TireTmpLR2"|"C"|20|90|50,"TireTmpLR3"|"C"|20|90|50,"TireTmpLR4"|"C"|20|90|50,"TireTmpLR5"|"C"|20|90|50,"TireTmpLR6"|"C"|20|90|50,"TireTmpLR7"|"C"|20|90|50,"TireTmpLR8"|"C"|20|90|50,"TireTmpRR1"|"C"|20|90|50,"TireTmpRR2"|"C"|20|90|50,"TireTmpRR3"|"C"|20|90|50,"TireTmpRR4"|"C"|20|90|50,"TireTmpRR5"|"C"|20|90|50,"TireTmpRR6"|"C"|20|90|50,"TireTmpRR7"|"C"|20|90|50,"TireTmpRR8"|"C"|20|90|50,"Latitude"|"Degrees"|-180.0|180.0|10,"Longitude"|"Degrees"|-180.0|180.0|10,"Speed"|"kph"|0.0|150.0|10,"Altitude"|"m"|0.0|4000.0|10,"GPSSats"|""|0|20|10,"GPSQual"|""|0|5|10,"GPSDOP"|""|0.0|20.0|10,"LapCount"|""|0|0|10,"LapTime"|"Min"|0.0|0.0|10,"Sector"|""|0|0|10,"SectorTime"|"Min"|0.0|0.0|10,"CurrentLap"|""|0|0|10,"Distance"|"mi"|0.0|0.0|10,"SessionTime"|"Min"|0.0|0.0|10
357033,0,5.9506,,,,,,,,,,,,110.22,26.01,76.26,120.87,,,,,,,,,,,,,,,,,,,,,44,46,46,45,44,43,42,42,43,48,48,49,48,48,48,47,43,46,43,41,40,41,40,39,39,40,40,41,41,41,41,40,,,,,,,,,,,,,,
356873,0,5.9479,,,,,,,,,,,,110.22,25.89,75.15,114.72,,,,,,,,,,,,,,,,,,,,,44,46,46,45,44,43,42,42,43,48,48,49,49,49,48,48,44,46,44,41,41,41,40,40,39,40,40,41,40,40,40,40,,,,,,,,,,,,,,
356893,0,5.9482,,0.24,-0.09,-1.22,1,12,-1,1.24,2.59,48,,110.34,25.89,76.26,120.96,,,,,,,,,,,,,,,,,,,,,44,46,46,45,44,43,42,42,43,48,48,49,49,49,48,48,44,46,44,41,41,41,40,40,39,40,40,41,40,40,40,40,,,,,,,,,,,,,,
356913,0,5.9486,,,,,,,,,,,,110.01,25.68,76.26,117.78,,,,,,,,,,,,,,,,,,,,,44,46,46,45,44,43,42,42,43,48,48,49,49,49,48,47,44,46,44,41,41,41,40,40,39,40,40,41,40,40,41,39,,,,,,,,,,,,,,
356933,0,5.9489,,0.21,-0.1,-1.52,1,15,-2,1.54,2.59,59,,110.34,25.68,76.26,115.59,,,,,,,,,,,,,,,,,,,,,44,46,46,45,44,43,42,42,43,48,48,49,49,49,48,47,44,46,44,42,41,41,40,40,39,40,40,41,40,40,41,39,,,,,,,,,,,,,,
356953,0,5.9492,,,,,,,,,,,1,110.01,25.56,76.59,115.8,12.63,4480,1,34,100.0,0.96,0.89,12.01,0.0,160.0,64,66,0,0,94,0,0,0,0,0,44,46,46,45,44,43,42,42,43,48,48,49,49,49,48,47,44,46,44,42,41,41,40,40,39,40,40,41,40,40,41,39,0.0,0.0,0.0,0.0,0,0,0.0,0,0.0,-1,0.0,0,0.0,5.9492
356973,0,5.9496,,0.18,-0.04,-1.73,1,17,-2,1.74,2.59,67,,110.13,25.8,76.14,117.69,,,,,,,,,,,,,,,,,,,,,44,46,46,45,44,43,42,42,43,48,48,49,49,49,48,47,44,46,44,42,41,41,40,40,39,40,40,41,40,40,41,39,,,,,,,,,,,,,,
357013,0,5.9502,,0.11,0.04,-1.35,1,15,-3,1.36,2.59,52,,109.89,25.8,76.26,116.79,,,,,,,,,,,,,,,,,,,,,44,46,46,45,44,43,42,42,43,48,48,49,48,48,48,47,43,46,43,41,40,41,40,39,39,40,40,41,40,40,41,39,,,,,,,,,,,,,,
357033,0,5.9506,,,,,,,,,,,,110.22,26.01,76.26,120.87,,,,,,,,,,,,,,,,,,,,,44,46,46,45,44,43,42,42,43,48,48,49,48,48,48,47,43,46,43,41,40,41,40,39,39,40,40,41,41,41,41,40,,,,,,,,,,,,,,
357053,0,5.9509,12.92,0.26,0.01,-1.34,1,11,-3,1.37,2.59,53,1,110.22,25.89,76.26,114.81,12.68,3611,1,34,100.0,0.96,0.87,12.01,0.0,145.0,63,65,0,0,94,0,0,0,0,0,44,46,46,45,44,43,42,42,43,48,48,49,48,48,48,47,44,46,44,41,41,41,40,40,39,40,40,41,41,41,41,40,0.0,0.0,0.0,0.0,0,0,0.0,0,0.0,-1,0.0,0,0.0,5.9509
357073,0,5.9512,,,,,,,,,,,,110.01,25.89,76.47,117.78,,,,,,,,,,,,,,,,,,,,,44,46,46,45,44,43,42,42,43,48,48,49,48,48,48,47,44,46,44,41,41,41,40,40,39,40,40,41,41,41,41,40,,,,,,,,,,,,,,
357093,0,5.9516,,0.11,0.04,-1.1,1,10,-1,1.11,2.59,43,,109.89,25.8,76.47,119.43,,,,,,,,,,,,,,,,,,,,,44,46,46,45,45,43,42,42,43,48,48,49,48,48,48,47,44,46,44,41,41,41,40,40,40,40,40,41,41,41,41,40,,,,,,,,,,,,,,
357113,0,5.9519,,,,,,,,,,,,110.13,25.89,76.47,116.7,,,,,,,,,,,,,,,,,,,,,44,46,46,45,45,43,42,42,43,48,48,49,48,48,48,47,44,46,44,42,41,41,41,40,40,40,40,41,41,41,41,40,,,,,,,,,,,,,,
357133,0,5.9522,,-0.08,0.06,-1.09,1,6,-2,1.1,2.59,42,,110.13,26.01,76.35,117.9,,,,,,,,,,,,,,,,,,,,,44,46,46,45,45,43,42,42,43,48,48,49,48,48,48,47,44,46,44,42,41,41,41,40,40,40,40,41,41,41,41,40,,,,,,,,,,,,,,
357153,0,5.9525,,,,,,,,,,,1,110.13,25.89,76.47,115.71,12.63,2903,1,33,100.0,0.96,0.77,12.05,0.0,111.0,63,65,0,0,94,0,0,0,0,0,44,46,46,45,44,43,42,42,43,48,48,49,48,48,48,47,44,46,44,42,41,41,41,40,40,40,40,41,41,41,41,40,0.0,0.0,0.0,0.0,0,0,0.0,0,0.0,-1,0.0,0,0.0,5.9525
357173,0,5.9529,,-0.2,0.08,-0.95,0,5,-2,0.98,2.59,38,,110.01,26.01,76.35,122.07,,,,,,,,,,,,,,,,,,,,,44,46,46,45,44,43,42,42,43,48,48,49,49,48,48,47,44,46,44,42,41,41,41,40,40,41,40,41,41,41,41,40,,,,,,,,,,,,,,
357193,0,5.9532,,,,,,,,,,,,110.01,25.89,76.47,117.45,,,,,,,,,,,,,,,,,,,,,44,46,46,45,44,43,42,42,43,48,48,49,49,48,48,47,44,46,44,42,41,41,41,40,40,41,40,41,41,41,41,40,,,,,,,,,,,,,,
357213,0,5.9535,,-0.2,0.07,-0.76,0,4,-1,0.79,2.59,31,,110.13,25.8,76.35,114.81,,,,,,,,,,,,,,,,,,,,,44,46,46,45,44,43,42,42,43,48,48,49,49,48,48,47,44,46,44,42,41,41,41,40,40,41,40,41,41,41,41,40,,,,,,,,,,,,,,
357233,0,5.9539,,,,,,,,,,,,110.13,25.8,76.35,118.35,,,,,,,,,,,,,,,,,,,,,44,46,46,45,44,43,42,42,43,48,48,49,48,48,48,48,44,46,44,42,41,41,41,40,40,41,40,41,41,41,41,40,,,,,,,,,,,,,,
357253,0,5.9542,,-0.12,0.04,-0.65,0,3,-1,0.66,2.59,26,1,110.13,25.8,76.14,118.89,12.65,2344,1,33,100.0,0.96,0.79,12.06,0.0,94.0,63,64,0,0,94,0,0,0,0,0,44,46,46,45,44,43,42,42,43,48,48,49,48,48,48,48,44,46,44,42,41,42,41,40,40,41,40,41,41,41,41,40,0.0,0.0,0.0,0.0,0,0,0.0,0,0.0,-1,0.0,0,0.0,5.9542
357273,0,5.9545,,,,,,,,,,,,110.22,25.8,76.26,114.72,,,,,,,,,,,,,,,,,,,,,44,46,46,45,44,43,42,42,43,48,48,49,48,48,48,48,44,46,44,42,41,42,41,40,40,41,40,41,41,41,41,40,,,,,,,,,,,,,,
357293,0,5.9549,,-0.14,0.05,-0.53,0,2,-1,0.55,2.59,21,,110.13,25.89,76.47,118.89,,,,,,,,,,,,,,,,,,,,,44,46,46,45,44,43,42,42,43,48,48,49,48,48,48,48,44,46,44,42,41,42,41,40,39,41,40,41,41,41,41,40,,,,,,,,,,,,,,
357313,0,5.9552,,,,,,,,,,,,110.22,25.68,76.47,118.35,,,,,,,,,,,,,,,,,,,,,44,46,46,45,44,43,42,42,43,48,48,49,48,48,48,47,44,46,44,41,41,41,40,40,39,41,40,41,41,41,41,40,,,,,,,,,,,,,,
357333,0,5.9556,,-0.1,0.04,-0.38,0,2,-1,0.4,2.59,15,,110.13,25.56,76.14,120.87,,,,,,,,,,,,,,,,,,,,,44,46,46,45,44,43,42,42,43,48,48,49,48,48,48,47,44,46,44,41,41,41,40,40,39,41,40,41,41,41,41,40,,,,,,,,,,,,,,
357353,0,5.9559,,,,,,,,,,,1,110.13,25.68,76.26,119.55,12.67,2190,1,33,100.0,0.96,0.83,12.08,0.0,93.0,63,64,0,0,94,0,0,0,0,0,44,46,46,45,44,43,42,42,43,48,48,49,48,48,48,47,44,46,44,41,41,41,40,40,39,40,40,40,40,41,40,40,0.0,0.0,0.0,0.0,0,0,0.0,0,0.0,-1,0.0,0,0.0,5.9559
357373,0,5.9562,,-0.11,0.04,-0.35,0,2,-1,0.36,2.59,14,,110.13,25.68,76.47,117.12,,,,,,,,,,,,,,,,,,,,,44,46,46,45,44,43,42,42,43,48,48,49,48,49,48,47,44,46,44,41,41,41,40,40,39,40,40,40,40,41,40,40,,,,,,,,,,,,,,
357393,0,5.9566,,,,,,,,,,,,110.22,25.56,76.14,127.47,,,,,,,,,,,,,,,,,,,,,44,46,46,45,44,43,42,42,43,48,48,49,48,49,48,47,44,46,44,41,41,41,40,40,39,40,40,40,40,41,40,40,,,,,,,,,,,,,,
357413,0,5.9569,,-0.08,0.03,-0.28,-0,1,-0,0.29,2.59,11,,110.22,25.68,76.26,118.68,,,,,,,,,,,,,,,,,,,,,44,46,46,45,44,42,42,42,43,48,48,49,48,49,48,47,44,46,44,41,41,41,40,40,40,41,40,41,40,41,41,40,,,,,,,,,,,,,,
357433,0,5.9572,,,,,,,,,,,,110.22,25.56,76.35,123.18,,,,,,,,,,,,,,,,,,,,,44,46,46,45,44,42,42,42,43,48,48,49,49,49,48,48,44,46,44,41,41,41,40,40,40,41,40,41,40,41,41,40,,,,,,,,,,,,,,
357453,0,5.9576,,-0.07,0.04,-0.26,-0,1,-0,0.27,2.59,11,1,110.22,25.56,76.26,125.04,12.69,1482,1,33,63.0,0.93,0.79,12.08,0.0,85.0,63,64,0,0,94,0,0,0,0,0,44,46,46,45,44,42,42,42,43,48,48,49,49,49,48,48,44,46,44,41,41,41,40,40,40,41,40,41,40,41,41,40,0.0,0.0,0.0,0.0,0,0,0.0,0,0.0,-1,0.0,0,0.0,5.9576
357473,0,5.9579,,,,,,,,,,,,110.22,25.68,76.26,124.59,,,,,,,,,,,,,,,,,,,,,44,46,46,45,44,43,42,42,43,48,48,49,49,49,48,48,44,46,44,41,41,41,40,40,40,41,40,41,41,41,41,40,,,,,,,,,,,,,,
357493,0,5.9582,,-0.06,0.03,-0.21,-0,1,-0,0.23,2.59,9,,110.22,25.68,76.35,127.02,,,,,,,,,,,,,,,,,,,,,44,46,46,45,44,43,42,42,43,48,48,49,49,49,48,48,44,46,44,41,41,41,40,40,40,41,40,41,41,41,41,40,,,,,,,,,,,,,,
357513,0,5.9586,,,,,,,,,,,,110.22,25.68,76.26,120.63,,,,,,,,,,,,,,,,,,,,,44,46,46,45,44,43,42,42,43,48,48,49,49,49,48,48,44,46,44,41,41,41,40,40,40,41,40,41,41,41,41,40,,,,,,,,,,,,,,
357533,0,5.9589,,-0.03,0.03,-0.17,-0,1,-0,0.17,2.59,7,,110.22,25.68,76.26,120.63,,,,,,,,,,,,,,,,,,,,,44,46,46,45,44,43,42,42,43,48,48,49,49,49,48,48,44,46,44,41,41,41,40,40,40,41,40,41,41,41,41,40,,,,,,,,,,,,,,
357553,0,5.9592,,,,,,,,,,,1,110.13,25.68,76.26,121.29,12.58,1966,1,33,71.2,0.91,0.78,12.1,0.0,50.0,62,63,0,0,94,0,0,0,0,0,44,46,46,45,44,43,42,42,43,48,48,49,48,48,48,47,44,46,44,41,41,41,40,40,40,41,40,41,40,41,41,39,0.0,0.0,0.0,0.0,0,0,0.0,0,0.0,-1,0.0,0,0.0,5.9592
357573,0,5.9595,,0.01,0.02,-0.18,-0,1,-0,0.18,2.59,7,,110.13,25.68,76.26,115.59,,,,,,,,,,,,,,,,,,,,,44,46,46,45,44,43,42,42,43,48,48,49,48,48,48,47,44,46,44,41,41,41,40,40,40,41,40,41,40,41,41,39,,,,,,,,,,,,,,
357593,0,5.9599,,,,,,,,,,,,110.34,25.56,76.14,122.85,,,,,,,,,,,,,,,,,,,,,44,46,46,45,44,43,42,42,43,48,48,49,48,48,48,47,44,46,44,41,41,41,40,40,40,41,40,41,40,41,41,39,,,,,,,,,,,,,,
357613,0,5.9602,,0.02,0.03,-0.16,-0,1,-0,0.16,2.59,6,,110.13,25.68,76.26,116.79,,,,,,,,,,,,,,,,,,,,,44,46,46,45,44,43,42,42,43,48,48,49,48,48,48,47,44,46,44,41,41,41,40,40,40,41,40,41,41,41,41,40,,,,,,,,,,,,,,
357633,0,5.9605,,,,,,,,,,,,110.13,25.68,76.47,121.86,,,,,,,,,,,,,,,,,,,,,44,46,46,45,44,43,42,42,43,48,48,49,48,48,48,47,44,46,44,42,41,41,41,40,40,41,40,41,41,41,41,40,,,,,,,,,,,,,,
357653,0,5.9609,,0.02,0.04,-0.13,-0,0,-0,0.13,2.59,5,1,110.22,25.68,76.26,119.67,12.66,1926,1,33,71.0,0.96,0.72,12.11,0.0,91.0,62,63,0,0,94,0,0,0,0,0,44,46,46,45,44,43,42,42,43,48,48,49,48,48,48,47,44,46,44,42,41,41,41,40,40,41,40,41,41,41,41,40,0.0,0.0,0.0,0.0,0,0,0.0,0,0.0,-1,0.0,0,0.0,5.9609
357673,0,5.9612,,,,,,,,,,,,110.13,25.68,76.26,117.36,,,,,,,,,,,,,,,,,,,,,44,46,46,45,44,43,42,42,43,48,48,49,48,48,48,47,44,46,44,42,41,41,41,40,40,41,40,41,41,41,41,40,,,,,,,,,,,,,,
357693,0,5.9615,,-0.0,0.04,0.02,-0,0,0,0.05,2.59,2,,110.22,25.56,76.26,119.22,,,,,,,,,,,,,,,,,,,,,44,46,46,45,44,43,42,42,42,48,48,49,48,48,48,47,44,46,44,41,41,41,40,40,40,41,40,41,41,41,41,40,,,,,,,,,,,,,,
357713,0,5.9619,,,,,,,,,,,,110.46,25.56,76.35,117.36,,,,,,,,,,,,,,,,,,,,,44,46,46,45,44,43,42,42,42,48,48,49,48,48,48,47,44,46,44,41,41,41,40,40,40,41,40,41,41,41,41,40,,,,,,,,,,,,,,
357733,0,5.9622,,0.12,0.05,0.07,-0,0,-0,0.15,2.59,6,,110.22,25.56,76.35,114.93,,,,,,,,,,,,,,,,,,,,,44,46,46,45,44,43,42,42,42,48,48,49,48,48,48,47,44,46,44,41,41,41,40,40,40,41,40,41,41,41,41,40,,,,,,,,,,,,,,
357753,0,5.9626,,,,,,,,,,,1,110.13,25.68,76.35,114.06,12.66,2906,1,33,70.7,0.96,0.74,12.13,0.0,105.0,62,63,0,0,94,0,0,0,0,0,44,46,46,45,44,43,42,42,43,48,48,49,48,48,48,47,44,46,44,41,41,41,40,40,40,41,40,41,41,41,41,40,0.0,0.0,0.0,0.0,0,0,0.0,0,0.0,-1,0.0,0,0.0,5.9626
357773,0,5.9629,,0.28,0.06,-0.05,-0,-0,-0,0.29,2.59,11,,110.13,25.56,76.35,117.45,,,,,,,,,,,,,,,,,,,,,44,46,46,45,44,43,42,42,43,48,48,49,48,48,48,47,44,46,44,41,41,41,40,40,40,41,40,41,41,41,41,40,,,,,,,,,,,,,,
357793,0,5.9632,,,,,,,,,,,,110.13,25.8,76.35,116.04,,,,,,,,,,,,,,,,,,,,,44,46,46,45,44,43,42,42,43,48,48,49,48,48,48,47,44,46,44,41,41,41,40,40,40,41,40,41,41,41,41,40,,,,,,,,,,,,,,
357813,0,5.9636,,0.42,0.07,-0.09,0,0,-0,0.44,2.59,17,,110.13,25.68,76.26,120.21,,,,,,,,,,,,,,,,,,,,,44,46,46,45,44,43,42,42,42,48,48,49,48,48,48,47,44,46,44,41,41,41,40,40,40,41,40,41,41,41,41,40,,,,,,,,,,,,,,
357833,0,5.9639,,,,,,,,,,,,110.13,25.8,76.14,116.46,,,,,,,,,,,,,,,,,,,,,44,46,46,45,44,43,42,42,42,48,48,49,48,48,48,47,44,46,44,41,41,41,41,40,40,41,40,41,41,41,41,40,,,,,,,,,,,,,,
357853,0,5.9642,,0.56,0.09,-0.18,0,1,0,0.6,2.59,23,1,110.22,25.8,76.14,119.01,12.65,3030,1,33,72.1,0.96,0.75,12.12,0.0,108.0,62,63,0,0,94,0,0,0,0,0,44,46,46,45,44,42,42,42,42,48,48,49,48,48,48,47,44,46,44,41,41,41,41,40,40,41,40,41,41,41,41,40,0.0,0.0,0.0,0.0,0,0,0.0,0,0.0,-1,0.0,0,0.0,5.9642
357873,0,5.9646,,,,,,,,,,,,110.13,25.8,76.14,115.92,,,,,,,,,,,,,,,,,,,,,44,46,46,45,44,42,42,42,42,48,48,49,48,48,48,47,44,46,44,41,41,41,41,40,40,41,40,41,41,41,41,40,,,,,,,,,,,,,,
357893,0,5.9649,,0.68,0.06,-0.23,0,0,-0,0.72,2.59,28,,110.34,25.8,76.14,114.72,,,,,,,,,,,,,,,,,,,,,44,46,46,45,44,42,42,42,42,48,48,49,48,48,48,47,44,46,44,42,41,42,41,40,40,41,40,41,41,41,41,40,,,,,,,,,,,,,,
357913,0,5.9652,,,,,,,,,,,,110.22,25.8,76.26,119.43,,,,,,,,,,,,,,,,,,,,,44,46,46,45,44,43,42,42,42,48,48,49,48,48,48,47,44,46,44,42,41,42,41,40,40,41,40,41,41,41,41,40,,,,,,,,,,,,,,
357933,0,5.9655,,0.55,0.11,-0.06,0,-0,-0,0.57,2.59,22,,110.34,25.68,76.26,116.37,,,,,,,,,,,,,,,,,,,,,44,46,46,45,44,43,42,42,43,48,48,49,49,49,48,48,44,46,44,42,41,42,41,40,40,42,40,42,41,41,41,40,,,,,,,,,,,,,,
357953,0,5.9659,,,,,,,,,,,1,110.22,25.68,76.26,118.68,12.64,3687,1,33,65.1,0.96,0.78,12.12,0.0,119.0,62,64,0,0,94,0,0,0,0,0,44,46,46,45,44,43,42,42,43,48,48,49,49,49,48,48,44,46,44,41,41,41,41,40,40,42,40,42,41,41,41,40,0.0,0.0,0.0,0.0,0,0,0.0,0,0.0,-1,0.0,0,0.0,5.9659
357973,0,5.9662,,0.31,0.13,-0.1,0,0,-0,0.35,2.59,14,,110.13,25.68,76.35,117.36,,,,,,,,,,,,,,,,,,,,,44,46,46,45,44,42,42,42,43,48,48,49,49,49,48,48,44,46,44,41,41,41,41,40,40,42,40,42,41,41,41,40,,,,,,,,,,,,,,
357993,0,5.9665,,,,,,,,,,,,110.13,25.68,76.35,118.02,,,,,,,,,,,,,,,,,,,,,44,46,46,45,44,42,42,42,43,48,48,49,48,49,48,47,44,46,44,41,41,41,41,40,40,41,40,41,41,41,41,40,,,,,,,,,,,,,,
358013,0,5.9669,,0.51,0.1,-0.06,0,2,-0,0.53,2.59,20,,110.22,25.68,76.26,118.35,,,,,,,,,,,,,,,,,,,,,44,46,46,45,44,42,42,42,43,48,48,49,48,49,48,47,44,46,44,42,41,41,41,40,40,41,40,41,41,41,41,40,,,,,,,,,,,,,,
358033,0,5.9672,,,,,,,,,,,,110.34,25.8,76.26,117.69,,,,,,,,,,,,,,,,,,,,,44,46,46,45,45,43,42,42,43,48,48,49,48,49,48,47,44,46,44,42,41,41,41,40,40,41,40,41,41,41,41,40,,,,,,,,,,,,,,
358053,0,5.9675,12.91,0.27,0.09,-0.11,0,2,-0,0.31,2.59,12,1,110.22,25.68,76.26,118.56,12.68,3977,1,33,60.0,0.96,0.87,12.11,0.0,144.0,62,64,0,0,94,0,0,0,0,0,44,46,46,45,45,43,42,42,43,48,48,49,48,49,48,47,44,46,44,42,41,41,41,40,40,41,40,41,40,41,41,40,0.0,0.0,0.0,0.0,0,0,0.0,0,0.0,-1,0.0,0,0.0,5.9675
358073,0,5.9679,,,,,,,,,,,,110.01,25.8,76.35,116.25,,,,,,,,,,,,,,,,,,,,,44,46,46,45,45,43,42,42,43,48,48,49,49,49,48,47,44,46,44,42,41,42,41,40,40,41,40,41,40,41,41,40,,,,,,,,,,,,,,
358093,0,5.9682,,0.28,0.03,-0.37,0,-0,-2,0.47,2.59,18,,110.22,25.56,76.14,118.68,,,,,,,,,,,,,,,,,,,,,44,46,46,45,45,43,42,42,43,48,48,49,49,49,48,47,44,46,44,42,41,42,41,40,40,41,40,41,40,41,41,40,,,,,,,,,,,,,,
358113,0,5.9686,,,,,,,,,,,,110.46,25.68,76.26,118.77,,,,,,,,,,,,,,,,,,,,,44,46,46,46,45,43,42,42,43,48,48,49,49,49,48,47,44,46,44,42,41,42,41,40,40,42,40,41,41,41,41,40,,,,,,,,,,,,,,
358133,0,5.9689,,0.16,0.07,-0.82,0,5,-2,0.84,2.59,32,,110.34,25.8,76.35,117.12,,,,,,,,,,,,,,,,,,,,,44,46,46,46,45,43,42,42,43,48,48,49,49,49,48,47,44,46,44,41,41,41,40,40,40,42,40,41,41,41,41,40,,,,,,,,,,,,,,
358153,0,5.9692,,,,,,,,,,,1,110.01,25.8,76.47,116.7,12.65,3907,1,33,58.4,0.96,0.78,12.11,0.0,148.0,62,62,0,0,94,0,0,0,0,0,44,46,46,46,45,43,42,42,43,48,48,49,49,49,48,47,44,46,44,41,41,41,40,40,40,42,40,41,41,41,41,40,0.0,0.0,0.0,0.0,0,0,0.0,0,0.0,-1,0.0,0,0.0,5.9692
358173,0,5.9696,,0.15,0.16,-0.66,0,6,-1,0.7,2.59,27,,110.34,25.68,76.14,123.72,,,,,,,,,,,,,,,,,,,,,44,46,46,45,44,43,42,42,43,48,48,49,49,49,48,47,44,46,44,41,41,41,40,40,40,42,41,42,41,41,41,40,,,,,,,,,,,,,,
358193,0,5.9699,,,,,,,,,,,,110.67,25.8,76.14,117.03,,,,,,,,,,,,,,,,,,,,,44,46,46,45,44,43,42,42,43,48,48,49,49,49,48,47,44,46,44,41,41,41,40,40,40,42,41,42,41,41,41,40,,,,,,,,,,,,,,
358213,0,5.9702,,0.34,0.2,-0.7,0,5,1,0.8,2.59,31,,110.13,25.89,76.47,116.37,,,,,,,,,,,,,,,,,,,,,44,46,46,45,44,43,42,42,43,48,48,49,49,49,48,47,44,46,43,41,41,41,40,40,40,42,41,42,41,41,41,40,,,,,,,,,,,,,,
358233,0,5.9706,,,,,,,,,,,,109.89,26.01,76.26,117.12,,,,,,,,,,,,,,,,,,,,,44,46,46,45,44,42,42,42,43,48,48,49,49,49,48,47,44,46,43,41,41,41,40,40,40,42,41,42,41,41,41,40,,,,,,,,,,,,,,
358253,0,5.9709,,0.11,0.24,-0.73,-0,2,0,0.78,2.59,30,1,110.46,25.8,76.14,118.77,12.69,3720,1,33,52.1,0.96,0.78,12.11,0.0,145.0,61,63,0,0,93,0,0,0,0,0,44,46,46,45,44,42,42,42,43,48,48,49,48,48,48,48,44,46,43,41,41,41,40,40,40,41,40,41,41,41,41,40,0.0,0.0,0.0,0.0,0,0,0.0,0,0.0,-1,0.0,0,0.0,5.9709
358273,0,5.9712,,,,,,,,,,,,110.34,25.8,76.26,119.1,,,,,,,,,,,,,,,,,,,,,44,46,46,45,44,42,42,42,43,48,48,49,48,48,48,48,44,46,44,41,41,41,41,40,40,41,40,41,41,41,41,40,,,,,,,,,,,,,,
358293,0,5.9716,,0.35,0.15,-0.61,0,4,0,0.72,2.59,28,,109.89,25.8,76.35,116.04,,,,,,,,,,,,,,,,,,,,,44,46,46,45,44,42,42,42,43,48,48,49,48,48,48,48,44,46,44,41,41,41,41,40,40,41,40,41,41,41,41,40,,,,,,,,,,,,,,
358313,0,5.9719,,,,,,,,,,,,110.01,25.8,76.35,117.78,,,,,,,,,,,,,,,,,,,,,44,46,46,45,44,42,42,42,43,48,48,49,48,48,48,47,44,46,44,41,41,41,41,40,40,41,40,41,41,41,41,40,,,,,,,,,,,,,,
358333,0,5.9722,,0.22,0.19,-0.57,0,5,-0,0.64,2.59,25,,110.22,25.68,76.14,120.42,,,,,,,,,,,,,,,,,,,,,44,46,46,45,44,42,42,42,43,48,48,49,48,48,48,47,44,46,44,41,41,41,40,40,40,41,40,41,41,41,41,40,,,,,,,,,,,,,,
358353,0,5.9725,,,,,,,,,,,1,110.46,25.8,76.26,120.21,12.68,3516,1,33,51.4,0.96,0.79,12.11,0.0,135.0,61,62,0,0,93,0,0,0,0,0,44,46,46,45,44,42,42,42,43,48,48,49,48,48,48,47,44,46,44,41,41,41,40,40,40,41,40,41,41,41,41,40,0.0,0.0,0.0,0.0,0,0,0.0,0,0.0,-1,0.0,0,0.0,5.9725
358373,0,5.9729,,0.2,0.15,-0.61,0,5,1,0.66,2.59,25,,110.22,25.8,76.26,117.03,,,,,,,,,,,,,,,,,,,,,44,46,46,45,44,42,42,42,43,48,48,49,48,48,48,47,44,46,44,41,41,41,40,40,40,41,40,41,41,41,41,40,,,,,,,,,,,,,,
358393,0,5.9732,,,,,,,,,,,,110.22,25.68,76.35,119.01,,,,,,,,,,,,,,,,,,,,,44,46,46,45,44,42,42,42,43,48,48,49,48,48,48,47,43,46,43,41,40,41,40,40,40,41,40,41,41,41,41,40,,,,,,,,,,,,,,
358413,0,5.9735,,0.34,0.19,-0.61,0,3,-0,0.72,2.59,28,,110.22,25.8,76.26,119.01,,,,,,,,,,,,,,,,,,,,,44,46,46,45,44,43,42,42,43,48,48,49,48,48,48,47,43,46,43,41,40,41,40,40,40,41,40,41,41,41,41,40,,,,,,,,,,,,,,
358433,0,5.9739,,,,,,,,,,,,110.22,25.8,76.26,116.58,,,,,,,,,,,,,,,,,,,,,44,46,46,45,44,43,42,42,43,48,48,49,48,48,48,47,43,46,43,41,40,41,40,40,40,41,40,41,41,41,41,40,,,,,,,,,,,,,,
358453,0,5.9742,,0.17,0.16,-0.66,0,3,0,0.7,2.59,27,1,110.46,25.8,76.14,117.9,12.68,3436,1,33,50.8,0.96,0.82,12.11,0.0,127.0,61,62,0,0,93,0,0,0,0,0,44,46,46,45,44,43,42,42,43,48,49,49,49,49,48,48,44,46,43,41,41,41,41,40,40,41,40,41,41,41,41,40,0.0,0.0,0.0,0.0,0,0,0.0,0,0.0,-1,0.0,0,0.0,5.9742
358473,0,5.9746,,,,,,,,,,,,110.46,25.68,76.14,115.92,,,,,,,,,,,,,,,,,,,,,44,46,46,45,44,43,42,42,43,48,49,49,49,49,48,48,44,46,43,41,41,41,41,40,40,41,40,41,41,41,41,40,,,,,,,,,,,,,,
358493,0,5.9749,,0.17,0.1,-0.39,0,4,0,0.44,2.59,17,,110.46,25.68,76.26,118.77,,,,,,,,,,,,,,,,,,,,,44,46,46,45,44,43,42,42,43,48,49,49,49,49,48,48,44,46,43,41,41,41,41,40,40,41,40,41,40,41,41,40,,,,,,,,,,,,,,
358513,0,5.9752,,,,,,,,,,,,110.22,25.68,76.26,119.97,,,,,,,,,,,,,,,,,,,,,44,46,46,45,44,43,42,42,43,48,48,49,48,49,48,48,44,46,43,41,41,41,41,40,40,41,40,41,40,41,41,40,,,,,,,,,,,,,,
358533,0,5.9756,,0.24,0.11,-0.18,0,3,1,0.33,2.59,13,,110.22,25.68,76.35,124.17,,,,,,,,,,,,,,,,,,,,,44,46,46,45,44,43,42,42,43,48,48,49,48,49,48,48,44,46,44,41,41,41,41,40,40,41,40,41,40,41,41,40,,,,,,,,,,,,,,
358553,0,5.9759,,,,,,,,,,,1,110.22,25.8,76.35,116.58,12.65,3523,1,33,52.1,0.96,0.84,12.13,0.0,131.0,60,61,0,0,93,0,0,0,0,0,44,46,46,45,44,42,42,42,43,48,48,49,48,49,48,48,44,46,44,41,41,41,41,40,40,42,40,41,41,41,41,40,0.0,0.0,0.0,0.0,0,0,0.0,0,0.0,-1,0.0,0,0.0,5.9759
358573,0,5.9762,,0.06,0.08,-0.36,0,2,0,0.38,2.59,15,,110.34,25.8,76.26,123.51,,,,,,,,,,,,,,,,,,,,,44,46,46,45,44,42,42,42,42,48,48,49,48,48,48,47,44,46,44,41,41,41,41,40,40,42,40,41,41,41,41,40,,,,,,,,,,,,,,
358593,0,5.9766,,,,,,,,,,,,110.46,25.8,76.26,119.76,,,,,,,,,,,,,,,,,,,,,44,46,46,45,44,42,42,42,42,48,48,49,48,48,48,47,44,46,44,42,40,41,40,40,40,42,40,41,41,41,41,40,,,,,,,,,,,,,,
358613,0,5.9769,,0.09,0.07,-0.37,0,1,0,0.39,2.59,15,,110.46,25.8,76.26,117.57,,,,,,,,,,,,,,,,,,,,,44,46,46,45,44,43,42,42,42,48,48,49,48,48,48,47,44,46,44,42,40,41,40,40,40,42,40,41,41,41,41,40,,,,,,,,,,,,,,
358633,0,5.9772,,,,,,,,,,,,110.34,25.68,76.26,118.11,,,,,,,,,,,,,,,,,,,,,44,46,46,45,44,43,42,42,43,47,48,48,48,48,48,47,44,46,44,42,40,41,40,40,40,41,40,41,40,41,41,40,,,,,,,,,,,,,,
358653,0,5.9776,,0.09,0.09,-0.28,0,1,-0,0.31,2.59,12,1,110.13,25.8,76.35,118.11,12.67,3599,1,34,51.3,0.96,0.83,12.13,0.0,133.0,60,61,0,0,93,0,0,0,0,1,44,46,46,45,44,43,42,42,43,47,48,48,48,48,48,47,43,46,43,41,41,41,40,40,40,41,40,41,40,41,41,40,0.0,0.0,0.0,0.0,0,0,0.0,0,0.0,-1,0.0,0,0.0,5.9776
358673,0,5.9779,,,,,,,,,,,,110.13,25.8,76.35,120.54,,,,,,,,,,,,,,,,,,,,,44,46,46,45,44,43,42,42,43,47,48,48,48,48,48,47,43,46,43,41,41,41,40,40,40,41,40,41,40,41,41,40,,,,,,,,,,,,,,
358693,0,5.9782,,-0.1,0.08,-0.52,-0,-0,-1,0.53,2.59,21,,110.34,25.8,76.26,120.63,,,,,,,,,,,,,,,,,,,,,44,46,46,45,44,43,42,42,43,48,48,49,48,48,48,47,43,46,43,41,41,41,40,40,40,41,40,41,40,40,40,39,,,,,,,,,,,,,,
358713,0,5.9786,,,,,,,,,,,,110.46,25.8,76.26,120.21,,,,,,,,,,,,,,,,,,,,,44,46,46,45,44,43,42,42,43,48,48,49,48,48,48,47,44,46,44,42,41,41,41,40,40,41,40,41,40,40,40,39,,,,,,,,,,,,,,
358733,0,5.9789,,0.09,0.05,-0.43,0,-1,-1,0.45,2.59,17,,110.46,25.68,76.14,119.34,,,,,,,,,,,,,,,,,,,,,44,46,46,45,44,42,42,42,43,48,48,49,48,48,48,47,44,46,44,42,41,41,41,40,40,41,40,41,40,40,40,39,,,,,,,,,,,,,,
358753,0,5.9792,,,,,,,,,,,1,110.46,25.68,76.26,115.05,12.66,3492,1,33,53.6,0.96,0.84,12.14,0.0,132.0,60,60,0,0,92,0,0,0,0,1,44,46,46,45,44,42,42,42,43,48,48,49,48,48,48,47,44,46,44,42,41,41,41,40,40,42,40,41,41,41,41,40,0.0,0.0,0.0,0.0,0,0,0.0,0,0.0,-1,0.0,0,0.0,5.9792
358773,0,5.9795,,-0.03,0.05,-0.35,-0,1,-0,0.36,2.59,14,,110.22,25.68,76.35,119.01,,,,,,,,,,,,,,,,,,,,,44,46,46,45,44,42,42,42,43,48,48,49,48,48,48,47,44,46,44,41,41,41,40,40,40,42,40,41,41,41,41,40,,,,,,,,,,,,,,
358793,0,5.9799,,,,,,,,,,,,110.13,25.68,76.35,119.1,,,,,,,,,,,,,,,,,,,,,44,46,46,45,44,42,42,42,43,48,48,49,48,48,48,47,44,46,44,41,41,41,40,40,40,42,40,41,41,41,41,40,,,,,,,,,,,,,,
358813,0,5.9802,,-0.11,0.05,-0.3,-0,1,-0,0.32,2.59,12,,110.13,25.8,76.35,118.11,,,,,,,,,,,,,,,,,,,,,44,46,46,45,44,42,42,42,43,48,48,49,48,48,48,47,44,46,44,41,41,41,40,40,40,42,40,41,41,41,41,40,,,,,,,,,,,,,,
358833,0,5.9805,,,,,,,,,,,,110.22,25.8,76.26,121.74,,,,,,,,,,,,,,,,,,,,,44,46,46,45,44,42,42,42,43,48,48,49,48,48,48,47,43,46,43,41,40,41,40,40,40,42,40,41,41,41,41,40,,,,,,,,,,,,,,
358853,0,5.9809,,0.11,0.06,-0.26,-0,1,0,0.29,2.59,11,1,110.13,25.89,76.14,117.45,12.69,3436,1,33,55.3,0.96,0.84,12.13,0.0,123.0,60,59,0,0,92,0,0,0,0,1,44,46,46,45,44,42,42,42,43,48,48,49,48,48,48,47,43,46,43,41,40,41,40,40,40,42,40,41,41,41,41,40,0.0,0.0,0.0,0.0,0,0,0.0,0,0.0,-1,0.0,0,0.0,5.9809
358873,0,5.9812,,,,,,,,,,,,110.22,25.8,76.02,118.44,,,,,,,,,,,,,,,,,,,,,44,46,46,45,44,43,42,42,43,48,48,49,48,48,48,47,43,46,43,41,40,41,40,40,40,41,40,41,41,41,41,40,,,,,,,,,,,,,,
358893,0,5.9816,,0.05,0.07,-0.15,-0,1,0,0.17,2.59,7,,110.22,25.8,76.14,117.03,,,,,,,,,,,,,,,,,,,,,44,46,46,45,44,43,42,42,43,48,48,49,48,48,48,47,43,46,43,41,40,41,40,40,40,41,40,41,41,41,41,40,,,,,,,,,,,,,,
358913,0,5.9819,,,,,,,,,,,,110.13,25.8,76.26,117.36,,,,,,,,,,,,,,,,,,,,,44,46,46,45,44,43,42,42,43,48,48,49,48,48,48,47,44,46,43,41,41,41,40,40,40,41,40,41,41,41,41,40,,,,,,,,,,,,,,
358933,0,5.9822,,-0.13,0.04,-0.23,-0,1,0,0.27,2.59,10,,110.01,25.89,76.26,119.97,,,,,,,,,,,,,,,,,,,,,44,46,46,45,44,43,42,42,43,48,48,49,48,48,48,47,44,46,43,41,41,41,40,40,40,41,40,41,41,41,41,40,,,,,,,,,,,,,,
358953,0,5.9826,,,,,,,,,,,1,110.13,25.8,76.47,122.52,12.65,3538,1,33,100.0,0.96,0.87,12.15,0.0,130.0,60,59,0,0,92,0,0,0,0,1,44,46,46,45,44,43,42,42,43,48,48,49,48,48,48,48,44,46,43,41,41,41,40,40,40,42,40,41,41,41,41,40,0.0,0.0,0.0,0.0,0,0,0.0,0,0.0,-1,0.0,0,0.0,5.9826
358973,0,5.9829,,0.11,0.02,-0.26,-0,0,0,0.28,2.59,11,,110.22,25.8,76.35,120.3,,,,,,,,,,,,,,,,,,,,,44,46,46,45,44,43,42,42,43,48,48,49,48,48,48,48,44,46,43,41,41,41,40,40,40,42,40,41,41,41,41,40,,,,,,,,,,,,,,
358993,0,5.9832,,,,,,,,,,,,110.34,25.89,76.26,118.23,,,,,,,,,,,,,,,,,,,,,44,46,46,45,44,42,41,42,43,48,48,49,48,48,48,48,44,46,43,41,41,41,40,40,40,42,40,41,41,41,41,40,,,,,,,,,,,,,,
359013,0,5.9836,,0.05,0.06,-0.09,0,0,-0,0.12,2.59,5,,110.34,25.89,76.26,118.23,,,,,,,,,,,,,,,,,,,,,44,46,46,45,44,42,41,42,43,48,48,49,48,48,48,47,44,46,43,41,41,41,40,40,40,42,40,41,41,41,41,40,,,,,,,,,,,,,,
359033,0,5.9839,,,,,,,,,,,,110.34,25.89,76.14,118.23,,,,,,,,,,,,,,,,,,,,,44,46,46,45,44,42,41,42,43,48,48,49,48,48,48,47,44,46,44,41,41,41,41,40,40,42,40,41,41,41,41,40,,,,,,,,,,,,,,
359053,0,5.9842,12.93,-0.1,0.02,-0.12,-0,0,0,0.16,2.59,6,1,110.13,25.89,76.26,117.36,12.69,3490,1,33,100.0,0.96,0.85,12.15,0.0,129.0,59,60,0,0,92,0,0,0,0,1,44,46,46,45,44,43,42,42,43,48,48,49,48,48,48,47,44,46,44,41,41,41,41,40,40,42,40,41,41,41,41,40,0.0,0.0,0.0,0.0,0,0,0.0,0,0.0,-1,0.0,0,0.0,5.9842
359073,0,5.9846,,,,,,,,,,,,110.13,25.89,76.26,120.75,,,,,,,,,,,,,,,,,,,,,44,46,46,45,44,43,42,42,43,48,48,49,48,48,48,47,44,46,44,41,41,41,41,40,40,42,40,41,41,41,41,40,,,,,,,,,,,,,,
359093,0,5.9849,,0.04,0.02,0.03,-0,-0,0,0.05,2.59,2,,110.01,25.89,76.35,125.37,,,,,,,,,,,,,,,,,,,,,44,46,46,45,44,43,42,42,42,48,48,49,48,48,48,47,44,46,44,41,41,41,41,40,40,42,40,41,41,41,41,40,,,,,,,,,,,,,,
359113,0,5.9852,,,,,,,,,,,,110.13,25.89,76.35,117.9,,,,,,,,,,,,,,,,,,,,,44,46,46,45,45,43,42,42,42,48,48,49,48,48,48,47,44,46,44,41,41,41,41,40,40,42,40,41,41,41,41,40,,,,,,,,,,,,,,
359133,0,5.9855,,0.11,0.02,0.1,0,-0,0,0.15,2.59,6,,110.01,25.89,76.26,117.24,,,,,,,,,,,,,,,,,,,,,44,46,46,45,45,43,42,42,42,48,48,49,48,48,48,47,44,46,44,41,41,41,41,40,40,41,40,41,40,40,40,39,,,,,,,,,,,,,,
359153,0,5.9859,,,,,,,,,,,1,110.22,25.8,76.14,118.35,12.68,3564,1,33,100.0,0.96,0.83,12.18,0.0,119.0,59,59,0,0,92,0,0,0,0,1,44,46,46,45,45,43,42,42,42,48,48,49,48,48,48,47,44,46,43,41,41,41,40,40,40,41,40,41,40,40,40,39,0.0,0.0,0.0,0.0,0,0,0.0,0,0.0,-1,0.0,0,0.0,5.9859
359173,0,5.9862,,-0.01,-0.0,0.17,-0,1,1,0.17,2.59,6,,110.22,25.8,76.14,122.19,,,,,,,,,,,,,,,,,,,,,44,46,46,45,45,43,42,42,42,48,48,49,48,48,48,47,44,46,43,41,41,41,40,40,40,41,40,41,40,40,40,39,,,,,,,,,,,,,,
359193,0,5.9865,,,,,,,,,,,,110.34,25.68,76.14,122.19,,,,,,,,,,,,,,,,,,,,,44,46,46,45,44,43,42,42,42,48,48,49,48,48,48,47,44,46,43,41,41,41,40,40,40,41,40,41,41,41,41,40,,,,,,,,,,,,,,
359213,0,5.9869,,-0.18,0.03,0.05,-0,-0,0,0.19,2.59,7,,110.34,25.68,76.14,122.07,,,,,,,,,,,,,,,,,,,,,44,46,46,45,44,43,42,42,43,48,48,49,48,48,48,47,44,46,43,41,41,41,40,40,40,41,40,41,41,41,41,40,,,,,,,,,,,,,,
359233,0,5.9872,,,,,,,,,,,,110.34,25.8,76.26,118.44,,,,,,,,,,,,,,,,,,,,,44,46,46,45,44,43,42,42,43,48,48,49,48,48,48,47,43,46,43,41,40,41,40,40,40,41,40,41,41,41,41,40,,,,,,,,,,,,,,
359253,0,5.9875,,0.02,0.02,-0.07,0,1,1,0.07,2.59,3,1,110.13,25.8,76.35,118.44,12.64,3198,1,33,100.0,0.96,0.84,12.17,0.0,119.0,59,59,0,0,92,0,0,0,0,1,44,46,46,45,45,43,42,42,43,48,48,49,48,48,48,47,43,46,43,41,40,41,40,40,40,42,40,42,41,41,41,40,0.0,0.0,0.0,0.0,0,0,0.0,0,0.0,-1,0.0,0,0.0,5.9875
359273,0,5.9879,,,,,,,,,,,,110.01,25.8,76.26,119.76,,,,,,,,,,,,,,,,,,,,,44,46,46,45,45,43,42,42,43,48,48,49,48,48,48,47,43,46,43,41,40,41,40,40,40,42,40,42,41,41,41,40,,,,,,,,,,,,,,
359293,0,5.9882,,0.12,0.06,0.01,0,1,0,0.14,2.59,5,,110.01,25.89,76.35,121.95,,,,,,,,,,,,,,,,,,,,,44,46,46,45,45,43,42,42,43,48,48,49,48,48,48,47,43,46,43,41,41,41,40,40,40,42,40,42,41,41,41,40,,,,,,,,,,,,,,
359313,0,5.9886,,,,,,,,,,,,110.01,25.89,76.26,117.69,,,,,,,,,,,,,,,,,,,,,44,46,46,45,45,43,42,42,43,48,48,49,48,48,48,47,43,46,43,41,41,41,40,40,40,42,40,42,41,41,41,40,,,,,,,,,,,,,,
359333,0,5.9889,,-0.02,0.03,-0.06,-0,2,0,0.07,2.59,3,,110.13,25.89,76.26,119.67,,,,,,,,,,,,,,,,,,,,,44,46,46,45,45,43,42,42,42,47,48,48,48,48,48,47,43,46,43,41,41,41,40,40,40,42,40,42,41,41,40,40,,,,,,,,,,,,,,
359353,0,5.9892,,,,,,,,,,,1,110.22,25.8,76.26,117.36,12.69,3415,1,33,100.0,0.96,0.86,12.18,0.0,129.0,59,59,0,0,91,0,0,0,0,0,44,46,46,45,45,43,42,42,42,47,48,48,48,48,48,47,44,46,43,41,41,42,40,40,40,42,40,42,41,41,40,40,0.0,0.0,0.0,0.0,0,0,0.0,0,0.0,-1,0.0,0,0.0,5.9892
359373,0,5.9896,,-0.04,0.02,-0.15,0,3,0,0.16,2.59,6,,110.22,25.8,76.14,118.02,,,,,,,,,,,,,,,,,,,,,44,46,46,45,44,42,42,42,42,47,48,48,48,48,48,47,44,46,43,41,41,42,40,40,40,42,40,42,41,41,40,40,,,,,,,,,,,,,,
359393,0,5.9899,,,,,,,,,,,,110.22,25.8,76.26,117.36,,,,,,,,,,,,,,,,,,,,,44,46,46,45,44,42,42,42,42,48,48,49,48,48,48,47,44,46,43,41,41,42,40,40,40,41,40,41,41,40,40,39,,,,,,,,,,,,,,
359413,0,5.9902,,0.18,0.07,-0.16,0,2,-0,0.25,2.59,10,,110.13,25.8,76.26,119.34,,,,,,,,,,,,,,,,,,,,,44,46,46,45,44,42,42,42,42,48,48,49,48,48,48,47,44,46,44,41,41,42,41,40,40,41,40,41,41,40,40,39,,,,,,,,,,,,,,
359433,0,5.9906,,,,,,,,,,,,110.13,25.8,76.35,120.42,,,,,,,,,,,,,,,,,,,,,44,46,46,45,44,43,42,42,42,48,48,49,48,48,48,47,44,46,44,41,41,42,41,40,40,41,40,41,41,40,40,39,,,,,,,,,,,,,,
359453,0,5.9909,,0.05,0.08,-0.11,0,3,0,0.14,2.59,6,1,110.13,25.8,76.26,116.58,12.7,3479,1,33,100.0,0.96,0.84,12.16,0.0,126.0,58,59,0,0,91,0,0,0,0,0,44,46,46,45,44,43,42,42,42,48,48,49,48,48,48,47,44,46,44,41,41,42,41,40,40,41,40,42,41,41,40,39,0.0,0.0,0.0,0.0,0,0,0.0,0,0.0,-1,0.0,0,0.0,5.9909
359473,0,5.9912,,,,,,,,,,,,110.13,25.8,76.26,117.45,,,,,,,,,,,,,,,,,,,,,44,46,46,45,44,43,42,42,43,48,48,49,48,49,48,47,44,46,44,42,41,42,41,40,40,41,40,42,41,41,40,39,,,,,,,,,,,,,,
359493,0,5.9916,,-0.13,0.07,-0.23,0,1,-0,0.27,2.59,10,,110.34,25.89,76.26,117.12,,,,,,,,,,,,,,,,,,,,,44,46,46,45,44,43,42,42,43,48,48,49,48,49,48,47,44,46,44,42,41,42,41,40,40,41,40,42,41,41,40,39,,,,,,,,,,,,,,
359513,0,5.9919,,,,,,,,,,,,110.34,25.8,76.14,118.02,,,,,,,,,,,,,,,,,,,,,44,46,46,45,44,43,42,42,43,48,48,49,48,49,48,47,44,46,44,42,41,42,41,40,40,42,40,42,41,41,41,40,,,,,,,,,,,,,,
359533,0,5.9922,,0.1,0.07,-0.4,0,-0,-1,0.42,2.59,16,,110.46,25.8,76.14,118.56,,,,,,,,,,,,,,,,,,,,,44,46,46,45,44,43,42,42,42,47,48,48,48,48,48,46,44,46,44,41,41,41,40,40,40,42,40,42,41,41,41,40,,,,,,,,,,,,,,
359553,0,5.9925,,,,,,,,,,,1,110.46,25.8,76.26,116.13,12.7,3422,1,33,56.2,0.96,0.83,12.19,0.0,130.0,58,58,0,0,91,0,0,0,0,0,44,46,46,45,44,43,42,42,42,47,48,48,48,48,48,46,44,46,44,41,41,41,40,40,40,42,40,42,41,41,41,40,0.0,0.0,0.0,0.0,0,0,0.0,0,0.0,-1,0.0,0,0.0,5.9925
359573,0,5.9929,,0.1,0.07,-0.29,0,-0,-1,0.31,2.59,12,,110.22,25.8,76.26,117.24,,,,,,,,,,,,,,,,,,,,,44,46,46,45,44,42,42,42,42,47,48,48,48,48,48,46,44,46,44,41,41,41,40,40,40,42,40,42,41,41,40,39,,,,,,,,,,,,,,
359593,0,5.9932,,,,,,,,,,,,110.13,25.8,76.35,117.9,,,,,,,,,,,,,,,,,,,,,44,46,46,45,44,42,42,42,43,48,48,49,48,48,48,47,44,46,44,41,41,41,40,40,40,42,40,42,41,41,40,39,,,,,,,,,,,,,,
359613,0,5.9935,,-0.06,0.06,-0.47,0,-1,-1,0.48,2.59,18,,110.13,25.8,76.35,122.28,,,,,,,,,,,,,,,,,,,,,44,46,46,45,44,42,42,42,43,48,48,49,48,48,48,47,44,46,43,41,41,41,40,40,40,42,40,42,41,41,40,39,,,,,,,,,,,,,,
359633,0,5.9939,,,,,,,,,,,,110.01,25.8,76.35,117.9,,,,,,,,,,,,,,,,,,,,,44,46,46,45,44,42,42,42,43,48,48,49,48,48,48,47,44,46,43,41,41,41,40,40,40,42,40,42,41,41,40,39,,,,,,,,,,,,,,
359653,0,5.9942,,-0.11,0.05,-0.29,-0,-1,-1,0.31,2.59,12,1,110.13,25.8,76.26,116.7,12.69,3363,1,33,54.7,0.96,0.87,12.18,0.0,122.0,58,58,0,0,91,0,0,0,0,1,44,46,46,45,44,42,42,42,43,48,48,49,49,49,48,48,44,46,43,41,41,41,40,40,40,42,41,42,41,41,40,40,0.0,0.0,0.0,0.0,0,0,0.0,0,0.0,-1,0.0,0,0.0,5.9942
359673,0,5.9945,,,,,,,,,,,,110.34,25.8,76.26,117.03,,,,,,,,,,,,,,,,,,,,,44,46,46,45,44,42,42,42,43,48,48,49,49,49,48,48,44,46,44,41,41,41,40,40,40,42,41,42,41,41,40,40,,,,,,,,,,,,,,
359693,0,5.9949,,0.12,0.03,-0.27,-0,-0,-0,0.3,2.59,11,,110.34,25.8,76.14,119.76,,,,,,,,,,,,,,,,,,,,,44,46,46,45,44,43,42,42,43,48,48,49,49,49,48,48,44,46,44,41,41,41,40,40,40,42,41,42,41,41,40,40,,,,,,,,,,,,,,
359713,0,5.9952,,,,,,,,,,,,110.46,25.68,76.14,121.08,,,,,,,,,,,,,,,,,,,,,44,46,46,45,44,43,42,42,43,48,48,49,48,49,48,47,44,46,44,41,41,41,40,40,40,42,41,42,41,41,41,40,,,,,,,,,,,,,,
359733,0,5.9956,,0.11,0.04,-0.15,-0,-0,-1,0.19,2.59,7,,110.46,25.68,76.14,118.56,,,,,,,,,,,,,,,,,,,,,44,46,46,45,44,43,42,42,43,48,48,49,48,49,48,47,44,46,43,41,40,41,41,40,40,42,41,42,41,41,41,40,,,,,,,,,,,,,,
359753,0,5.9959,,,,,,,,,,,1,110.46,25.68,76.14,116.91,12.69,3654,1,33,54.2,0.96,0.86,12.19,0.0,116.0,58,58,0,0,90,0,0,0,0,1,44,46,46,45,44,43,42,42,43,48,48,49,48,49,48,47,44,46,43,41,40,41,41,40,40,42,41,42,41,41,41,40,0.0,0.0,0.0,0.0,0,0,0.0,0,0.0,-1,0.0,0,0.0,5.9959
359773,0,5.9962,,-0.05,0.04,-0.14,-0,0,-0,0.15,2.59,6,,110.34,25.68,76.26,119.01,,,,,,,,,,,,,,,,,,,,,44,46,46,45,44,43,42,42,43,48,48,49,48,48,48,47,44,46,43,41,40,41,41,40,40,42,41,42,41,41,41,40,,,,,,,,,,,,,,
359793,0,5.9966,,,,,,,,,,,,110.13,25.8,76.35,119.01,,,,,,,,,,,,,,,,,,,,,44,46,46,45,44,43,42,42,43,48,48,49,48,48,48,47,44,46,44,41,41,41,41,40,40,42,41,42,41,41,41,40,,,,,,,,,,,,,,
359813,0,5.9969,,-0.15,0.06,0.01,-0,0,-0,0.16,2.59,6,,110.01,25.8,76.35,118.89,,,,,,,,,,,,,,,,,,,,,44,46,46,45,44,43,42,42,43,48,48,49,48,48,48,47,44,46,44,41,41,41,41,40,40,42,41,42,41,41,41,40,,,,,,,,,,,,,,
359833,0,5.9972,,,,,,,,,,,,110.01,25.89,76.35,119.22,,,,,,,,,,,,,,,,,,,,,44,46,46,45,44,43,42,42,43,48,48,49,48,48,48,47,44,46,44,41,41,41,41,40,40,42,41,42,41,41,41,40,,,,,,,,,,,,,,
359853,0,5.9976,,0.1,0.05,0.03,-0,-0,-0,0.12,2.59,4,1,110.01,25.89,76.35,117.78,12.69,3366,1,33,53.4,0.96,0.84,12.17,0.0,126.0,58,58,0,0,90,0,0,0,0,0,44,46,46,45,44,43,42,42,43,48,48,49,48,48,48,47,43,46,43,41,41,41,40,40,40,42,41,42,41,41,41,40,0.0,0.0,0.0,0.0,0,0,0.0,0,0.0,-1,0.0,0,0.0,5.9976
359873,0,5.9979,,,,,,,,,,,,110.13,25.89,76.26,119.34,,,,,,,,,,,,,,,,,,,,,44,46,46,45,44,42,42,42,43,48,48,49,48,48,48,47,43,46,43,41,41,41,40,40,40,42,41,42,41,41,41,40,,,,,,,,,,,,,,
359893,0,5.9982,,0.02,0.04,0.19,-0,0,0,0.19,2.59,7,,110.13,25.89,76.26,119.76,,,,,,,,,,,,,,,,,,,,,44,46,46,45,44,42,42,42,43,48,48,49,48,48,48,47,43,46,43,41,41,41,40,40,40,42,41,42,41,41,41,40,,,,,,,,,,,,,,
359913,0,5.9985,,,,,,,,,,,,110.22,25.89,76.14,120.96,,,,,,,,,,,,,,,,,,,,,44,46,46,45,44,42,42,42,43,48,48,48,48,48,48,47,43,46,43,41,41,41,40,40,40,42,41,42,41,41,41,40,,,,,,,,,,,,,,
359933,0,5.9989,,-0.13,0.02,-0.05,-0,-1,0,0.14,2.59,6,,110.22,25.89,76.14,115.92,,,,,,,,,,,,,,,,,,,,,44,46,46,45,44,42,42,42,43,48,48,48,48,48,48,47,44,46,44,41,41,41,40,40,40,42,41,42,41,41,41,40,,,,,,,,,,,,,,
359953,0,5.9992,,,,,,,,,,,1,110.22,25.89,76.26,116.79,12.69,3267,1,33,52.3,0.96,0.9,12.16,0.0,123.0,58,58,0,0,90,0,0,0,0,0,44,46,46,45,44,43,42,42,43,48,48,48,48,48,48,47,44,46,44,41,41,41,40,40,40,42,41,42,41,41,41,40,0.0,0.0,0.0,0.0,0,0,0.0,0,0.0,-1,0.0,0,0.0,5.9992
359973,0,5.9995,,-0.14,0.04,-0.12,-0,-1,-0,0.19,2.59,7,,110.22,25.89,76.35,119.43,,,,,,,,,,,,,,,,,,,,,44,46,46,45,44,43,42,42,43,47,48,48,48,48,48,47,44,46,44,41,41,41,40,40,40,42,41,42,41,41,41,40,,,,,,,,,,,,,,
359993,0,5.9999,,,,,,,,,,,,110.01,25.89,76.35,120.42,,,,,,,,,,,,,,,,,,,,,44,46,46,45,44,43,42,42,43,47,48,48,48,48,48,47,44,46,44,41,41,41,40,40,40,42,41,42,41,41,41,40,,,,,,,,,,,,,,
360013,0,6.0002,,0.13,0.05,-0.25,0,-1,-0,0.29,2.59,11,,110.01,25.89,76.35,121.86,,,,,,,,,,,,,,,,,,,,,44,46,46,45,44,43,42,42,43,47,48,48,48,48,48,47,44,46,44,41,41,41,40,40,40,42,41,42,41,41,41,40,,,,,,,,,,,,,,
360033,0,6.0005,,,,,,,,,,,,110.01,25.89,76.35,115.92,,,,,,,,,,,,,,,,,,,,,44,46,46,45,44,43,42,42,42,47,48,48,48,48,48,47,44,46,44,41,41,41,40,40,40,42,41,42,41,41,41,40,,,,,,,,,,,,,,
360053,0,6.0009,12.94,0.08,0.06,-0.11,-0,-1,-0,0.15,2.59,6,1,110.13,25.89,76.26,117.24,12.69,3300,1,33,53.3,0.96,0.89,12.15,0.0,122.0,58,58,0,0,90,0,0,0,0,0,44,46,46,45,44,43,42,42,42,47,48,48,48,48,48,47,43,46,43,41,40,41,40,40,40,42,41,42,41,41,41,40,0.0,0.0,0.0,0.0,0,0,0.0,0,0.0,-1,0.0,0,0.0,6.0009
360073,0,6.0012,,,,,,,,,,,,110.22,25.8,76.26,119.88,,,,,,,,,,,,,,,,,,,,,44,46,46,45,44,43,42,42,42,47,48,48,48,48,48,47,43,46,43,41,40,41,40,40,40,42,41,42,41,41,41,40,,,,,,,,,,,,,,
360093,0,6.0016,,-0.06,0.05,-0.21,-0,-0,-0,0.22,2.59,9,,110.46,25.8,76.14,120.09,,,,,,,,,,,,,,,,,,,,,44,46,46,45,44,43,42,42,42,48,48,48,48,48,48,47,43,46,43,41,40,41,40,40,40,42,41,42,41,41,40,40,,,,,,,,,,,,,,
360113,0,6.0019,,,,,,,,,,,,110.46,25.8,76.14,121.62,,,,,,,,,,,,,,,,,,,,,44,46,46,45,44,43,42,42,42,48,48,48,48,48,48,47,44,46,43,41,40,41,40,40,40,42,41,42,41,41,40,40,,,,,,,,,,,,,,
360133,0,6.0022,,-0.14,0.05,0.01,0,0,-0,0.15,2.59,6,,110.34,25.8,76.26,119.01,,,,,,,,,,,,,,,,,,,,,44,46,46,45,44,42,42,42,42,48,48,48,48,48,48,47,44,46,43,41,40,41,40,40,40,42,41,42,41,41,40,40,,,,,,,,,,,,,,
360153,0,6.0026,,,,,,,,,,,1,110.22,25.8,76.26,118.89,12.65,3377,1,33,55.5,0.96,0.88,12.16,0.0,125.0,57,58,0,0,89,0,0,0,0,0,44,46,46,45,44,42,42,42,42,48,48,48,48,48,48,47,44,46,43,41,40,41,40,40,40,42,41,42,41,41,40,39,0.0,0.0,0.0,0.0,0,0,0.0,0,0.0,-1,0.0,0,0.0,6.0026
360173,0,6.0029,,0.12,0.04,-0.07,0,-0,-0,0.14,2.59,6,,110.13,25.8,76.35,119.22,,,,,,,,,,,,,,,,,,,,,44,46,46,45,44,42,42,42,42,47,48,48,48,48,48,47,43,46,43,41,41,41,40,40,40,42,41,42,41,41,40,39,,,,,,,,,,,,,,
360193,0,6.0032,,,,,,,,,,,,110.13,25.8,76.35,120.63,,,,,,,,,,,,,,,,,,,,,44,46,46,44,44,42,42,42,42,47,48,48,48,48,48,47,43,46,43,41,41,41,40,40,40,42,41,42,41,41,40,39,,,,,,,,,,,,,,
360213,0,6.0036,,0.09,0.01,-0.01,0,-1,-1,0.09,2.59,3,,110.13,25.89,76.47,119.76,,,,,,,,,,,,,,,,,,,,,44,46,46,44,44,42,42,42,42,47,48,48,48,48,48,47,43,46,43,41,41,41,40,40,40,42,41,42,41,41,40,40,,,,,,,,,,,,,,
360233,0,6.0039,,,,,,,,,,,,110.01,25.89,76.35,119.43,,,,,,,,,,,,,,,,,,,,,44,46,46,44,44,42,42,42,43,47,48,48,48,48,48,46,44,46,44,41,40,41,40,40,40,42,41,42,41,41,40,40,,,,,,,,,,,,,,
360253,0,6.0042,,-0.05,-0.01,-0.17,-0,-0,0,0.18,2.59,7,1,110.13,25.89,76.26,117.69,12.65,3446,1,33,54.7,0.96,0.89,12.15,0.0,126.0,57,58,0,0,89,0,0,0,0,0,44,46,46,45,44,42,41,42,43,47,48,48,48,48,48,46,44,46,44,41,40,41,40,40,40,42,41,42,41,41,40,40,0.0,0.0,0.0,0.0,0,0,0.0,0,0.0,-1,0.0,0,0.0,6.0042
360273,0,6.0045,,,,,,,,,,,,110.22,25.89,76.26,116.7,,,,,,,,,,,,,,,,,,,,,44,46,46,45,44,42,41,42,43,47,48,48,48,48,48,46,44,46,44,41,40,41,40,40,40,42,41,42,41,41,41,40,,,,,,,,,,,,,,
360293,0,6.0049,,-0.1,0.02,-0.23,-0,-0,-0,0.25,2.59,10,,110.22,25.89,76.26,118.56,,,,,,,,,,,,,,,,,,,,,44,46,46,45,44,42,41,42,43,48,48,48,48,48,48,47,44,46,44,41,40,41,40,40,40,42,41,42,41,41,41,40,,,,,,,,,,,,,,
360313,0,6.0052,,,,,,,,,,,,110.22,25.89,76.14,120.09,,,,,,,,,,,,,,,,,,,,,44,46,46,45,44,42,41,42,43,48,48,48,48,48,48,47,44,46,43,41,40,41,40,40,40,42,41,42,41,41,41,40,,,,,,,,,,,,,,
360333,0,6.0055,,0.17,0.05,-0.35,0,0,-0,0.39,2.59,15,,110.34,25.89,76.26,116.58,,,,,,,,,,,,,,,,,,,,,44,46,46,45,44,42,42,42,43,48,48,48,48,48,48,47,44,46,43,41,40,41,40,40,40,42,41,42,41,41,41,39,,,,,,,,,,,,,,
360353,0,6.0059,,,,,,,,,,,1,110.22,25.89,76.35,120.09,12.7,3587,1,33,53.4,0.96,0.89,12.17,0.0,125.0,57,58,0,0,89,0,0,0,0,0,44,46,46,45,44,42,42,42,42,47,48,48,48,48,48,47,44,46,43,41,40,41,40,40,40,42,41,42,41,41,41,39,0.0,0.0,0.0,0.0,0,0,0.0,0,0.0,-1,0.0,0,0.0,6.0059
360373,0,6.0062,,0.06,0.04,-0.18,-0,1,-0,0.19,2.59,7,,110.13,25.89,76.35,118.35,,,,,,,,,,,,,,,,,,,,,44,46,46,45,44,42,42,42,42,47,48,48,48,48,48,47,44,46,43,41,41,41,40,40,40,42,41,42,41,41,41,39,,,,,,,,,,,,,,
360393,0,6.0065,,,,,,,,,,,,110.13,25.89,76.47,123.93,,,,,,,,,,,,,,,,,,,,,44,46,46,45,44,42,42,42,42,47,48,48,48,48,48,47,44,46,43,41,41,41,40,40,40,42,41,42,41,41,41,39,,,,,,,,,,,,,,
360413,0,6.0069,,-0.13,0.03,-0.36,-0,0,-0,0.38,2.59,15,,110.13,25.89,76.35,120.75,,,,,,,,,,,,,,,,,,,,,44,46,46,45,44,42,42,42,43,48,48,48,48,48,48,47,44,46,43,41,41,41,40,40,40,42,41,42,41,41,41,40,,,,,,,,,,,,,,
360433,0,6.0072,,,,,,,,,,,,110.22,25.89,76.14,118.11,,,,,,,,,,,,,,,,,,,,,44,46,46,45,44,42,42,42,43,48,48,48,48,48,48,47,44,46,43,41,40,41,40,40,40,42,41,42,41,41,41,40,,,,,,,,,,,,,,
360453,0,6.0075,,0.11,0.01,-0.3,-0,-0,-0,0.32,2.59,12,1,110.34,25.89,76.26,118.02,12.7,3479,1,33,52.8,0.96,0.83,12.16,0.0,126.0,57,57,0,0,89,0,0,0,0,0,44,46,46,45,44,43,42,42,43,48,48,48,48,48,48,47,44,46,43,41,40,41,40,40,40,42,41,42,41,41,41,40,0.0,0.0,0.0,0.0,0,0,0.0,0,0.0,-1,0.0,0,0.0,6.0075
360473,0,6.0079,,,,,,,,,,,,110.34,25.8,76.26,117.78,,,,,,,,,,,,,,,,,,,,,44,46,46,45,44,43,42,42,43,47,48,49,48,48,48,47,44,46,43,41,40,41,40,40,40,42,41,42,41,41,41,40,,,,,,,,,,,,,,
360493,0,6.0082,,0.02,0.03,-0.19,-0,1,0,0.2,2.59,8,,110.22,25.8,76.35,115.92,,,,,,,,,,,,,,,,,,,,,44,46,46,45,44,43,42,42,43,47,48,49,48,48,48,47,44,46,44,41,41,42,41,40,40,42,41,42,41,41,41,40,,,,,,,,,,,,,,
360513,0,6.0086,,,,,,,,,,,,110.13,25.8,76.35,118.11,,,,,,,,,,,,,,,,,,,,,44,46,46,45,44,42,42,42,43,47,48,49,48,48,48,47,44,46,44,41,41,42,41,40,40,42,41,42,41,41,41,40,,,,,,,,,,,,,,
360533,0,6.0089,,-0.13,0.03,-0.15,-0,-0,0,0.21,2.59,8,,110.13,25.8,76.47,121.2,,,,,,,,,,,,,,,,,,,,,44,46,46,45,44,42,42,42,43,47,48,49,48,48,48,47,44,46,44,41,41,42,41,40,40,42,41,42,41,41,41,40,,,,,,,,,,,,,,
360553,0,6.0092,,,,,,,,,,,1,110.13,25.89,76.35,120.3,12.69,3248,1,33,51.9,0.96,0.81,12.19,0.0,122.0,57,57,0,0,88,0,0,0,0,0,44,46,46,45,44,42,42,42,42,48,48,48,48,48,48,47,44,46,44,42,41,42,41,40,40,42,41,42,41,41,41,40,0.0,0.0,0.0,0.0,0,0,0.0,0,0.0,-1,0.0,0,0.0,6.0092
360573,0,6.0096,,-0.04,0.05,-0.04,-0,-1,-0,0.08,2.59,3,,110.13,25.89,76.35,117.36,,,,,,,,,,,,,,,,,,,,,44,46,46,45,44,43,42,42,42,48,48,48,48,48,48,47,44,46,44,42,41,42,41,40,40,42,41,42,41,41,41,40,,,,,,,,,,,,,,
360593,0,6.0099,,,,,,,,,,,,110.22,26.01,76.35,116.37,,,,,,,,,,,,,,,,,,,,,44,46,46,45,44,43,42,42,42,48,48,48,48,48,48,47,44,46,44,42,41,42,41,40,40,42,41,42,41,41,41,40,,,,,,,,,,,,,,
360613,0,6.0102,,0.12,0.03,-0.11,-0,-2,-1,0.16,2.59,6,,110.34,25.89,76.26,118.44,,,,,,,,,,,,,,,,,,,,,44,46,46,45,44,43,42,42,43,48,48,48,48,48,48,47,44,46,44,42,41,42,41,40,40,42,41,42,41,41,41,40,,,,,,,,,,,,,,
360633,0,6.0106,,,,,,,,,,,,110.34,25.89,76.26,118.35,,,,,,,,,,,,,,,,,,,,,44,46,46,45,45,43,42,42,43,48,48,48,48,48,48,47,44,46,44,41,41,41,41,40,40,42,41,42,41,41,41,40,,,,,,,,,,,,,,
360653,0,6.0109,,0.02,0.01,0.09,-0,-1,-0,0.1,2.59,4,1,110.46,25.89,76.14,120.54,12.65,3401,1,33,52.5,0.96,0.88,12.17,0.0,121.0,57,58,0,0,88,0,0,0,0,1,44,46,46,45,45,43,42,42,43,48,48,48,48,48,48,47,44,46,44,41,41,41,41,40,40,42,41,41,40,40,40,39,0.0,0.0,0.0,0.0,0,0,0.0,0,0.0,-1,0.0,0,0.0,6.0109
360673,0,6.0112,,,,,,,,,,,,110.46,25.89,76.26,118.11,,,,,,,,,,,,,,,,,,,,,44,46,46,45,45,43,42,42,43,48,48,48,48,48,48,47,44,46,44,41,41,41,41,40,40,42,41,41,40,40,40,39,,,,,,,,,,,,,,
360693,0,6.0115,,-0.13,-0.01,-0.02,-0,-0,0,0.13,2.59,5,,110.34,25.89,76.35,120.3,,,,,,,,,,,,,,,,,,,,,44,46,46,45,45,43,42,42,43,48,48,48,48,48,48,47,44,46,44,41,41,41,40,40,40,42,41,41,40,40,40,39,,,,,,,,,,,,,,
360713,0,6.0119,,,,,,,,,,,,110.13,25.89,76.47,119.22,,,,,,,,,,,,,,,,,,,,,44,46,46,45,44,43,42,42,43,48,48,48,48,48,48,47,44,46,44,41,41,41,40,40,40,42,41,41,40,40,40,39,,,,,,,,,,,,,,
360733,0,6.0122,,-0.04,-0.01,0.05,-0,1,0,0.06,2.59,2,,110.13,25.89,76.47,120.21,,,,,,,,,,,,,,,,,,,,,44,46,46,45,44,43,42,42,42,47,48,48,48,48,48,47,44,46,44,41,41,41,40,40,40,42,40,42,40,41,40,40,,,,,,,,,,,,,,
360753,0,6.0125,,,,,,,,,,,1,110.13,25.89,76.47,121.29,12.66,3394,1,33,55.9,0.96,0.86,12.18,0.0,126.0,57,57,0,0,88,0,0,0,0,1,44,46,46,45,44,43,42,42,42,47,48,48,48,48,48,47,44,46,43,41,41,41,40,40,40,42,40,42,40,41,40,40,0.0,0.0,0.0,0.0,0,0,0.0,0,0.0,-1,0.0,0,0.0,6.0125
360773,0,6.0129,,0.12,0.01,0.05,-0,0,0,0.13,2.59,5,,110.13,25.89,76.35,116.91,,,,,,,,,,,,,,,,,,,,,44,46,46,45,44,43,42,42,42,47,48,48,48,48,48,47,44,46,43,41,41,41,40,40,40,42,40,42,40,41,40,40,,,,,,,,,,,,,,
360793,0,6.0132,,,,,,,,,,,,110.13,25.89,76.26,118.56,,,,,,,,,,,,,,,,,,,,,44,46,46,45,44,43,42,42,43,48,48,48,48,48,48,47,44,46,43,41,41,41,40,40,40,42,41,41,40,41,40,39,,,,,,,,,,,,,,
360813,0,6.0135,,0.0,0.0,0.05,-0,1,0,0.05,2.59,2,,110.34,25.89,76.26,120.96,,,,,,,,,,,,,,,,,,,,,44,46,46,45,44,43,42,42,43,48,48,48,48,48,48,47,44,46,43,41,41,41,40,40,40,42,41,41,40,41,40,39,,,,,,,,,,,,,,
360833,0,6.0139,,,,,,,,,,,,110.34,25.89,76.26,121.08,,,,,,,,,,,,,,,,,,,,,44,46,46,45,44,43,42,42,43,48,48,48,48,48,48,47,44,46,43,41,41,41,40,40,40,42,41,41,40,41,40,39,,,,,,,,,,,,,,
360853,0,6.0142,,-0.13,0.02,0.04,-0,1,0,0.14,2.59,5,1,110.34,25.8,76.26,117.69,12.65,3490,1,33,54.8,0.96,0.84,12.17,0.0,124.0,57,58,0,0,88,0,0,0,0,0,44,46,46,45,44,43,42,42,43,48,48,48,48,48,48,47,44,46,43,41,41,41,40,40,40,42,40,41,40,40,40,39,0.0,0.0,0.0,0.0,0,0,0.0,0,0.0,-1,0.0,0,0.0,6.0142
360873,0,6.0146,,,,,,,,,,,,110.34,25.8,76.26,117.69,,,,,,,,,,,,,,,,,,,,,44,46,46,45,44,43,42,42,43,48,48,49,48,48,48,47,44,46,44,41,41,41,40,40,40,42,40,41,40,40,40,39,,,,,,,,,,,,,,
360893,0,6.0149,,0.04,0.02,0.12,-0,1,1,0.13,2.59,5,,110.34,25.8,76.35,118.89,,,,,,,,,,,,,,,,,,,,,44,46,46,45,44,42,42,42,43,48,48,49,48,48,48,47,44,46,44,41,41,41,40,40,40,42,40,41,40,40,40,39,,,,,,,,,,,,,,
360913,0,6.0152,,,,,,,,,,,,110.13,25.89,76.47,117.9,,,,,,,,,,,,,,,,,,,,,44,46,46,45,44,42,42,42,43,48,48,49,48,48,48,47,44,46,44,41,41,41,40,40,40,42,41,41,40,40,41,40,,,,,,,,,,,,,,
360933,0,6.0156,,0.08,0.06,0.21,0,2,1,0.23,2.59,9,,110.22,25.89,76.35,119.01,,,,,,,,,,,,,,,,,,,,,44,46,46,45,44,42,42,42,43,48,48,49,48,48,48,48,44,46,44,41,41,42,41,40,40,42,41,41,40,40,41,40,,,,,,,,,,,,,,
360953,0,6.0159,,,,,,,,,,,1,110.22,25.89,76.26,121.86,12.65,3607,1,33,54.3,0.96,0.85,12.2,0.0,121.0,57,58,0,0,87,0,0,0,0,0,44,46,46,45,44,43,42,42,43,48,48,49,48,48,48,48,44,46,44,41,41,42,41,40,40,42,41,41,40,40,41,40,0.0,0.0,0.0,0.0,0,0,0.0,0,0.0,-1,0.0,0,0.0,6.0159
360973,0,6.0162,,-0.09,0.03,0.01,-0,1,0,0.1,2.59,4,,110.34,25.8,76.26,121.86,,,,,,,,,,,,,,,,,,,,,44,46,46,45,44,43,42,42,43,48,48,49,48,48,48,48,44,46,44,41,41,42,41,40,40,42,41,42,41,41,40,40,,,,,,,,,,,,,,
360993,0,6.0166,,,,,,,,,,,,110.34,25.8,76.14,119.76,,,,,,,,,,,,,,,,,,,,,44,46,46,45,44,43,42,42,43,48,48,49,48,48,48,47,44,46,44,41,41,42,41,40,40,42,41,42,41,41,40,40,,,,,,,,,,,,,,
361013,0,6.0169,,0.07,0.02,0.03,-0,2,1,0.07,2.59,3,,110.34,25.8,76.35,115.14,,,,,,,,,,,,,,,,,,,,,44,46,46,45,44,43,42,42,43,48,48,49,48,48,48,47,44,46,43,41,41,41,40,39,40,42,41,42,41,41,40,40,,,,,,,,,,,,,,
361033,0,6.0172,,,,,,,,,,,,110.13,25.8,76.35,117.45,,,,,,,,,,,,,,,,,,,,,44,46,46,45,44,43,42,42,43,48,48,49,48,48,48,47,44,46,43,41,41,41,40,39,40,42,41,42,40,41,41,40,,,,,,,,,,,,,,
361053,0,6.0175,12.96,0.14,0.03,0.09,-0,2,0,0.17,2.59,7,1,110.13,25.8,76.47,124.92,12.65,3587,1,33,53.3,0.96,0.86,12.19,0.0,131.0,57,58,0,0,87,0,0,0,0,0,44,46,46,45,44,43,42,42,43,48,48,49,48,48,48,48,44,46,43,41,41,41,40,39,40,42,41,42,40,41,41,40,0.0,0.0,0.0,0.0,0,0,0.0,0,0.0,-1,0.0,0,0.0,6.0175
361073,0,6.0179,,,,,,,,,,,,110.13,25.89,76.35,117.45,,,,,,,,,,,,,,,,,,,,,44,46,46,45,44,43,42,42,43,48,48,49,48,48,48,48,44,46,44,41,41,42,41,40,40,42,41,42,40,41,41,40,,,,,,,,,,,,,,
361093,0,6.0182,,-0.02,0.01,-0.11,-0,1,0,0.11,2.59,4,,110.22,25.89,76.26,118.44,,,,,,,,,,,,,,,,,,,,,44,46,46,45,44,42,42,42,43,48,48,49,48,48,48,48,44,46,44,41,41,42,41,40,40,42,41,42,40,41,41,40,,,,,,,,,,,,,,
361113,0,6.0185,,,,,,,,,,,,110.46,25.89,76.35,122.19,,,,,,,,,,,,,,,,,,,,,44,46,46,45,44,42,42,42,43,48,48,49,48,48,48,47,44,46,44,41,41,42,41,40,40,41,41,42,41,40,41,39,,,,,,,,,,,,,,
361133,0,6.0189,,-0.01,0.02,-0.18,-0,1,0,0.18,2.59,7,,110.46,25.8,76.26,119.88,,,,,,,,,,,,,,,,,,,,,44,46,46,45,44,42,42,42,43,48,48,49,48,48,48,47,44,46,44,41,41,41,40,40,40,41,41,42,41,40,41,39,,,,,,,,,,,,,,
361153,0,6.0192,,,,,,,,,,,1,110.46,25.8,76.26,119.88,12.67,3439,1,33,52.7,0.96,0.84,12.17,0.0,126.0,57,57,0,0,87,0,0,0,0,0,44,46,46,45,44,43,42,42,43,48,48,49,48,48,48,47,44,46,44,41,41,41,40,40,40,41,41,42,41,40,41,39,0.0,0.0,0.0,0.0,0,0,0.0,0,0.0,-1,0.0,0,0.0,6.0192
361173,0,6.0195,,0.12,0.02,-0.09,-0,0,0,0.15,2.59,6,,110.22,25.8,76.35,117.36,,,,,,,,,,,,,,,,,,,,,44,46,46,45,44,43,42,42,43,48,48,49,48,48,48,47,44,46,44,41,41,41,40,40,40,41,40,41,40,40,40,39,,,,,,,,,,,,,,
361193,0,6.0199,,,,,,,,,,,,110.22,25.89,76.47,121.95,,,,,,,,,,,,,,,,,,,,,44,46,46,45,44,43,42,42,43,48,48,49,48,48,48,47,44,46,44,41,41,41,40,40,40,41,40,41,40,40,40,39,,,,,,,,,,,,,,
361213,0,6.0202,,-0.01,-0.0,-0.14,-0,1,0,0.14,2.59,6,,110.13,25.8,76.35,115.14,,,,,,,,,,,,,,,,,,,,,44,46,46,45,44,43,42,42,43,48,48,49,48,48,48,47,44,46,44,41,41,41,40,40,40,41,40,41,40,40,40,39,,,,,,,,,,,,,,
361233,0,6.0205,,,,,,,,,,,,110.13,25.89,76.35,118.35,,,,,,,,,,,,,,,,,,,,,44,46,46,45,44,43,42,42,43,48,48,49,48,48,48,47,44,46,44,41,41,41,40,40,40,41,41,41,41,41,40,39,,,,,,,,,,,,,,
361253,0,6.0209,,-0.17,0.03,-0.06,-0,0,-0,0.18,2.59,7,1,110.22,25.89,76.35,115.92,12.65,3211,1,33,51.9,0.96,0.85,12.15,0.0,119.0,57,58,0,0,86,0,0,0,0,0,44,46,46,45,44,43,42,42,43,48,48,49,48,49,48,48,44,46,44,42,41,41,41,40,40,41,41,41,41,41,40,39,0.0,0.0,0.0,0.0,0,0,0.0,0,0.0,-1,0.0,0,0.0,6.0209
361273,0,6.0212,,,,,,,,,,,,110.22,25.89,76.26,119.97,,,,,,,,,,,,,,,,,,,,,44,46,46,45,44,43,42,42,43,48,48,49,48,49,48,48,44,46,44,42,41,41,41,40,40,41,41,41,41,41,40,39,,,,,,,,,,,,,,
361293,0,6.0216,,0.07,0.02,-0.16,-0,-1,-0,0.18,2.59,7,,110.46,25.8,76.14,118.23,,,,,,,,,,,,,,,,,,,,,44,46,46,45,44,43,42,42,43,48,48,49,48,49,48,48,44,46,44,42,41,41,41,40,40,41,40,42,41,41,40,40,,,,,,,,,,,,,,
361313,0,6.0219,,,,,,,,,,,,110.46,25.8,76.26,119.76,,,,,,,,,,,,,,,,,,,,,44,46,46,45,44,43,42,42,43,48,48,49,48,49,48,48,44,46,44,42,41,41,41,40,40,41,40,42,41,41,40,40,,,,,,,,,,,,,,
361333,0,6.0222,,0.02,0.03,0.04,-0,-0,0,0.05,2.59,2,,110.34,25.8,76.35,117.03,,,,,,,,,,,,,,,,,,,,,44,46,46,45,44,43,42,42,43,48,48,49,48,49,48,48,44,46,44,41,41,41,40,40,40,41,40,42,41,41,40,40,,,,,,,,,,,,,,
361353,0,6.0226,,,,,,,,,,,1,110.22,25.8,76.35,118.89,12.64,3394,1,33,51.8,0.96,0.84,12.18,0.0,125.0,57,58,0,0,86,0,0,0,0,0,44,46,46,45,44,43,42,42,43,48,48,49,48,49,48,48,44,46,44,41,41,41,40,40,40,41,40,41,40,40,40,39,0.0,0.0,0.0,0.0,0,0,0.0,0,0.0,-1,0.0,0,0.0,6.0226
361373,0,6.0229,,-0.15,0.04,-0.07,-0,-1,-0,0.17,2.59,6,,110.22,25.8,76.47,121.2,,,,,,,,,,,,,,,,,,,,,44,46,46,45,44,43,42,42,43,48,48,49,48,48,48,47,44,46,44,41,41,41,40,40,40,41,40,41,40,40,40,39,,,,,,,,,,,,,,
361393,0,6.0232,,,,,,,,,,,,110.13,25.8,76.35,119.22,,,,,,,,,,,,,,,,,,,,,44,46,46,45,44,43,42,42,43,48,48,49,48,48,48,47,44,46,44,41,41,41,41,40,40,41,40,41,40,40,40,39,,,,,,,,,,,,,,
361413,0,6.0236,,-0.13,0.05,-0.07,-0,-0,-0,0.16,2.59,6,,110.13,25.89,76.35,119.67,,,,,,,,,,,,,,,,,,,,,44,46,46,45,44,43,42,42,43,48,48,49,48,48,48,47,44,46,44,41,41,41,41,40,40,41,40,41,40,40,40,39,,,,,,,,,,,,,,
361433,0,6.0239,,,,,,,,,,,,110.13,25.89,76.35,120.42,,,,,,,,,,,,,,,,,,,,,44,46,46,45,44,43,42,42,42,48,48,49,48,48,48,48,44,46,44,41,41,41,41,40,40,41,40,41,40,40,40,39,,,,,,,,,,,,,,
361453,0,6.0242,,0.06,0.03,-0.02,-0,-1,-0,0.07,2.59,3,1,110.22,25.89,76.26,120.87,12.68,3464,1,33,56.5,0.96,0.85,12.15,0.0,124.0,57,57,0,0,86,0,0,0,0,0,44,46,46,45,44,43,42,42,42,48,48,49,48,48,48,48,44,46,44,42,41,41,41,40,40,41,40,41,40,40,40,39,0.0,0.0,0.0,0.0,0,0,0.0,0,0.0,-1,0.0,0,0.0,6.0242
361473,0,6.0245,,,,,,,,,,,,110.34,25.8,76.14,117.57,,,,,,,,,,,,,,,,,,,,,44,46,46,45,45,43,42,42,42,48,48,49,48,48,48,48,44,46,44,42,41,41,41,40,40,41,40,41,40,40,40,39,,,,,,,,,,,,,,
361493,0,6.0249,,-0.08,0.01,-0.14,-0,-1,0,0.16,2.59,6,,110.34,25.8,76.26,116.91,,,,,,,,,,,,,,,,,,,,,44,46,46,45,45,43,42,42,43,48,48,49,48,48,48,48,44,46,44,42,41,41,41,40,40,41,40,41,40,40,40,39,,,,,,,,,,,,,,
361513,0,6.0252,,,,,,,,,,,,110.22,25.8,76.35,116.91,,,,,,,,,,,,,,,,,,,,,44,46,46,45,45,43,42,42,43,48,48,49,48,48,48,48,44,46,44,42,41,42,40,40,40,41,40,41,40,40,40,39,,,,,,,,,,,,,,
361533,0,6.0255,,0.05,-0.02,-0.13,-0,-0,0,0.14,2.59,5,,110.13,25.8,76.47,116.46,,,,,,,,,,,,,,,,,,,,,44,46,46,45,44,43,42,42,43,48,48,49,48,48,48,48,44,46,44,42,41,42,40,40,40,41,40,41,40,40,40,39,,,,,,,,,,,,,,
361553,0,6.0259,,,,,,,,,,,1,110.22,25.89,76.35,116.25,12.66,3561,1,33,56.8,0.96,0.86,12.19,0.0,135.0,57,57,0,0,86,0,0,0,0,0,44,46,46,45,44,43,42,42,43,48,48,49,48,49,48,47,44,46,44,42,41,42,40,40,40,41,40,41,40,41,41,40,0.0,0.0,0.0,0.0,0,0,0.0,0,0.0,-1,0.0,0,0.0,6.0259
361573,0,6.0262,,0.08,0.02,-0.05,-0,0,-0,0.09,2.59,4,,110.22,25.89,76.26,122.61,,,,,,,,,,,,,,,,,,,,,44,46,46,45,44,43,42,42,43,48,48,49,48,49,48,47,44,46,44,41,41,41,40,40,40,41,40,41,40,41,41,40,,,,,,,,,,,,,,
361593,0,6.0265,,,,,,,,,,,,110.46,25.8,76.26,117.9,,,,,,,,,,,,,,,,,,,,,44,46,46,45,44,43,42,42,43,48,48,49,48,49,48,47,44,46,44,41,41,41,40,40,40,41,40,41,40,41,41,40,,,,,,,,,,,,,,
361613,0,6.0269,,-0.08,-0.01,-0.12,-0,1,0,0.14,2.59,6,,110.46,25.8,76.26,119.34,,,,,,,,,,,,,,,,,,,,,44,46,46,45,44,43,42,42,43,48,48,49,48,49,48,47,44,46,44,41,41,41,40,40,40,41,40,41,40,41,40,39,,,,,,,,,,,,,,
361633,0,6.0272,,,,,,,,,,,,110.22,25.8,76.35,115.38,,,,,,,,,,,,,,,,,,,,,44,46,46,45,44,43,42,42,43,47,48,48,48,48,48,47,44,46,44,41,41,41,40,40,40,41,40,41,40,41,40,39,,,,,,,,,,,,,,
361653,0,6.0276,,0.11,-0.02,0.07,-0,1,1,0.13,2.59,5,1,110.22,25.8,76.35,118.89,12.68,3545,1,33,54.9,0.96,0.83,12.18,0.0,125.0,57,57,0,0,86,0,0,0,0,1,44,46,46,45,44,43,42,42,43,47,48,48,48,48,48,47,44,46,44,41,41,41,40,40,40,41,40,41,40,41,40,39,0.0,0.0,0.0,0.0,0,0,0.0,0,0.0,-1,0.0,0,0.0,6.0276
361673,0,6.0279,,,,,,,,,,,,110.22,25.89,76.26,120.87,,,,,,,,,,,,,,,,,,,,,44,46,46,45,44,43,42,42,43,47,48,48,48,48,48,47,44,46,44,41,41,41,40,40,40,41,40,41,40,41,40,39,,,,,,,,,,,,,,
361693,0,6.0282,,-0.03,-0.01,0.13,-0,1,1,0.13,2.59,5,,110.34,25.8,76.26,120.87,,,,,,,,,,,,,,,,,,,,,44,46,46,45,44,43,42,42,43,48,48,49,48,48,48,47,44,46,44,41,41,41,40,40,40,41,40,41,40,41,40,39,,,,,,,,,,,,,,
361713,0,6.0286,,,,,,,,,,,,110.34,25.8,76.26,123.84,,,,,,,,,,,,,,,,,,,,,44,46,46,45,44,42,42,42,43,48,48,49,48,48,48,47,44,46,44,42,41,41,41,40,40,41,40,41,40,41,40,39,,,,,,,,,,,,,,
361733,0,6.0289,,-0.13,0.01,0.12,-0,-1,-0,0.18,2.59,7,,110.46,25.89,76.26,118.35,,,,,,,,,,,,,,,,,,,,,44,46,46,45,44,42,42,42,43,48,48,49,48,48,48,47,44,46,44,42,41,41,41,40,40,41,40,41,40,41,41,40,,,,,,,,,,,,,,
361753,0,6.0292,,,,,,,,,,,1,110.22,25.89,76.35,118.02,12.68,3516,1,33,54.0,0.96,0.86,12.19,0.0,132.0,57,57,0,0,85,0,0,0,0,1,44,46,46,45,44,42,42,42,43,48,48,49,48,49,48,48,44,46,44,42,41,41,41,40,40,41,40,41,40,41,41,40,0.0,0.0,0.0,0.0,0,0,0.0,0,0.0,-1,0.0,0,0.0,6.0292
361773,0,6.0296,,0.02,0.04,0.27,0,-1,-0,0.28,2.59,11,,110.22,25.89,76.35,118.89,,,,,,,,,,,,,,,,,,,,,44,46,46,45,44,42,42,42,43,48,48,49,48,49,48,48,44,46,44,41,41,41,41,40,40,41,40,41,40,41,41,40,,,,,,,,,,,,,,
361793,0,6.0299,,,,,,,,,,,,110.22,25.89,76.35,122.19,,,,,,,,,,,,,,,,,,,,,44,46,46,45,44,42,42,42,43,48,48,49,48,49,48,48,44,46,44,41,41,41,41,40,40,41,40,41,40,41,41,40,,,,,,,,,,,,,,
361813,0,6.0302,,-0.1,0.01,0.07,-0,0,0,0.12,2.59,5,,110.34,25.89,76.26,119.76,,,,,,,,,,,,,,,,,,,,,44,46,46,45,44,42,42,42,43,48,48,49,48,48,48,47,44,46,44,41,41,41,41,40,39,41,40,41,40,40,40,39,,,,,,,,,,,,,,
361833,0,6.0306,,,,,,,,,,,,110.46,25.8,76.26,118.02,,,,,,,,,,,,,,,,,,,,,44,46,46,45,44,42,42,42,43,48,48,49,48,48,48,47,44,46,44,41,41,41,40,40,39,41,40,41,40,40,40,39,,,,,,,,,,,,,,
361853,0,6.0309,,-0.08,0.0,-0.03,-0,2,1,0.08,2.59,3,1,110.46,25.8,76.26,116.37,12.7,3607,1,33,53.8,0.96,0.82,12.17,0.0,128.0,57,57,0,0,85,0,0,0,0,0,44,46,46,45,44,42,42,42,43,48,48,49,48,48,48,47,44,46,44,41,41,41,40,40,39,41,40,41,40,40,40,39,0.0,0.0,0.0,0.0,0,0,0.0,0,0.0,-1,0.0,0,0.0,6.0309
361873,0,6.0312,,,,,,,,,,,,110.34,25.8,76.35,117.69,,,,,,,,,,,,,,,,,,,,,44,46,46,45,44,42,42,42,43,48,48,49,48,48,48,47,44,46,44,41,41,41,40,40,40,41,40,41,40,40,40,39,,,,,,,,,,,,,,
361893,0,6.0315,,0.15,-0.01,-0.11,0,1,0,0.19,2.59,7,,110.13,25.8,76.35,119.55,,,,,,,,,,,,,,,,,,,,,44,46,46,45,44,42,42,42,43,48,48,49,48,48,48,47,44,46,44,42,41,41,41,40,40,41,40,41,40,40,40,39,,,,,,,,,,,,,,
361913,0,6.0319,,,,,,,,,,,,110.13,25.89,76.47,122.52,,,,,,,,,,,,,,,,,,,,,44,46,46,45,44,42,42,42,43,48,48,49,48,48,48,47,44,46,44,42,41,41,41,40,40,41,40,41,40,40,40,39,,,,,,,,,,,,,,
361933,0,6.0322,,0.02,-0.01,-0.05,-0,2,1,0.06,2.59,2,,110.13,25.89,76.35,117.45,,,,,,,,,,,,,,,,,,,,,44,46,46,45,44,42,42,42,43,48,48,49,48,48,48,47,44,46,44,42,41,41,41,40,40,41,40,41,40,40,40,39,,,,,,,,,,,,,,
361953,0,6.0325,,,,,,,,,,,1,110.13,25.89,76.26,120.96,12.69,3479,1,33,53.6,0.96,0.84,12.19,0.0,120.0,57,58,0,0,85,0,0,0,0,0,44,46,46,45,44,42,42,42,43,48,48,49,48,49,48,47,44,46,44,41,41,41,41,40,40,41,40,41,40,40,40,39,0.0,0.0,0.0,0.0,0,0,0.0,0,0.0,-1,0.0,0,0.0,6.0325
361973,0,6.0329,,-0.13,0.01,-0.07,-0,1,0,0.15,2.59,6,,110.34,25.89,76.26,121.08,,,,,,,,,,,,,,,,,,,,,44,46,46,45,44,42,42,42,43,48,48,49,48,49,48,47,44,46,44,41,41,41,41,40,40,41,40,41,40,40,40,39,,,,,,,,,,,,,,
361993,0,6.0332,,,,,,,,,,,,110.46,25.89,76.26,118.68,,,,,,,,,,,,,,,,,,,,,44,46,46,45,44,42,42,42,43,48,48,49,48,49,48,47,44,46,44,41,41,41,41,40,39,40,40,41,40,40,40,39,,,,,,,,,,,,,,
362013,0,6.0335,,0.07,-0.0,-0.04,-0,-1,0,0.08,2.59,3,,110.46,25.8,76.26,119.01,,,,,,,,,,,,,,,,,,,,,44,46,46,45,44,42,42,42,43,48,48,49,48,49,48,47,44,46,44,41,41,41,41,40,39,40,40,41,40,40,40,39,,,,,,,,,,,,,,
362033,0,6.0339,,,,,,,,,,,,110.34,25.8,76.35,115.14,,,,,,,,,,,,,,,,,,,,,44,46,46,45,44,43,42,42,43,48,48,49,48,49,48,47,44,46,44,41,41,41,40,40,39,40,40,41,40,40,40,39,,,,,,,,,,,,,,
362053,0,6.0342,12.95,-0.03,0.02,0.03,-0,0,0,0.05,2.59,2,1,110.22,25.89,76.47,119.88,12.68,3623,1,33,52.8,0.96,0.83,12.19,0.0,128.0,57,58,0,0,84,0,0,0,0,0,44,46,46,45,44,43,42,42,43,48,48,49,48,49,48,47,44,46,44,41,41,41,40,40,40,41,40,41,40,41,41,40,0.0,0.0,0.0,0.0,0,0,0.0,0,0.0,-1,0.0,0,0.0,6.0342
362073,0,6.0346,,,,,,,,,,,,110.13,25.89,76.35,116.25,,,,,,,,,,,,,,,,,,,,,44,46,46,45,44,43,42,42,43,48,48,49,48,48,48,47,44,46,44,41,41,41,40,40,40,41,40,41,40,41,41,40,,,,,,,,,,,,,,
362093,0,6.0349,,-0.15,0.02,0.01,-0,0,0,0.15,2.59,6,,110.13,25.89,76.35,116.37,,,,,,,,,,,,,,,,,,,,,44,46,46,45,44,42,42,42,43,48,48,49,48,48,48,47,44,46,44,41,41,41,40,40,40,41,40,41,40,41,41,40,,,,,,,,,,,,,,
362113,0,6.0352,,,,,,,,,,,,110.34,25.89,76.26,123.18,,,,,,,,,,,,,,,,,,,,,44,46,46,45,44,42,42,42,43,48,48,49,48,48,48,47,44,46,44,41,41,41,40,40,40,41,40,41,40,41,41,40,,,,,,,,,,,,,,
362133,0,6.0356,,0.05,0.01,0.12,-0,1,0,0.13,2.59,5,,110.34,25.89,76.26,117.03,,,,,,,,,,,,,,,,,,,,,44,46,46,45,44,42,42,42,43,48,48,49,48,49,48,47,44,46,44,41,41,41,40,40,40,41,40,41,40,40,41,39,,,,,,,,,,,,,,
362153,0,6.0359,,,,,,,,,,,1,110.34,25.89,76.14,119.1,12.71,3584,1,33,52.4,0.96,0.84,12.21,0.0,124.0,57,57,0,0,84,0,0,0,0,0,44,46,46,45,44,42,42,42,43,48,48,49,48,49,48,47,44,46,44,41,41,41,40,40,40,41,40,41,40,40,41,39,0.0,0.0,0.0,0.0,0,0,0.0,0,0.0,-1,0.0,0,0.0,6.0359
362173,0,6.0362,,0.05,0.05,0.18,-0,1,0,0.19,2.59,7,,110.34,25.89,76.26,118.11,,,,,,,,,,,,,,,,,,,,,44,46,46,45,44,43,42,42,43,48,48,49,48,49,48,47,44,46,44,41,41,41,40,40,40,41,40,41,40,40,41,39,,,,,,,,,,,,,,
362193,0,6.0366,,,,,,,,,,,,110.22,25.89,76.35,119.97,,,,,,,,,,,,,,,,,,,,,44,46,46,45,44,43,42,42,43,48,48,49,49,48,48,47,44,46,44,41,41,41,40,40,40,41,40,41,41,41,41,40,,,,,,,,,,,,,,
362213,0,6.0369,,-0.14,0.03,0.03,-0,1,0,0.15,2.59,6,,110.13,25.89,76.47,119.55,,,,,,,,,,,,,,,,,,,,,44,46,46,45,44,43,42,42,43,48,48,49,49,48,48,47,44,46,44,42,41,41,40,40,40,41,40,41,41,41,41,40,,,,,,,,,,,,,,
362233,0,6.0372,,,,,,,,,,,,110.13,25.89,76.47,120.21,,,,,,,,,,,,,,,,,,,,,44,46,46,45,44,43,42,42,43,48,48,49,49,48,48,47,44,46,44,42,41,41,40,40,40,41,40,41,41,41,41,40,,,,,,,,,,,,,,
362253,0,6.0375,,0.12,0.04,-0.13,-0,1,-0,0.18,2.59,7,1,110.22,25.89,76.35,122.4,12.65,3411,1,33,52.0,0.96,0.86,12.2,0.0,123.0,57,57,0,0,84,0,0,0,0,0,44,46,46,45,44,43,42,42,43,48,48,49,48,48,48,47,44,46,44,42,41,41,40,40,40,41,40,41,40,40,40,39,0.0,0.0,0.0,0.0,0,0,0.0,0,0.0,-1,0.0,0,0.0,6.0375
362273,0,6.0379,,,,,,,,,,,,110.34,25.89,76.35,121.41,,,,,,,,,,,,,,,,,,,,,44,46,46,45,44,43,42,42,43,48,48,49,48,48,48,47,44,46,44,42,41,42,41,40,40,41,40,41,40,40,40,39,,,,,,,,,,,,,,
