"Interval"|"ms"|0|0|1,"Utc"|"ms"|0|0|1,"ElapsedTime"|"Min"|0.0|0.0|10,"Battery"|"Volts"|0.0|20.0|1,"AccelX"|"G"|-3.0|3.0|25,"AccelY"|"G"|-3.0|3.0|25,"AccelZ"|"G"|-3.0|3.0|25,"Yaw"|"Deg/Sec"|-120|120|25,"Pitch"|"Deg/Sec"|-120|120|25,"Roll"|"Deg/Sec"|-120|120|25,"Gsum"|"G"|0.0|3.0|25,"GsumMax"|"G"|0.0|3.0|25,"GsumPct"|"%"|0|100|25,"StAngle"|"Deg"|-100|100|10,"SuspPosFL"|"mm"|0.0|150.0|100,"SuspPosFR"|"mm"|0.0|150.0|100,"SuspPosRL"|"mm"|0.0|150.0|100,"SuspPosRR"|"mm"|0.0|150.0|100,"ADL_BAT"|"V"|0.0|20.0|10,"RPM"|""|0|20000|10,"TPS"|"%"|0|100|10,"IAT"|"F"|0|300|10,"MAP"|"KPa"|0.0|255.0|10,"LambdaAim"|""|0.0|1.75|10,"Lambda"|""|0.0|1.75|10,"ECU_BAT"|"V"|0.0|20.0|10,"FuelCut"|""|0.0|100.0|10,"InjDuty"|"%"|0.0|100.0|10,"BrakePres-F"|"psi"|0|1200|10,"BrakePres-R"|"psi"|0|1200|10,"AuxUpDuty"|"%"|0|100|10,"AuxDownDuty"|"%"|0|100|10,"EngineTemp"|"F"|0|300|10,"WheelSpdRL"|""|0|100|10,"WheelSpdRR"|""|0|100|10,"WheelSpdFL"|""|0|100|10,"WheelSpdFR"|""|0|100|10,"Gear"|""|0|10|10,"TireTmpLF1"|"C"|20|90|50,"TireTmpLF2"|"C"|20|90|50,"TireTmpLF3"|"C"|20|90|50,"TireTmpLF4"|"C"|20|90|50,"TireTmpLF5"|"C"|20|90|50,"TireTmpLF6"|"C"|20|90|50,"TireTmpLF7"|"C"|20|90|50,"TireTmpLF8"|"C"|20|90|50,"TireTmpRF1"|"C"|20|90|50,"TireTmpRF2"|"C"|20|90|50,"TireTmpRF3"|"C"|20|90|50,"TireTmpRF4"|"C"|20|90|50,"TireTmpRF5"|"C"|20|90|50,"TireTmpRF6"|"C"|20|90|50,"TireTmpRF7"|"C"|20|90|50,"TireTmpRF8"|"C"|20|90|50,"TireTmpLR1"|"C"|20|90|50,"TireTmpLR2"|"C"|20|90|50,"TireTmpLR3"|"C"|20|90|50,"TireTmpLR4"|"C"|20|90|50,"TireTmpLR5"|"C"|20|90|50,"TireTmpLR6"|"C"|20|90|50,"TireTmpLR7"|"C"|20|90|50,"TireTmpLR8"|"C"|20|90|50,"TireTmpRR1"|"C"|20|90|50,"TireTmpRR2"|"C"|20|90|50,"TireTmpRR3"|"C"|20|90|50,"TireTmpRR4"|"C"|20|90|50,"TireTmpRR5"|"C"|20|90|50,"TireTmpRR6"|"C"|20|90|50,"TireTmpRR7"|"C"|20|90|50,"TireTmpRR8"|"C"|20|90|50,"Latitude"|"Degrees"|-180.0|180.0|10,"Longitude"|"Degrees"|-180.0|180.0|10,"Speed"|"kph"|0.0|150.0|10,"Altitude"|"m"|0.0|4000.0|10,"GPSSats"|""|0|20|10,"GPSQual"|""|0|5|10,"GPSDOP"|""|0.0|20.0|10,"LapCount"|""|0|0|10,"LapTime"|"Min"|0.0|0.0|10,"Sector"|""|0|0|10,"SectorTime"|"Min"|0.0|0.0|10,"CurrentLap"|""|0|0|10,"Distance"|"mi"|0.0|0.0|10,"SessionTime"|"Min"|0.0|0.0|10
117193,0,1.9532,,,,,,,,,,,,110.88,27.33,76.47,121.95,,,,,,,,,,,,,,,,,,,,,54,56,54,53,53,52,48,46,45,51,54,54,54,55,54,56,39,43,42,42,40,40,33,33,46,50,50,52,53,54,55,54,,,,,,,,,,,,,,
117203,0,1.9534,,,,,,,,,,,,110.88,27.33,76.35,121.74,,,,,,,,,,,,,,,,,,,,,,,,,,,,,,,,,,,,,,,,,,,,,,,,,,,,,,,,,,,,,,,,,,
117213,0,1.9536,,0.03,0.04,-0.3,-0,3,-0,0.31,0.48,64,,110.67,27.21,76.47,119.22,,,,,,,,,,,,,,,,,,,,,54,56,54,53,53,52,48,46,45,51,54,54,54,55,54,56,39,43,42,42,40,40,33,32,46,50,50,52,53,54,55,54,,,,,,,,,,,,,,
117223,0,1.9537,,,,,,,,,,,,110.88,27.33,76.26,124.71,,,,,,,,,,,,,,,,,,,,,,,,,,,,,,,,,,,,,,,,,,,,,,,,,,,,,,,,,,,,,,,,,,
117233,0,1.9539,,,,,,,,,,,,110.79,27.33,76.68,121.95,,,,,,,,,,,,,,,,,,,,,54,56,54,53,53,52,48,46,45,51,54,54,54,55,54,56,39,43,42,42,40,40,33,32,46,50,50,52,53,54,55,54,,,,,,,,,,,,,,
117243,0,1.9541,,,,,,,,,,,,110.79,27.33,76.59,119.88,,,,,,,,,,,,,,,,,,,,,,,,,,,,,,,,,,,,,,,,,,,,,,,,,,,,,,,,,,,,,,,,,,
117253,0,1.9542,,0.04,0.11,-0.51,-0,1,-1,0.52,0.52,100,2,110.79,27.33,76.59,119.88,12.65,3334,1,32,55.2,0.96,0.82,12.37,0.0,123.0,54,55,0,0,52,0,0,0,0,1,54,56,54,53,53,52,48,46,45,52,54,54,54,55,55,56,39,43,42,42,40,40,33,32,46,50,50,52,53,54,55,54,0.0,0.0,0.0,0.0,0,0,0.0,0,0.0,-1,0.0,0,0.0,1.9542
117263,0,1.9544,,,,,,,,,,,,110.79,27.54,76.68,119.22,,,,,,,,,,,,,,,,,,,,,,,,,,,,,,,,,,,,,,,,,,,,,,,,,,,,,,,,,,,,,,,,,,
117273,0,1.9546,,,,,,,,,,,,110.79,27.54,76.68,119.22,,,,,,,,,,,,,,,,,,,,,54,56,54,54,53,52,48,46,45,52,54,54,54,55,55,56,39,42,42,42,40,40,33,32,46,50,50,52,53,54,55,54,,,,,,,,,,,,,,
117283,0,1.9547,,,,,,,,,,,,110.88,27.33,76.35,120.54,,,,,,,,,,,,,,,,,,,,,,,,,,,,,,,,,,,,,,,,,,,,,,,,,,,,,,,,,,,,,,,,,,
117293,0,1.9549,,0.1,0.07,-0.14,-0,2,-0,0.19,0.52,36,,110.88,27.33,76.35,120.54,,,,,,,,,,,,,,,,,,,,,54,56,54,54,53,52,48,46,45,52,54,54,54,55,55,56,39,42,42,42,40,40,33,32,46,50,50,52,52,54,55,54,,,,,,,,,,,,,,
117303,0,1.955,,,,,,,,,,,,110.88,27.45,76.26,120.75,,,,,,,,,,,,,,,,,,,,,,,,,,,,,,,,,,,,,,,,,,,,,,,,,,,,,,,,,,,,,,,,,,
117313,0,1.9552,,,,,,,,,,,,110.79,27.21,76.47,116.25,,,,,,,,,,,,,,,,,,,,,54,56,54,54,53,52,48,46,45,51,53,54,54,55,54,56,39,42,42,42,40,40,33,32,46,50,50,52,52,54,55,54,,,,,,,,,,,,,,
117323,0,1.9554,,,,,,,,,,,,110.88,27.45,76.26,123.72,,,,,,,,,,,,,,,,,,,,,,,,,,,,,,,,,,,,,,,,,,,,,,,,,,,,,,,,,,,,,,,,,,
117333,0,1.9556,,0.11,0.09,-0.3,0,1,-1,0.33,0.52,64,,110.67,27.33,76.59,120.09,,,,,,,,,,,,,,,,,,,,,54,56,54,53,53,52,48,46,45,51,53,54,54,55,54,56,39,43,42,42,40,40,33,32,46,50,50,52,52,54,55,54,,,,,,,,,,,,,,
117343,0,1.9557,,,,,,,,,,,,110.88,27.12,76.14,125.91,,,,,,,,,,,,,,,,,,,,,,,,,,,,,,,,,,,,,,,,,,,,,,,,,,,,,,,,,,,,,,,,,,
117353,0,1.9559,,,,,,,,,,,2,110.67,27.33,76.59,119.67,12.67,3264,1,32,54.2,0.96,0.8,12.37,0.0,120.0,54,56,0,0,52,0,0,0,0,1,54,56,54,53,53,52,48,46,45,51,53,54,54,55,54,56,39,43,42,42,40,40,33,32,46,50,50,52,53,54,55,54,0.0,0.0,0.0,0.0,0,0,0.0,0,0.0,-1,0.0,0,0.0,1.9559
117363,0,1.956,,,,,,,,,,,,110.79,27.12,76.26,124.5,,,,,,,,,,,,,,,,,,,,,,,,,,,,,,,,,,,,,,,,,,,,,,,,,,,,,,,,,,,,,,,,,,
117373,0,1.9562,,-0.03,0.09,0.04,0,2,0,0.1,0.52,19,,110.67,27.33,76.47,121.2,,,,,,,,,,,,,,,,,,,,,54,56,54,53,53,52,48,46,45,51,53,54,54,55,54,56,39,43,42,42,40,40,33,32,46,50,50,52,53,54,55,54,,,,,,,,,,,,,,
117383,0,1.9564,,,,,,,,,,,,110.79,27.0,76.26,117.69,,,,,,,,,,,,,,,,,,,,,,,,,,,,,,,,,,,,,,,,,,,,,,,,,,,,,,,,,,,,,,,,,,
117393,0,1.9566,,,,,,,,,,,,110.88,27.33,76.35,123.84,,,,,,,,,,,,,,,,,,,,,54,56,54,54,53,52,48,46,45,52,53,54,54,55,54,56,39,43,42,42,40,40,33,32,46,50,50,52,53,54,55,54,,,,,,,,,,,,,,
117403,0,1.9567,,,,,,,,,,,,110.88,27.0,76.47,117.57,,,,,,,,,,,,,,,,,,,,,,,,,,,,,,,,,,,,,,,,,,,,,,,,,,,,,,,,,,,,,,,,,,
117413,0,1.9569,,0.05,0.07,-0.25,0,0,-1,0.26,0.52,51,,110.88,27.33,76.26,122.07,,,,,,,,,,,,,,,,,,,,,54,56,54,54,53,52,48,46,45,52,53,54,54,55,54,56,39,43,42,42,40,40,33,32,46,50,50,52,53,54,55,54,,,,,,,,,,,,,,
117423,0,1.9571,,,,,,,,,,,,110.88,27.21,76.59,118.11,,,,,,,,,,,,,,,,,,,,,,,,,,,,,,,,,,,,,,,,,,,,,,,,,,,,,,,,,,,,,,,,,,
117433,0,1.9572,,,,,,,,,,,,110.88,27.21,76.14,121.74,,,,,,,,,,,,,,,,,,,,,54,56,54,54,53,52,48,46,45,52,53,54,54,55,54,56,39,43,42,42,40,40,33,32,46,50,50,52,53,54,55,54,,,,,,,,,,,,,,
117443,0,1.9574,,,,,,,,,,,,110.88,27.21,76.59,119.55,,,,,,,,,,,,,,,,,,,,,,,,,,,,,,,,,,,,,,,,,,,,,,,,,,,,,,,,,,,,,,,,,,
117453,0,1.9576,,-0.01,0.12,-0.3,0,-1,-1,0.32,0.52,61,2,110.79,27.12,76.14,127.23,12.64,3269,1,32,57.4,0.96,0.81,12.36,0.0,126.0,54,55,0,0,52,0,0,0,0,1,54,56,54,54,53,52,48,46,46,51,54,54,54,55,55,56,39,43,42,42,40,40,33,32,46,50,50,52,53,54,55,54,0.0,0.0,0.0,0.0,0,0,0.0,0,0.0,-1,0.0,0,0.0,1.9576
117463,0,1.9577,,,,,,,,,,,,110.67,27.21,76.59,123.6,,,,,,,,,,,,,,,,,,,,,,,,,,,,,,,,,,,,,,,,,,,,,,,,,,,,,,,,,,,,,,,,,,
117473,0,1.9579,,,,,,,,,,,,111.0,27.12,76.14,125.04,,,,,,,,,,,,,,,,,,,,,54,56,54,54,53,52,48,46,46,51,54,54,54,55,55,56,39,43,42,42,40,40,33,32,46,50,50,52,53,54,55,54,,,,,,,,,,,,,,
117483,0,1.958,,,,,,,,,,,,110.67,27.33,76.59,118.35,,,,,,,,,,,,,,,,,,,,,,,,,,,,,,,,,,,,,,,,,,,,,,,,,,,,,,,,,,,,,,,,,,
117493,0,1.9582,,-0.0,0.07,-0.04,0,-0,-0,0.08,0.52,16,,111.0,26.88,76.14,123.06,,,,,,,,,,,,,,,,,,,,,54,56,54,54,53,52,48,46,46,51,54,54,54,55,55,56,39,43,42,42,40,40,33,32,46,50,50,52,53,54,55,53,,,,,,,,,,,,,,
117503,0,1.9584,,,,,,,,,,,,110.67,27.21,76.59,121.29,,,,,,,,,,,,,,,,,,,,,,,,,,,,,,,,,,,,,,,,,,,,,,,,,,,,,,,,,,,,,,,,,,
117513,0,1.9586,,,,,,,,,,,,110.88,27.0,76.14,122.28,,,,,,,,,,,,,,,,,,,,,54,56,54,54,53,52,48,46,45,51,54,54,54,55,55,56,39,43,42,42,40,40,33,32,46,50,50,52,53,54,55,53,,,,,,,,,,,,,,
117523,0,1.9587,,,,,,,,,,,,110.88,27.12,76.47,119.76,,,,,,,,,,,,,,,,,,,,,,,,,,,,,,,,,,,,,,,,,,,,,,,,,,,,,,,,,,,,,,,,,,
117533,0,1.9589,,0.13,0.01,-0.28,0,-0,-0,0.31,0.52,59,,111.0,26.88,76.26,122.52,,,,,,,,,,,,,,,,,,,,,54,56,55,54,53,52,48,46,45,51,54,54,54,55,55,56,40,43,42,42,40,40,34,33,46,50,50,52,53,54,55,53,,,,,,,,,,,,,,
117543,0,1.959,,,,,,,,,,,,110.79,27.21,76.59,118.23,,,,,,,,,,,,,,,,,,,,,,,,,,,,,,,,,,,,,,,,,,,,,,,,,,,,,,,,,,,,,,,,,,
117553,0,1.9592,,,,,,,,,,,2,110.88,27.12,76.35,118.23,12.65,3306,1,32,57.8,0.96,0.84,12.37,0.0,121.0,54,56,0,0,52,0,0,0,0,1,54,56,55,54,53,52,48,46,45,51,54,54,54,55,55,56,40,43,42,42,40,40,34,33,46,50,50,52,53,54,55,53,0.0,0.0,0.0,0.0,0,0,0.0,0,0.0,-1,0.0,0,0.0,1.9592
117563,0,1.9594,,,,,,,,,,,,110.88,27.0,76.26,123.84,,,,,,,,,,,,,,,,,,,,,,,,,,,,,,,,,,,,,,,,,,,,,,,,,,,,,,,,,,,,,,,,,,
117573,0,1.9596,,0.0,0.08,-0.33,0,-2,-1,0.34,0.52,65,,110.88,27.0,76.35,117.78,,,,,,,,,,,,,,,,,,,,,54,56,55,54,53,52,48,46,45,51,53,54,54,55,54,56,40,43,42,42,40,40,34,33,46,50,50,52,53,54,55,53,,,,,,,,,,,,,,
117583,0,1.9597,,,,,,,,,,,,110.88,27.12,76.35,121.74,,,,,,,,,,,,,,,,,,,,,,,,,,,,,,,,,,,,,,,,,,,,,,,,,,,,,,,,,,,,,,,,,,
117593,0,1.9599,,,,,,,,,,,,110.88,27.21,76.59,116.13,,,,,,,,,,,,,,,,,,,,,54,56,55,54,53,52,48,46,45,51,53,54,54,55,54,56,39,42,42,42,40,40,33,32,46,50,50,52,53,54,55,53,,,,,,,,,,,,,,
117603,0,1.96,,,,,,,,,,,,110.88,27.0,76.26,124.59,,,,,,,,,,,,,,,,,,,,,,,,,,,,,,,,,,,,,,,,,,,,,,,,,,,,,,,,,,,,,,,,,,
117613,0,1.9602,,-0.04,0.04,-0.26,-0,-1,-1,0.27,0.52,51,,110.88,27.12,76.59,121.53,,,,,,,,,,,,,,,,,,,,,54,56,55,54,53,52,48,46,45,51,53,54,54,55,54,56,39,42,42,42,40,40,33,32,46,50,50,52,53,54,55,54,,,,,,,,,,,,,,
117623,0,1.9604,,,,,,,,,,,,111.0,27.0,76.26,124.17,,,,,,,,,,,,,,,,,,,,,,,,,,,,,,,,,,,,,,,,,,,,,,,,,,,,,,,,,,,,,,,,,,
117633,0,1.9606,,,,,,,,,,,,110.79,27.45,76.68,117.9,,,,,,,,,,,,,,,,,,,,,54,56,55,54,53,52,48,46,45,51,54,54,54,55,54,56,39,42,42,42,40,40,33,32,46,50,50,52,53,54,55,54,,,,,,,,,,,,,,
117643,0,1.9607,,,,,,,,,,,,110.55,27.33,76.59,122.07,,,,,,,,,,,,,,,,,,,,,,,,,,,,,,,,,,,,,,,,,,,,,,,,,,,,,,,,,,,,,,,,,,
117653,0,1.9609,,0.04,-0.0,-0.28,0,0,-0,0.29,0.52,55,2,110.55,27.33,76.59,122.07,12.66,3138,1,32,56.5,0.96,0.86,12.36,0.0,121.0,54,55,0,0,52,0,0,0,0,1,54,56,55,54,53,52,48,46,45,51,54,54,54,55,54,56,39,43,42,42,40,40,33,32,46,50,50,52,53,54,55,54,0.0,0.0,0.0,0.0,0,0,0.0,0,0.0,-1,0.0,0,0.0,1.9609
117663,0,1.961,,,,,,,,,,,,110.67,27.12,76.59,115.47,,,,,,,,,,,,,,,,,,,,,,,,,,,,,,,,,,,,,,,,,,,,,,,,,,,,,,,,,,,,,,,,,,
117673,0,1.9612,,,,,,,,,,,,110.67,27.12,76.59,115.47,,,,,,,,,,,,,,,,,,,,,54,56,55,54,53,52,48,46,45,51,54,54,54,55,54,56,39,43,42,42,40,40,33,32,46,50,50,52,53,54,55,53,,,,,,,,,,,,,,
117683,0,1.9614,,,,,,,,,,,,110.55,27.12,76.47,119.88,,,,,,,,,,,,,,,,,,,,,,,,,,,,,,,,,,,,,,,,,,,,,,,,,,,,,,,,,,,,,,,,,,
117693,0,1.9616,,-0.04,0.07,0.03,0,-1,-1,0.09,0.52,17,,110.55,27.12,76.47,119.88,,,,,,,,,,,,,,,,,,,,,54,56,55,54,53,52,48,46,45,51,54,54,54,55,54,56,39,43,42,42,40,40,33,32,46,50,50,52,53,54,55,53,,,,,,,,,,,,,,
117703,0,1.9617,,,,,,,,,,,,110.79,27.12,76.35,120.09,,,,,,,,,,,,,,,,,,,,,,,,,,,,,,,,,,,,,,,,,,,,,,,,,,,,,,,,,,,,,,,,,,
117713,0,1.9619,,,,,,,,,,,,110.79,27.12,76.35,120.09,,,,,,,,,,,,,,,,,,,,,54,56,54,54,53,52,48,46,45,51,54,54,54,55,54,56,39,43,42,42,40,40,33,32,46,50,50,52,53,54,55,53,,,,,,,,,,,,,,
117723,0,1.962,,,,,,,,,,,,110.88,27.12,76.26,122.07,,,,,,,,,,,,,,,,,,,,,,,,,,,,,,,,,,,,,,,,,,,,,,,,,,,,,,,,,,,,,,,,,,
117733,0,1.9622,,0.13,0.03,-0.17,0,-0,-1,0.22,0.52,42,,110.88,27.12,76.26,122.07,,,,,,,,,,,,,,,,,,,,,54,56,54,54,53,52,48,46,45,51,54,54,54,55,54,56,39,43,42,42,40,40,33,32,46,50,50,52,53,54,55,53,,,,,,,,,,,,,,
117743,0,1.9624,,,,,,,,,,,,110.88,27.12,76.26,124.05,,,,,,,,,,,,,,,,,,,,,,,,,,,,,,,,,,,,,,,,,,,,,,,,,,,,,,,,,,,,,,,,,,
117753,0,1.9625,,,,,,,,,,,2,110.79,27.12,76.59,124.05,12.67,3283,1,32,54.7,0.96,0.85,12.37,0.0,116.0,54,56,0,0,52,0,0,0,0,1,54,56,54,54,53,52,48,46,45,51,54,54,54,55,54,56,39,43,42,42,40,40,33,32,46,50,50,52,53,54,55,53,0.0,0.0,0.0,0.0,0,0,0.0,0,0.0,-1,0.0,0,0.0,1.9625
117763,0,1.9627,,,,,,,,,,,,111.0,27.12,76.14,125.82,,,,,,,,,,,,,,,,,,,,,,,,,,,,,,,,,,,,,,,,,,,,,,,,,,,,,,,,,,,,,,,,,,
117773,0,1.9629,,-0.01,0.05,-0.11,0,0,-0,0.12,0.52,23,,110.67,27.21,76.68,118.56,,,,,,,,,,,,,,,,,,,,,54,56,55,54,53,52,48,46,45,51,54,54,54,54,54,56,39,43,42,42,40,40,33,32,46,50,50,52,53,54,55,53,,,,,,,,,,,,,,
117783,0,1.963,,,,,,,,,,,,111.12,26.55,76.26,123.06,,,,,,,,,,,,,,,,,,,,,,,,,,,,,,,,,,,,,,,,,,,,,,,,,,,,,,,,,,,,,,,,,,
117793,0,1.9632,,,,,,,,,,,,110.67,27.0,76.59,116.13,,,,,,,,,,,,,,,,,,,,,54,56,55,54,53,52,48,46,45,51,54,54,54,54,54,56,39,43,42,42,40,40,33,32,46,50,50,52,53,54,55,53,,,,,,,,,,,,,,
117803,0,1.9634,,,,,,,,,,,,111.0,27.0,76.26,118.56,,,,,,,,,,,,,,,,,,,,,,,,,,,,,,,,,,,,,,,,,,,,,,,,,,,,,,,,,,,,,,,,,,
117813,0,1.9636,,0.0,0.05,0.15,0,2,1,0.16,0.52,30,,110.79,26.88,76.68,118.35,,,,,,,,,,,,,,,,,,,,,54,56,55,54,53,52,48,46,45,51,54,54,54,54,54,56,39,43,42,42,40,40,33,32,46,50,50,52,53,54,55,54,,,,,,,,,,,,,,
117823,0,1.9637,,,,,,,,,,,,110.88,26.79,76.47,117.36,,,,,,,,,,,,,,,,,,,,,,,,,,,,,,,,,,,,,,,,,,,,,,,,,,,,,,,,,,,,,,,,,,
117833,0,1.9639,,,,,,,,,,,,110.79,26.88,76.35,120.54,,,,,,,,,,,,,,,,,,,,,54,56,55,54,53,52,48,46,45,51,54,54,54,55,54,56,39,43,42,42,40,40,33,32,46,50,50,52,53,54,55,54,,,,,,,,,,,,,,
117843,0,1.9641,,,,,,,,,,,,110.88,26.88,76.47,118.56,,,,,,,,,,,,,,,,,,,,,,,,,,,,,,,,,,,,,,,,,,,,,,,,,,,,,,,,,,,,,,,,,,
117853,0,1.9642,,0.05,0.04,0.01,0,1,1,0.06,0.52,12,2,110.88,26.79,76.35,123.06,12.66,3174,1,32,61.5,0.96,0.86,12.36,0.0,123.0,54,55,0,0,52,0,0,0,0,1,54,56,55,54,53,52,48,46,45,51,54,54,54,55,54,56,39,43,42,42,40,40,33,32,46,50,50,52,53,54,55,54,0.0,0.0,0.0,0.0,0,0,0.0,0,0.0,-1,0.0,0,0.0,1.9642
117863,0,1.9644,,,,,,,,,,,,110.88,27.0,76.59,117.78,,,,,,,,,,,,,,,,,,,,,,,,,,,,,,,,,,,,,,,,,,,,,,,,,,,,,,,,,,,,,,,,,,
117873,0,1.9646,,,,,,,,,,,,111.12,26.88,76.26,124.59,,,,,,,,,,,,,,,,,,,,,54,56,55,54,53,52,48,46,45,51,54,54,54,55,54,56,39,43,42,42,40,40,33,32,46,50,50,52,52,54,55,53,,,,,,,,,,,,,,
117883,0,1.9647,,,,,,,,,,,,110.88,27.0,76.59,119.34,,,,,,,,,,,,,,,,,,,,,,,,,,,,,,,,,,,,,,,,,,,,,,,,,,,,,,,,,,,,,,,,,,
117893,0,1.9649,,-0.03,0.14,-0.01,-0,-0,-0,0.15,0.52,28,,110.88,27.0,76.14,125.37,,,,,,,,,,,,,,,,,,,,,54,56,55,54,53,52,48,46,45,51,54,54,54,55,54,56,39,43,42,42,40,40,33,32,46,50,50,52,52,54,55,53,,,,,,,,,,,,,,
117903,0,1.965,,,,,,,,,,,,110.67,26.79,76.47,120.09,,,,,,,,,,,,,,,,,,,,,,,,,,,,,,,,,,,,,,,,,,,,,,,,,,,,,,,,,,,,,,,,,,
117913,0,1.9652,,,,,,,,,,,,111.0,26.88,76.26,123.93,,,,,,,,,,,,,,,,,,,,,54,56,55,54,53,52,48,46,45,51,54,54,54,55,54,56,40,43,42,42,40,40,33,33,46,50,50,52,52,54,55,53,,,,,,,,,,,,,,
117923,0,1.9654,,,,,,,,,,,,110.79,26.79,76.47,120.42,,,,,,,,,,,,,,,,,,,,,,,,,,,,,,,,,,,,,,,,,,,,,,,,,,,,,,,,,,,,,,,,,,
117933,0,1.9655,,-0.05,0.06,0.1,-0,-1,0,0.13,0.52,25,,111.0,26.79,76.14,124.83,,,,,,,,,,,,,,,,,,,,,54,56,55,54,53,52,48,46,45,51,54,54,54,55,54,56,40,43,42,42,40,40,33,33,46,50,50,52,53,54,55,54,,,,,,,,,,,,,,
117943,0,1.9657,,,,,,,,,,,,110.67,26.79,76.47,118.56,,,,,,,,,,,,,,,,,,,,,,,,,,,,,,,,,,,,,,,,,,,,,,,,,,,,,,,,,,,,,,,,,,
117953,0,1.9659,,,,,,,,,,,2,111.0,26.79,76.02,122.85,12.65,3394,1,32,58.5,0.96,0.86,12.37,0.0,118.0,54,55,0,0,52,0,0,0,0,1,54,56,55,54,53,52,48,46,45,51,54,54,54,55,54,56,40,43,42,42,40,40,33,33,46,50,50,52,53,54,55,54,0.0,0.0,0.0,0.0,0,0,0.0,0,0.0,-1,0.0,0,0.0,1.9659
117963,0,1.966,,,,,,,,,,,,110.67,26.67,76.35,121.2,,,,,,,,,,,,,,,,,,,,,,,,,,,,,,,,,,,,,,,,,,,,,,,,,,,,,,,,,,,,,,,,,,
117973,0,1.9662,,0.03,0.0,0.15,-0,0,0,0.15,0.52,29,,111.0,26.67,76.02,125.04,,,,,,,,,,,,,,,,,,,,,54,56,55,54,53,52,48,46,45,51,54,54,54,55,54,56,39,42,42,42,40,40,33,32,46,50,50,52,53,54,55,54,,,,,,,,,,,,,,
117983,0,1.9664,,,,,,,,,,,,110.79,26.88,76.47,119.67,,,,,,,,,,,,,,,,,,,,,,,,,,,,,,,,,,,,,,,,,,,,,,,,,,,,,,,,,,,,,,,,,,
117993,0,1.9666,,,,,,,,,,,,110.88,26.67,76.02,123.18,,,,,,,,,,,,,,,,,,,,,54,56,55,54,53,52,48,46,45,51,54,54,54,55,54,56,39,42,42,42,40,40,33,32,46,50,50,52,53,54,55,53,,,,,,,,,,,,,,
118003,0,1.9667,,,,,,,,,,,,110.79,26.79,76.47,118.56,,,,,,,,,,,,,,,,,,,,,,,,,,,,,,,,,,,,,,,,,,,,,,,,,,,,,,,,,,,,,,,,,,
118013,0,1.9669,,0.15,0.07,-0.03,0,2,1,0.17,0.52,33,,110.88,26.67,76.02,123.72,,,,,,,,,,,,,,,,,,,,,54,56,55,54,53,52,48,46,45,51,54,54,54,55,55,56,39,42,42,42,40,40,33,32,46,50,50,52,53,54,55,53,,,,,,,,,,,,,,
118023,0,1.9671,,,,,,,,,,,,110.79,27.0,76.47,116.7,,,,,,,,,,,,,,,,,,,,,,,,,,,,,,,,,,,,,,,,,,,,,,,,,,,,,,,,,,,,,,,,,,
118033,0,1.9672,,,,,,,,,,,,110.88,26.79,76.14,120.21,,,,,,,,,,,,,,,,,,,,,54,56,54,53,53,52,48,46,45,51,54,54,54,55,55,56,39,42,42,42,40,40,33,32,46,50,50,52,53,54,55,53,,,,,,,,,,,,,,
118043,0,1.9674,,,,,,,,,,,,110.88,25.47,76.26,116.04,,,,,,,,,,,,,,,,,,,,,,,,,,,,,,,,,,,,,,,,,,,,,,,,,,,,,,,,,,,,,,,,,,
118053,0,1.9676,12.85,0.01,0.14,0.1,0,0,0,0.17,0.52,33,2,110.88,25.47,76.26,121.2,12.66,3238,1,32,56.3,0.96,0.86,12.37,0.0,122.0,54,56,0,0,52,0,0,0,0,1,54,56,54,53,53,52,48,46,45,51,54,54,54,55,55,56,39,42,42,42,40,40,33,32,46,50,50,52,53,54,55,54,0.0,0.0,0.0,0.0,0,0,0.0,0,0.0,-1,0.0,0,0.0,1.9676
118063,0,1.9677,,,,,,,,,,,,110.88,26.79,76.47,122.4,,,,,,,,,,,,,,,,,,,,,,,,,,,,,,,,,,,,,,,,,,,,,,,,,,,,,,,,,,,,,,,,,,
118073,0,1.9679,,,,,,,,,,,,110.88,26.79,76.47,116.37,,,,,,,,,,,,,,,,,,,,,54,56,54,53,53,52,48,46,45,51,54,54,54,55,55,56,39,42,42,42,40,40,33,32,46,50,50,52,53,54,55,54,,,,,,,,,,,,,,
118083,0,1.968,,,,,,,,,,,,110.79,26.88,76.47,119.67,,,,,,,,,,,,,,,,,,,,,,,,,,,,,,,,,,,,,,,,,,,,,,,,,,,,,,,,,,,,,,,,,,
118093,0,1.9682,,-0.02,0.04,0.22,-0,1,1,0.22,0.52,42,,110.79,26.88,76.47,119.67,,,,,,,,,,,,,,,,,,,,,54,56,54,53,53,52,48,46,45,52,54,54,54,55,54,56,39,43,42,42,40,40,33,32,46,50,50,52,53,54,55,54,,,,,,,,,,,,,,
118103,0,1.9684,,,,,,,,,,,,110.79,27.0,76.59,115.92,,,,,,,,,,,,,,,,,,,,,,,,,,,,,,,,,,,,,,,,,,,,,,,,,,,,,,,,,,,,,,,,,,
118113,0,1.9686,,,,,,,,,,,,110.79,27.0,76.59,115.92,,,,,,,,,,,,,,,,,,,,,54,56,54,53,53,52,48,46,45,52,54,54,54,55,54,56,39,43,42,42,40,40,33,32,46,50,50,52,52,54,55,54,,,,,,,,,,,,,,
118123,0,1.9687,,,,,,,,,,,,110.79,27.0,76.47,116.13,,,,,,,,,,,,,,,,,,,,,,,,,,,,,,,,,,,,,,,,,,,,,,,,,,,,,,,,,,,,,,,,,,
118133,0,1.9689,,-0.09,0.06,0.11,0,-3,-1,0.16,0.52,30,,110.79,27.0,76.47,116.13,,,,,,,,,,,,,,,,,,,,,54,56,54,53,53,52,48,46,45,52,54,54,54,55,54,56,39,43,42,42,40,40,33,32,46,50,50,52,52,54,55,54,,,,,,,,,,,,,,
118143,0,1.969,,,,,,,,,,,,110.88,27.12,76.35,120.21,,,,,,,,,,,,,,,,,,,,,,,,,,,,,,,,,,,,,,,,,,,,,,,,,,,,,,,,,,,,,,,,,,
118153,0,1.9692,,,,,,,,,,,2,110.88,27.12,76.35,120.21,12.67,3496,1,32,54.9,0.96,0.85,12.37,0.0,125.0,54,55,0,0,53,0,0,0,0,1,54,56,54,53,53,52,48,46,45,51,54,54,54,55,55,56,39,43,42,42,40,40,33,32,46,50,50,52,52,54,55,54,0.0,0.0,0.0,0.0,0,0,0.0,0,0.0,-1,0.0,0,0.0,1.9692
118163,0,1.9694,,,,,,,,,,,,110.88,27.12,76.26,124.71,,,,,,,,,,,,,,,,,,,,,,,,,,,,,,,,,,,,,,,,,,,,,,,,,,,,,,,,,,,,,,,,,,
118173,0,1.9696,,0.02,0.03,-0.05,-0,-3,0,0.06,0.52,12,,110.88,26.88,76.59,121.86,,,,,,,,,,,,,,,,,,,,,54,56,54,53,53,52,48,46,45,51,54,54,54,55,55,56,39,43,42,42,40,40,33,32,46,50,50,52,52,54,55,54,,,,,,,,,,,,,,
118183,0,1.9697,,,,,,,,,,,,110.88,26.88,76.59,121.86,,,,,,,,,,,,,,,,,,,,,,,,,,,,,,,,,,,,,,,,,,,,,,,,,,,,,,,,,,,,,,,,,,
118193,0,1.9699,,,,,,,,,,,,110.79,26.88,76.47,116.91,,,,,,,,,,,,,,,,,,,,,54,56,54,53,53,52,48,46,45,51,54,54,54,55,55,56,39,43,42,42,40,40,33,32,46,50,50,52,53,54,55,54,,,,,,,,,,,,,,
118203,0,1.97,,,,,,,,,,,,111.0,26.55,76.14,120.21,,,,,,,,,,,,,,,,,,,,,,,,,,,,,,,,,,,,,,,,,,,,,,,,,,,,,,,,,,,,,,,,,,
118213,0,1.9702,,-0.17,0.01,0.01,-0,-4,-0,0.17,0.52,33,,111.0,27.12,76.68,120.54,,,,,,,,,,,,,,,,,,,,,54,56,54,53,53,52,48,46,45,51,54,54,54,55,54,56,39,43,42,42,40,40,33,32,46,50,50,52,53,54,55,54,,,,,,,,,,,,,,
118223,0,1.9704,,,,,,,,,,,,111.0,27.12,76.35,119.67,,,,,,,,,,,,,,,,,,,,,,,,,,,,,,,,,,,,,,,,,,,,,,,,,,,,,,,,,,,,,,,,,,
118233,0,1.9706,,,,,,,,,,,,110.88,26.67,76.26,127.02,,,,,,,,,,,,,,,,,,,,,54,56,54,53,53,52,48,46,45,51,54,54,54,55,54,56,39,43,42,42,40,40,33,32,46,50,50,52,53,54,55,54,,,,,,,,,,,,,,
118243,0,1.9707,,,,,,,,,,,,110.79,27.0,76.47,116.7,,,,,,,,,,,,,,,,,,,,,,,,,,,,,,,,,,,,,,,,,,,,,,,,,,,,,,,,,,,,,,,,,,
118253,0,1.9709,,-0.04,0.06,-0.06,0,-3,-0,0.09,0.52,18,2,111.0,27.0,76.26,126.69,12.66,3658,1,32,54.2,0.96,0.83,12.37,0.0,139.0,54,55,0,0,53,0,0,0,0,1,54,56,54,53,53,52,48,46,45,51,54,54,54,55,54,56,39,43,42,42,40,40,33,32,46,50,50,52,53,54,55,54,0.0,0.0,0.0,0.0,0,0,0.0,0,0.0,-1,0.0,0,0.0,1.9709
118263,0,1.971,,,,,,,,,,,,110.79,27.12,76.47,118.77,,,,,,,,,,,,,,,,,,,,,,,,,,,,,,,,,,,,,,,,,,,,,,,,,,,,,,,,,,,,,,,,,,
118273,0,1.9712,,,,,,,,,,,,111.12,27.0,76.35,124.05,,,,,,,,,,,,,,,,,,,,,54,56,54,53,53,52,48,46,45,52,54,54,54,55,54,56,39,43,42,42,40,40,33,32,46,50,50,52,53,54,55,54,,,,,,,,,,,,,,
118283,0,1.9714,,,,,,,,,,,,110.88,26.34,76.26,121.08,,,,,,,,,,,,,,,,,,,,,,,,,,,,,,,,,,,,,,,,,,,,,,,,,,,,,,,,,,,,,,,,,,
118293,0,1.9716,,-0.09,0.05,0.07,-0,-3,-0,0.13,0.52,24,,110.88,27.12,76.59,120.3,,,,,,,,,,,,,,,,,,,,,54,56,54,53,53,52,48,46,45,52,54,54,54,55,54,56,39,43,42,42,40,40,33,32,46,50,50,52,53,54,55,54,,,,,,,,,,,,,,
118303,0,1.9717,,,,,,,,,,,,111.0,26.67,76.26,124.05,,,,,,,,,,,,,,,,,,,,,,,,,,,,,,,,,,,,,,,,,,,,,,,,,,,,,,,,,,,,,,,,,,
118313,0,1.9719,,,,,,,,,,,,110.88,27.12,76.47,122.28,,,,,,,,,,,,,,,,,,,,,54,56,54,53,53,52,48,46,45,52,54,54,54,55,54,56,39,43,42,42,40,40,33,32,46,50,50,52,53,54,55,54,,,,,,,,,,,,,,
118323,0,1.972,,,,,,,,,,,,111.0,26.88,76.35,122.85,,,,,,,,,,,,,,,,,,,,,,,,,,,,,,,,,,,,,,,,,,,,,,,,,,,,,,,,,,,,,,,,,,
118333,0,1.9722,,-0.07,0.04,-0.14,-0,-1,0,0.16,0.52,30,,110.88,27.0,76.35,125.04,,,,,,,,,,,,,,,,,,,,,54,56,54,53,53,52,48,46,45,51,54,54,54,55,54,56,39,43,42,42,40,40,33,32,46,50,50,52,53,54,55,54,,,,,,,,,,,,,,
118343,0,1.9724,,,,,,,,,,,,110.79,27.0,76.47,117.78,,,,,,,,,,,,,,,,,,,,,,,,,,,,,,,,,,,,,,,,,,,,,,,,,,,,,,,,,,,,,,,,,,
118353,0,1.9725,,,,,,,,,,,2,111.0,27.0,76.26,124.38,12.66,3599,1,32,52.8,0.96,0.81,12.38,0.0,135.0,54,55,0,0,53,0,0,0,0,1,54,56,54,53,53,52,48,46,45,51,54,54,54,55,54,56,39,43,42,42,40,40,33,32,46,50,50,52,53,54,55,54,0.0,0.0,0.0,0.0,0,0,0.0,0,0.0,-1,0.0,0,0.0,1.9725
118363,0,1.9727,,,,,,,,,,,,110.67,26.79,76.35,120.09,,,,,,,,,,,,,,,,,,,,,,,,,,,,,,,,,,,,,,,,,,,,,,,,,,,,,,,,,,,,,,,,,,
118373,0,1.9729,,0.05,0.01,-0.03,-0,-1,0,0.06,0.52,11,,111.0,27.12,76.26,122.73,,,,,,,,,,,,,,,,,,,,,54,56,54,53,53,52,48,46,45,51,54,54,54,55,54,56,39,43,42,42,40,40,33,32,46,50,50,52,53,54,55,54,,,,,,,,,,,,,,
118383,0,1.973,,,,,,,,,,,,110.88,27.12,76.47,119.97,,,,,,,,,,,,,,,,,,,,,,,,,,,,,,,,,,,,,,,,,,,,,,,,,,,,,,,,,,,,,,,,,,
118393,0,1.9732,,,,,,,,,,,,110.88,26.88,76.26,121.2,,,,,,,,,,,,,,,,,,,,,54,56,54,53,53,52,48,46,45,51,54,54,54,55,54,56,39,43,42,42,40,40,33,32,46,50,50,52,53,54,55,54,,,,,,,,,,,,,,
118403,0,1.9734,,,,,,,,,,,,110.79,27.0,76.26,126.24,,,,,,,,,,,,,,,,,,,,,,,,,,,,,,,,,,,,,,,,,,,,,,,,,,,,,,,,,,,,,,,,,,
118413,0,1.9736,,-0.13,-0.0,0.14,-0,-1,0,0.19,0.52,36,,110.79,27.12,76.47,117.36,,,,,,,,,,,,,,,,,,,,,54,56,55,54,53,52,48,46,46,51,54,54,54,55,55,56,39,43,42,42,40,40,33,32,46,50,50,52,53,54,55,54,,,,,,,,,,,,,,
118423,0,1.9737,,,,,,,,,,,,111.0,27.12,76.26,127.02,,,,,,,,,,,,,,,,,,,,,,,,,,,,,,,,,,,,,,,,,,,,,,,,,,,,,,,,,,,,,,,,,,
118433,0,1.9739,,,,,,,,,,,,110.67,26.88,76.35,122.07,,,,,,,,,,,,,,,,,,,,,54,56,55,54,53,52,48,46,46,51,54,54,54,55,55,56,39,43,42,42,40,40,33,32,46,50,50,52,53,54,55,54,,,,,,,,,,,,,,
118443,0,1.974,,,,,,,,,,,,110.67,27.12,76.47,121.95,,,,,,,,,,,,,,,,,,,,,,,,,,,,,,,,,,,,,,,,,,,,,,,,,,,,,,,,,,,,,,,,,,
118453,0,1.9742,,-0.03,0.04,0.25,-0,-2,-0,0.26,0.52,50,2,110.67,27.12,76.47,117.45,12.65,3469,1,32,55.0,0.96,0.82,12.38,0.0,133.0,54,55,0,0,53,0,0,0,0,1,54,56,55,54,53,52,48,46,46,51,54,54,54,55,55,56,39,43,42,42,40,40,33,32,46,50,50,52,53,54,55,54,0.0,0.0,0.0,0.0,0,0,0.0,0,0.0,-1,0.0,0,0.0,1.9742
118463,0,1.9744,,,,,,,,,,,,110.88,26.88,76.26,121.74,,,,,,,,,,,,,,,,,,,,,,,,,,,,,,,,,,,,,,,,,,,,,,,,,,,,,,,,,,,,,,,,,,
118473,0,1.9746,,,,,,,,,,,,110.79,26.79,76.35,118.02,,,,,,,,,,,,,,,,,,,,,54,56,55,54,53,52,48,46,46,52,54,54,55,55,55,56,39,43,42,42,40,40,33,32,46,50,50,52,53,54,55,54,,,,,,,,,,,,,,
118483,0,1.9747,,,,,,,,,,,,110.79,26.79,76.35,118.02,,,,,,,,,,,,,,,,,,,,,,,,,,,,,,,,,,,,,,,,,,,,,,,,,,,,,,,,,,,,,,,,,,
118493,0,1.9749,,0.09,0.01,-0.05,-0,0,0,0.1,0.52,20,,110.79,27.0,76.14,127.8,,,,,,,,,,,,,,,,,,,,,54,56,55,54,53,52,48,46,46,52,54,54,55,55,55,56,39,43,42,42,40,40,33,32,46,50,50,52,53,54,55,54,,,,,,,,,,,,,,
118503,0,1.975,,,,,,,,,,,,111.0,26.88,76.14,121.62,,,,,,,,,,,,,,,,,,,,,,,,,,,,,,,,,,,,,,,,,,,,,,,,,,,,,,,,,,,,,,,,,,
118513,0,1.9752,,,,,,,,,,,,111.0,26.88,76.14,121.62,,,,,,,,,,,,,,,,,,,,,54,56,55,54,53,52,48,46,46,52,54,54,55,55,55,56,39,43,42,42,40,40,33,32,46,50,50,52,53,54,55,54,,,,,,,,,,,,,,
118523,0,1.9754,,,,,,,,,,,,110.88,26.67,76.14,123.51,,,,,,,,,,,,,,,,,,,,,,,,,,,,,,,,,,,,,,,,,,,,,,,,,,,,,,,,,,,,,,,,,,
118533,0,1.9755,,0.03,0.05,0.08,-0,3,1,0.1,0.52,19,,110.88,26.67,76.14,123.51,,,,,,,,,,,,,,,,,,,,,54,56,55,54,53,52,48,46,45,51,54,54,54,55,54,56,40,43,42,42,40,40,33,32,46,50,50,52,53,54,55,54,,,,,,,,,,,,,,
118543,0,1.9757,,,,,,,,,,,,110.79,26.88,76.47,120.54,,,,,,,,,,,,,,,,,,,,,,,,,,,,,,,,,,,,,,,,,,,,,,,,,,,,,,,,,,,,,,,,,,
118553,0,1.9759,,,,,,,,,,,2,110.88,27.33,76.35,121.53,12.67,3479,1,32,57.5,0.96,0.81,12.38,0.0,124.0,54,55,0,0,53,0,0,0,0,1,54,56,55,54,53,52,48,46,45,51,54,54,54,55,54,56,40,43,42,42,40,40,33,32,46,50,50,52,53,54,55,54,0.0,0.0,0.0,0.0,0,0,0.0,0,0.0,-1,0.0,0,0.0,1.9759
118563,0,1.976,,,,,,,,,,,,110.79,27.12,76.47,122.19,,,,,,,,,,,,,,,,,,,,,,,,,,,,,,,,,,,,,,,,,,,,,,,,,,,,,,,,,,,,,,,,,,
118573,0,1.9762,,0.05,0.05,-0.09,0,3,0,0.12,0.52,22,,111.0,27.0,76.14,123.51,,,,,,,,,,,,,,,,,,,,,54,56,55,54,53,52,48,46,45,51,54,54,54,55,54,56,40,43,42,42,40,40,33,32,46,50,50,52,53,54,55,54,,,,,,,,,,,,,,
118583,0,1.9764,,,,,,,,,,,,110.79,27.33,76.59,116.58,,,,,,,,,,,,,,,,,,,,,,,,,,,,,,,,,,,,,,,,,,,,,,,,,,,,,,,,,,,,,,,,,,
118593,0,1.9766,,,,,,,,,,,,111.12,27.12,76.35,119.67,,,,,,,,,,,,,,,,,,,,,54,56,55,54,53,52,48,46,45,51,54,54,54,55,54,56,40,43,42,42,40,40,33,32,46,50,50,52,53,54,55,54,,,,,,,,,,,,,,
118603,0,1.9767,,,,,,,,,,,,110.67,27.0,76.47,119.76,,,,,,,,,,,,,,,,,,,,,,,,,,,,,,,,,,,,,,,,,,,,,,,,,,,,,,,,,,,,,,,,,,
118613,0,1.9769,,0.11,0.0,0.18,0,3,1,0.21,0.52,41,,110.88,27.0,76.35,120.87,,,,,,,,,,,,,,,,,,,,,54,56,55,54,53,52,48,46,45,51,54,54,54,55,54,56,39,43,42,42,40,40,33,32,46,50,50,52,53,54,55,54,,,,,,,,,,,,,,
118623,0,1.9771,,,,,,,,,,,,110.88,27.45,76.59,119.97,,,,,,,,,,,,,,,,,,,,,,,,,,,,,,,,,,,,,,,,,,,,,,,,,,,,,,,,,,,,,,,,,,
118633,0,1.9772,,,,,,,,,,,,110.79,27.0,76.35,119.76,,,,,,,,,,,,,,,,,,,,,54,56,55,54,53,52,48,46,45,51,54,54,54,55,54,56,39,43,42,42,40,40,33,32,46,50,50,52,53,54,55,53,,,,,,,,,,,,,,
118643,0,1.9774,,,,,,,,,,,,110.79,27.0,76.14,121.2,,,,,,,,,,,,,,,,,,,,,,,,,,,,,,,,,,,,,,,,,,,,,,,,,,,,,,,,,,,,,,,,,,
118653,0,1.9776,,0.13,0.05,-0.02,0,3,0,0.14,0.52,27,2,110.79,27.0,76.47,116.46,12.65,3469,1,32,55.9,0.96,0.81,12.38,0.0,120.0,54,56,0,0,53,0,0,0,0,1,54,56,55,54,53,52,48,46,45,51,54,54,54,55,55,56,39,43,42,42,40,40,33,32,46,50,50,52,53,54,55,53,0.0,0.0,0.0,0.0,0,0,0.0,0,0.0,-1,0.0,0,0.0,1.9776
118663,0,1.9777,,,,,,,,,,,,111.0,27.0,76.26,125.82,,,,,,,,,,,,,,,,,,,,,,,,,,,,,,,,,,,,,,,,,,,,,,,,,,,,,,,,,,,,,,,,,,
118673,0,1.9779,,,,,,,,,,,,110.67,27.0,76.47,117.12,,,,,,,,,,,,,,,,,,,,,54,56,54,54,53,52,48,46,45,51,54,54,54,55,55,56,39,42,42,42,40,40,34,32,46,50,50,52,53,54,55,53,,,,,,,,,,,,,,
118683,0,1.978,,,,,,,,,,,,111.0,27.12,76.14,121.08,,,,,,,,,,,,,,,,,,,,,,,,,,,,,,,,,,,,,,,,,,,,,,,,,,,,,,,,,,,,,,,,,,
118693,0,1.9782,,0.01,0.05,0.23,0,3,1,0.24,0.52,46,,110.79,27.33,76.68,117.36,,,,,,,,,,,,,,,,,,,,,54,56,54,54,53,52,48,46,45,51,54,54,54,55,55,56,39,42,42,42,40,40,34,32,46,50,50,52,53,54,55,54,,,,,,,,,,,,,,
118703,0,1.9784,,,,,,,,,,,,111.0,27.21,76.35,118.44,,,,,,,,,,,,,,,,,,,,,,,,,,,,,,,,,,,,,,,,,,,,,,,,,,,,,,,,,,,,,,,,,,
118713,0,1.9786,,,,,,,,,,,,110.88,27.21,76.59,119.76,,,,,,,,,,,,,,,,,,,,,54,56,54,54,53,52,48,46,45,51,54,54,54,55,54,56,39,42,42,42,40,40,34,32,46,50,50,52,53,54,55,54,,,,,,,,,,,,,,
118723,0,1.9787,,,,,,,,,,,,110.88,27.0,76.35,120.21,,,,,,,,,,,,,,,,,,,,,,,,,,,,,,,,,,,,,,,,,,,,,,,,,,,,,,,,,,,,,,,,,,
118733,0,1.9789,,0.03,0.04,-0.05,0,1,-0,0.08,0.52,15,,110.88,27.21,76.47,120.09,,,,,,,,,,,,,,,,,,,,,54,56,55,54,53,52,48,46,45,51,54,54,54,55,54,56,39,43,42,42,40,40,33,32,46,50,50,52,53,54,55,54,,,,,,,,,,,,,,
118743,0,1.979,,,,,,,,,,,,110.88,27.0,76.47,117.36,,,,,,,,,,,,,,,,,,,,,,,,,,,,,,,,,,,,,,,,,,,,,,,,,,,,,,,,,,,,,,,,,,
118753,0,1.9792,,,,,,,,,,,2,111.0,27.12,76.26,123.51,12.63,3360,1,32,55.5,0.96,0.82,12.38,0.0,124.0,54,55,0,0,53,0,0,0,0,1,54,56,55,54,53,52,48,46,45,51,54,54,54,55,54,56,39,43,42,42,40,40,33,32,46,50,50,52,53,54,55,54,0.0,0.0,0.0,0.0,0,0,0.0,0,0.0,-1,0.0,0,0.0,1.9792
118763,0,1.9794,,,,,,,,,,,,110.88,27.12,76.59,116.25,,,,,,,,,,,,,,,,,,,,,,,,,,,,,,,,,,,,,,,,,,,,,,,,,,,,,,,,,,,,,,,,,,
118773,0,1.9796,,-0.05,0.02,0.15,-0,1,0,0.16,0.52,30,,111.0,27.12,76.35,124.92,,,,,,,,,,,,,,,,,,,,,54,56,55,54,53,52,48,46,45,51,54,54,54,55,54,56,39,43,42,42,40,40,33,32,46,50,50,52,53,54,55,54,,,,,,,,,,,,,,
118783,0,1.9797,,,,,,,,,,,,110.67,27.0,76.47,122.19,,,,,,,,,,,,,,,,,,,,,,,,,,,,,,,,,,,,,,,,,,,,,,,,,,,,,,,,,,,,,,,,,,
118793,0,1.9799,,,,,,,,,,,,111.0,27.0,76.14,124.83,,,,,,,,,,,,,,,,,,,,,54,56,55,54,54,52,48,46,45,51,54,54,54,55,55,56,39,43,42,42,40,40,33,32,46,50,50,52,53,54,55,54,,,,,,,,,,,,,,
118803,0,1.9801,,,,,,,,,,,,110.79,27.12,76.68,117.78,,,,,,,,,,,,,,,,,,,,,,,,,,,,,,,,,,,,,,,,,,,,,,,,,,,,,,,,,,,,,,,,,,
118813,0,1.9802,,0.12,-0.01,0.09,-0,2,1,0.15,0.52,29,,111.0,27.12,76.35,120.54,,,,,,,,,,,,,,,,,,,,,54,56,55,54,54,52,48,46,45,51,54,54,54,55,55,56,39,43,42,42,40,40,33,32,46,50,50,52,53,54,55,54,,,,,,,,,,,,,,
118823,0,1.9804,,,,,,,,,,,,110.79,27.21,76.68,118.02,,,,,,,,,,,,,,,,,,,,,,,,,,,,,,,,,,,,,,,,,,,,,,,,,,,,,,,,,,,,,,,,,,
118833,0,1.9806,,,,,,,,,,,,111.0,27.12,76.35,121.74,,,,,,,,,,,,,,,,,,,,,54,56,55,54,54,52,48,46,45,51,54,54,54,55,55,56,39,43,42,42,40,40,33,32,46,50,50,52,53,54,55,54,,,,,,,,,,,,,,
118843,0,1.9807,,,,,,,,,,,,110.79,27.0,76.35,119.55,,,,,,,,,,,,,,,,,,,,,,,,,,,,,,,,,,,,,,,,,,,,,,,,,,,,,,,,,,,,,,,,,,
118853,0,1.9809,,-0.03,0.05,0.15,-0,2,0,0.16,0.52,31,2,111.0,27.0,76.47,117.69,12.65,3153,1,32,54.5,0.96,0.82,12.38,0.0,119.0,54,56,0,0,53,0,0,0,0,1,54,56,55,54,54,52,48,46,45,51,54,54,54,55,55,56,39,42,42,42,40,40,33,32,46,50,50,52,53,54,55,54,0.0,0.0,0.0,0.0,0,0,0.0,0,0.0,-1,0.0,0,0.0,1.9809
118863,0,1.981,,,,,,,,,,,,110.88,27.0,76.35,121.74,,,,,,,,,,,,,,,,,,,,,,,,,,,,,,,,,,,,,,,,,,,,,,,,,,,,,,,,,,,,,,,,,,
118873,0,1.9812,,,,,,,,,,,,110.88,27.12,76.47,117.24,,,,,,,,,,,,,,,,,,,,,54,56,55,54,53,52,48,46,45,51,54,54,54,55,55,56,39,42,42,42,40,40,33,32,46,50,50,52,53,54,55,54,,,,,,,,,,,,,,
118883,0,1.9814,,,,,,,,,,,,111.0,27.21,76.26,122.52,,,,,,,,,,,,,,,,,,,,,,,,,,,,,,,,,,,,,,,,,,,,,,,,,,,,,,,,,,,,,,,,,,
118893,0,1.9816,,-0.03,0.03,0.14,0,1,0,0.15,0.52,29,,110.67,26.88,76.47,118.44,,,,,,,,,,,,,,,,,,,,,54,56,55,54,53,52,48,46,45,51,54,54,54,55,55,56,39,42,42,42,40,40,33,32,46,50,50,52,53,54,55,54,,,,,,,,,,,,,,
118903,0,1.9817,,,,,,,,,,,,111.0,27.12,76.26,122.28,,,,,,,,,,,,,,,,,,,,,,,,,,,,,,,,,,,,,,,,,,,,,,,,,,,,,,,,,,,,,,,,,,
118913,0,1.9819,,,,,,,,,,,,111.0,27.0,76.26,124.71,,,,,,,,,,,,,,,,,,,,,54,56,55,54,53,52,48,46,45,51,53,54,54,55,55,56,39,42,42,42,40,40,33,32,46,50,50,52,53,54,55,54,,,,,,,,,,,,,,
118923,0,1.982,,,,,,,,,,,,110.55,26.88,76.59,120.09,,,,,,,,,,,,,,,,,,,,,,,,,,,,,,,,,,,,,,,,,,,,,,,,,,,,,,,,,,,,,,,,,,
118933,0,1.9822,,0.02,0.06,-0.12,0,1,-1,0.13,0.52,26,,110.55,26.88,76.59,120.09,,,,,,,,,,,,,,,,,,,,,54,56,55,54,53,52,48,46,45,51,53,54,54,55,55,56,39,42,42,42,40,40,33,32,46,50,50,52,53,54,55,54,,,,,,,,,,,,,,
118943,0,1.9824,,,,,,,,,,,,110.79,27.33,76.59,113.16,,,,,,,,,,,,,,,,,,,,,,,,,,,,,,,,,,,,,,,,,,,,,,,,,,,,,,,,,,,,,,,,,,
118953,0,1.9826,,,,,,,,,,,2,110.79,27.33,76.59,113.16,12.68,3324,1,32,56.1,0.96,0.83,12.37,0.0,121.0,54,55,0,0,53,0,0,0,0,1,54,56,55,54,53,52,48,46,45,51,53,54,54,55,55,56,39,42,42,42,40,40,33,32,46,50,50,52,53,54,55,53,0.0,0.0,0.0,0.0,0,0,0.0,0,0.0,-1,0.0,0,0.0,1.9826
118963,0,1.9827,,,,,,,,,,,,110.88,27.12,76.35,120.75,,,,,,,,,,,,,,,,,,,,,,,,,,,,,,,,,,,,,,,,,,,,,,,,,,,,,,,,,,,,,,,,,,
118973,0,1.9829,,0.03,0.07,0.22,0,1,0,0.24,0.52,46,,110.88,27.0,76.35,118.23,,,,,,,,,,,,,,,,,,,,,54,56,55,54,53,52,48,46,45,51,54,54,54,55,54,56,39,42,42,42,40,40,33,32,46,50,50,52,53,54,55,53,,,,,,,,,,,,,,
118983,0,1.983,,,,,,,,,,,,110.88,27.0,76.35,118.23,,,,,,,,,,,,,,,,,,,,,,,,,,,,,,,,,,,,,,,,,,,,,,,,,,,,,,,,,,,,,,,,,,
118993,0,1.9832,,,,,,,,,,,,111.0,27.33,76.59,119.01,,,,,,,,,,,,,,,,,,,,,54,56,55,54,53,52,48,46,45,51,54,54,54,55,54,56,39,42,42,42,40,40,33,32,46,50,50,52,53,54,55,53,,,,,,,,,,,,,,
119003,0,1.9834,,,,,,,,,,,,110.79,27.12,76.35,122.4,,,,,,,,,,,,,,,,,,,,,,,,,,,,,,,,,,,,,,,,,,,,,,,,,,,,,,,,,,,,,,,,,,
119013,0,1.9836,,0.06,0.07,0.21,0,1,0,0.23,0.52,44,,110.79,27.21,76.59,117.78,,,,,,,,,,,,,,,,,,,,,54,56,55,54,53,52,48,46,45,51,54,54,54,55,54,56,39,42,42,42,40,40,33,32,46,50,50,52,52,54,55,53,,,,,,,,,,,,,,
119023,0,1.9837,,,,,,,,,,,,111.12,27.33,76.47,125.16,,,,,,,,,,,,,,,,,,,,,,,,,,,,,,,,,,,,,,,,,,,,,,,,,,,,,,,,,,,,,,,,,,
119033,0,1.9839,,,,,,,,,,,,110.79,26.79,76.59,118.35,,,,,,,,,,,,,,,,,,,,,54,56,55,54,53,52,48,46,45,51,53,54,54,55,55,56,39,42,42,42,40,40,33,32,46,50,50,52,52,54,55,53,,,,,,,,,,,,,,
119043,0,1.984,,,,,,,,,,,,111.0,27.0,76.26,122.4,,,,,,,,,,,,,,,,,,,,,,,,,,,,,,,,,,,,,,,,,,,,,,,,,,,,,,,,,,,,,,,,,,
119053,0,1.9842,12.86,-0.07,0.04,0.37,-0,2,1,0.38,0.52,73,2,111.0,27.0,76.26,122.4,12.67,3523,1,32,57.7,0.96,0.84,12.37,0.0,131.0,54,56,0,0,53,0,0,0,0,1,54,56,55,54,53,52,48,46,45,51,53,54,54,55,55,56,39,42,42,42,40,40,33,32,46,50,50,52,52,54,55,53,0.0,0.0,0.0,0.0,0,0,0.0,0,0.0,-1,0.0,0,0.0,1.9842
119063,0,1.9844,,,,,,,,,,,,110.88,27.12,76.47,121.86,,,,,,,,,,,,,,,,,,,,,,,,,,,,,,,,,,,,,,,,,,,,,,,,,,,,,,,,,,,,,,,,,,
119073,0,1.9846,,,,,,,,,,,,110.88,27.21,76.26,125.58,,,,,,,,,,,,,,,,,,,,,54,56,55,54,53,52,48,46,45,51,53,54,54,55,55,56,39,42,42,42,40,40,33,32,46,50,50,52,53,54,54,54,,,,,,,,,,,,,,
119083,0,1.9847,,,,,,,,,,,,110.88,27.21,76.68,118.56,,,,,,,,,,,,,,,,,,,,,,,,,,,,,,,,,,,,,,,,,,,,,,,,,,,,,,,,,,,,,,,,,,
119093,0,1.9849,,-0.01,0.1,0.22,-0,2,0,0.24,0.52,47,,111.0,27.21,76.35,124.83,,,,,,,,,,,,,,,,,,,,,54,56,55,54,53,52,48,46,45,51,53,54,54,55,55,56,39,42,42,42,40,40,33,32,46,50,50,52,53,54,54,54,,,,,,,,,,,,,,
119103,0,1.985,,,,,,,,,,,,110.67,27.12,76.59,120.21,,,,,,,,,,,,,,,,,,,,,,,,,,,,,,,,,,,,,,,,,,,,,,,,,,,,,,,,,,,,,,,,,,
119113,0,1.9852,,,,,,,,,,,,111.0,26.88,76.26,121.86,,,,,,,,,,,,,,,,,,,,,54,56,55,54,53,52,48,46,45,51,54,54,54,55,54,56,39,42,42,42,40,40,33,32,46,50,50,52,53,54,54,54,,,,,,,,,,,,,,
119123,0,1.9854,,,,,,,,,,,,110.88,27.21,76.47,119.34,,,,,,,,,,,,,,,,,,,,,,,,,,,,,,,,,,,,,,,,,,,,,,,,,,,,,,,,,,,,,,,,,,
119133,0,1.9855,,0.12,0.03,0.23,0,3,1,0.26,0.52,50,,111.0,27.21,76.47,118.11,,,,,,,,,,,,,,,,,,,,,54,56,55,54,53,52,48,46,45,51,54,54,54,55,54,56,39,42,42,42,40,40,33,32,46,50,50,52,52,54,55,54,,,,,,,,,,,,,,
119143,0,1.9857,,,,,,,,,,,,110.79,27.21,76.35,121.08,,,,,,,,,,,,,,,,,,,,,,,,,,,,,,,,,,,,,,,,,,,,,,,,,,,,,,,,,,,,,,,,,,
119153,0,1.9859,,,,,,,,,,,2,110.79,26.88,76.35,116.79,12.64,3401,1,32,56.3,0.96,0.81,12.38,0.0,129.0,54,56,0,0,53,0,0,0,0,1,54,56,55,54,53,52,48,46,45,51,54,54,54,55,54,56,39,42,42,42,40,40,33,32,46,50,50,52,52,54,55,54,0.0,0.0,0.0,0.0,0,0,0.0,0,0.0,-1,0.0,0,0.0,1.9859
119163,0,1.986,,,,,,,,,,,,111.0,27.21,76.35,123.51,,,,,,,,,,,,,,,,,,,,,,,,,,,,,,,,,,,,,,,,,,,,,,,,,,,,,,,,,,,,,,,,,,
119173,0,1.9862,,-0.0,0.07,0.16,-0,3,1,0.17,0.52,33,,110.79,27.0,76.47,118.23,,,,,,,,,,,,,,,,,,,,,54,56,55,54,53,52,48,46,45,51,54,54,54,55,54,56,40,42,42,42,40,40,33,32,46,50,50,52,52,54,55,54,,,,,,,,,,,,,,
119183,0,1.9864,,,,,,,,,,,,111.0,27.0,76.26,124.38,,,,,,,,,,,,,,,,,,,,,,,,,,,,,,,,,,,,,,,,,,,,,,,,,,,,,,,,,,,,,,,,,,
119193,0,1.9866,,,,,,,,,,,,110.79,27.12,76.59,119.34,,,,,,,,,,,,,,,,,,,,,54,56,55,54,53,52,48,46,45,51,54,54,54,55,54,56,40,42,42,42,40,40,33,32,46,50,50,52,52,54,55,54,,,,,,,,,,,,,,
119203,0,1.9867,,,,,,,,,,,,111.0,26.67,76.26,126.81,,,,,,,,,,,,,,,,,,,,,,,,,,,,,,,,,,,,,,,,,,,,,,,,,,,,,,,,,,,,,,,,,,
119213,0,1.9869,,0.03,0.05,-0.03,0,2,0,0.07,0.52,13,,110.79,27.21,76.59,117.45,,,,,,,,,,,,,,,,,,,,,54,56,55,54,53,52,48,46,45,51,54,54,54,55,54,56,40,42,42,42,40,40,33,32,46,50,50,52,53,54,55,54,,,,,,,,,,,,,,
119223,0,1.9871,,,,,,,,,,,,110.88,27.12,76.35,122.07,,,,,,,,,,,,,,,,,,,,,,,,,,,,,,,,,,,,,,,,,,,,,,,,,,,,,,,,,,,,,,,,,,
119233,0,1.9872,,,,,,,,,,,,110.88,27.21,76.47,123.06,,,,,,,,,,,,,,,,,,,,,54,56,55,54,53,52,48,46,45,51,54,54,54,55,54,56,39,42,42,42,40,40,33,33,46,50,50,52,53,54,55,54,,,,,,,,,,,,,,
119243,0,1.9874,,,,,,,,,,,,110.88,27.21,76.47,118.68,,,,,,,,,,,,,,,,,,,,,,,,,,,,,,,,,,,,,,,,,,,,,,,,,,,,,,,,,,,,,,,,,,
119253,0,1.9876,,0.2,0.05,0.1,0,3,0,0.23,0.52,45,2,110.88,27.21,76.35,126.48,12.65,3668,1,32,55.9,0.96,0.8,12.37,0.0,125.0,54,55,0,0,53,0,0,0,0,1,54,56,55,54,53,52,48,46,45,51,54,54,54,55,54,56,39,42,42,42,40,40,33,33,46,50,50,52,53,54,55,54,0.0,0.0,0.0,0.0,0,0,0.0,0,0.0,-1,0.0,0,0.0,1.9876
119263,0,1.9877,,,,,,,,,,,,110.79,27.21,76.59,127.02,,,,,,,,,,,,,,,,,,,,,,,,,,,,,,,,,,,,,,,,,,,,,,,,,,,,,,,,,,,,,,,,,,
119273,0,1.9879,,,,,,,,,,,,111.0,27.0,76.26,126.03,,,,,,,,,,,,,,,,,,,,,54,56,55,54,53,52,48,46,45,51,54,54,54,55,54,56,39,42,42,42,40,40,33,33,46,50,50,52,53,54,55,54,,,,,,,,,,,,,,
119283,0,1.988,,,,,,,,,,,,110.79,27.21,76.59,121.29,,,,,,,,,,,,,,,,,,,,,,,,,,,,,,,,,,,,,,,,,,,,,,,,,,,,,,,,,,,,,,,,,,
119293,0,1.9882,,0.05,0.04,-0.09,0,1,-0,0.11,0.52,22,,111.0,27.12,76.35,120.63,,,,,,,,,,,,,,,,,,,,,54,56,55,54,53,52,48,46,45,51,53,54,54,55,54,56,39,42,42,42,40,40,33,33,46,50,50,52,53,54,55,54,,,,,,,,,,,,,,
119303,0,1.9884,,,,,,,,,,,,110.88,27.21,76.47,119.43,,,,,,,,,,,,,,,,,,,,,,,,,,,,,,,,,,,,,,,,,,,,,,,,,,,,,,,,,,,,,,,,,,
119313,0,1.9885,,,,,,,,,,,,110.88,27.21,76.47,119.88,,,,,,,,,,,,,,,,,,,,,54,56,55,54,53,52,48,46,45,51,53,54,54,55,54,56,40,42,42,42,40,40,34,32,46,50,50,52,53,54,55,54,,,,,,,,,,,,,,
119323,0,1.9887,,,,,,,,,,,,110.88,27.21,76.59,120.75,,,,,,,,,,,,,,,,,,,,,,,,,,,,,,,,,,,,,,,,,,,,,,,,,,,,,,,,,,,,,,,,,,
119333,0,1.9889,,0.07,0.04,-0.33,0,1,-0,0.34,0.52,65,,110.88,27.21,76.59,120.75,,,,,,,,,,,,,,,,,,,,,54,56,55,54,53,52,48,46,45,51,53,54,54,55,54,56,40,42,42,42,40,40,34,32,46,50,50,52,52,54,55,54,,,,,,,,,,,,,,
119343,0,1.989,,,,,,,,,,,,110.79,27.12,76.59,117.78,,,,,,,,,,,,,,,,,,,,,,,,,,,,,,,,,,,,,,,,,,,,,,,,,,,,,,,,,,,,,,,,,,
119353,0,1.9892,,,,,,,,,,,2,110.79,27.12,76.59,117.78,12.66,3501,1,32,54.9,0.96,0.8,12.38,0.0,135.0,54,55,0,0,53,0,0,0,0,1,54,56,55,54,53,52,48,46,45,51,54,54,54,55,54,56,40,42,42,42,40,40,34,32,46,50,50,52,52,54,55,54,0.0,0.0,0.0,0.0,0,0,0.0,0,0.0,-1,0.0,0,0.0,1.9892
119363,0,1.9894,,,,,,,,,,,,110.88,27.21,76.47,120.42,,,,,,,,,,,,,,,,,,,,,,,,,,,,,,,,,,,,,,,,,,,,,,,,,,,,,,,,,,,,,,,,,,
119373,0,1.9896,,0.05,0.05,-0.24,0,-0,-0,0.25,0.52,48,,110.88,27.21,76.47,120.42,,,,,,,,,,,,,,,,,,,,,54,56,55,54,53,52,48,46,45,51,54,54,54,55,54,56,39,42,42,42,40,40,33,32,46,50,50,52,52,54,55,54,,,,,,,,,,,,,,
119383,0,1.9897,,,,,,,,,,,,110.88,27.33,76.47,121.95,,,,,,,,,,,,,,,,,,,,,,,,,,,,,,,,,,,,,,,,,,,,,,,,,,,,,,,,,,,,,,,,,,
119393,0,1.9899,,,,,,,,,,,,110.88,27.33,76.47,121.95,,,,,,,,,,,,,,,,,,,,,54,56,55,54,53,52,48,46,45,51,54,54,54,55,54,56,39,42,42,42,40,40,33,32,46,50,50,52,53,53,55,53,,,,,,,,,,,,,,
119403,0,1.9901,,,,,,,,,,,,110.88,27.21,76.35,125.37,,,,,,,,,,,,,,,,,,,,,,,,,,,,,,,,,,,,,,,,,,,,,,,,,,,,,,,,,,,,,,,,,,
119413,0,1.9902,,0.08,0.06,-0.58,0,-1,-1,0.59,0.59,100,,110.79,27.12,76.59,125.37,,,,,,,,,,,,,,,,,,,,,54,56,55,54,53,52,48,46,45,51,54,54,54,55,54,56,39,42,42,42,40,40,33,32,46,50,50,52,53,53,55,53,,,,,,,,,,,,,,
119423,0,1.9904,,,,,,,,,,,,111.0,26.79,76.14,123.51,,,,,,,,,,,,,,,,,,,,,,,,,,,,,,,,,,,,,,,,,,,,,,,,,,,,,,,,,,,,,,,,,,
119433,0,1.9906,,,,,,,,,,,,110.79,27.33,76.59,121.74,,,,,,,,,,,,,,,,,,,,,54,56,55,54,54,52,48,46,45,51,53,54,54,55,55,56,39,42,42,42,40,40,33,32,46,50,50,52,53,53,55,53,,,,,,,,,,,,,,
119443,0,1.9907,,,,,,,,,,,,111.0,27.0,76.26,121.2,,,,,,,,,,,,,,,,,,,,,,,,,,,,,,,,,,,,,,,,,,,,,,,,,,,,,,,,,,,,,,,,,,
119453,0,1.9909,,-0.03,0.05,-0.42,-0,-1,-1,0.43,0.59,73,2,110.88,27.21,76.59,123.93,12.65,3234,1,32,54.1,0.96,0.81,12.37,0.0,126.0,54,55,0,0,53,0,0,0,0,1,54,56,55,54,54,52,48,46,45,51,53,54,54,55,55,56,39,42,42,42,40,40,33,32,46,50,50,52,53,54,55,54,0.0,0.0,0.0,0.0,0,0,0.0,0,0.0,-1,0.0,0,0.0,1.9909
119463,0,1.991,,,,,,,,,,,,110.88,26.88,76.35,120.3,,,,,,,,,,,,,,,,,,,,,,,,,,,,,,,,,,,,,,,,,,,,,,,,,,,,,,,,,,,,,,,,,,
119473,0,1.9912,,,,,,,,,,,,110.88,27.21,76.35,120.75,,,,,,,,,,,,,,,,,,,,,54,56,55,54,54,52,48,46,45,51,53,54,54,55,55,56,39,42,42,42,40,40,33,32,46,50,50,52,53,54,55,54,,,,,,,,,,,,,,
119483,0,1.9914,,,,,,,,,,,,110.79,27.0,76.47,117.78,,,,,,,,,,,,,,,,,,,,,,,,,,,,,,,,,,,,,,,,,,,,,,,,,,,,,,,,,,,,,,,,,,
119493,0,1.9916,,-0.1,0.1,-0.42,0,-3,-2,0.44,0.59,75,,111.0,26.67,76.26,125.49,,,,,,,,,,,,,,,,,,,,,54,56,55,54,54,52,48,46,45,51,54,54,54,55,55,56,39,42,42,42,40,40,33,32,46,50,50,52,53,54,55,54,,,,,,,,,,,,,,
119503,0,1.9917,,,,,,,,,,,,110.79,27.0,76.68,122.85,,,,,,,,,,,,,,,,,,,,,,,,,,,,,,,,,,,,,,,,,,,,,,,,,,,,,,,,,,,,,,,,,,
119513,0,1.9919,,,,,,,,,,,,110.79,27.0,76.68,122.85,,,,,,,,,,,,,,,,,,,,,54,56,55,54,54,52,48,46,45,51,54,54,54,55,55,56,39,42,42,42,40,40,33,32,46,50,50,52,53,54,55,54,,,,,,,,,,,,,,
119523,0,1.992,,,,,,,,,,,,110.88,27.0,76.47,124.05,,,,,,,,,,,,,,,,,,,,,,,,,,,,,,,,,,,,,,,,,,,,,,,,,,,,,,,,,,,,,,,,,,
119533,0,1.9922,,-0.02,0.05,-0.53,-0,-4,-1,0.53,0.59,90,,110.88,27.0,76.35,121.2,,,,,,,,,,,,,,,,,,,,,54,56,55,54,54,52,48,46,45,51,54,54,54,55,55,56,39,42,42,42,40,40,33,32,46,50,50,52,53,54,55,54,,,,,,,,,,,,,,
119543,0,1.9924,,,,,,,,,,,,110.88,27.12,76.26,124.26,,,,,,,,,,,,,,,,,,,,,,,,,,,,,,,,,,,,,,,,,,,,,,,,,,,,,,,,,,,,,,,,,,
119553,0,1.9926,,,,,,,,,,,2,110.88,27.21,76.59,117.24,12.67,3401,1,32,53.2,0.96,0.83,12.37,0.0,123.0,54,56,0,0,53,0,0,0,0,1,54,56,55,54,54,52,48,46,45,51,54,54,54,55,55,56,39,42,42,42,40,40,33,32,46,50,50,52,53,54,55,54,0.0,0.0,0.0,0.0,0,0,0.0,0,0.0,-1,0.0,0,0.0,1.9926
119563,0,1.9927,,,,,,,,,,,,111.0,26.22,76.26,125.91,,,,,,,,,,,,,,,,,,,,,,,,,,,,,,,,,,,,,,,,,,,,,,,,,,,,,,,,,,,,,,,,,,
119573,0,1.9929,,-0.07,-0.02,-0.29,-0,-1,0,0.29,0.59,50,,110.67,26.88,76.47,117.45,,,,,,,,,,,,,,,,,,,,,54,56,55,54,54,52,48,46,45,51,54,54,54,55,55,56,39,42,42,42,40,40,33,32,46,50,50,52,53,54,55,54,,,,,,,,,,,,,,
119583,0,1.993,,,,,,,,,,,,111.0,26.67,76.26,124.71,,,,,,,,,,,,,,,,,,,,,,,,,,,,,,,,,,,,,,,,,,,,,,,,,,,,,,,,,,,,,,,,,,
119593,0,1.9932,,,,,,,,,,,,110.79,27.12,76.59,123.84,,,,,,,,,,,,,,,,,,,,,54,56,55,54,54,52,48,46,45,51,54,54,54,55,55,56,39,42,42,42,40,40,33,32,46,50,50,52,53,54,55,54,,,,,,,,,,,,,,
119603,0,1.9934,,,,,,,,,,,,110.79,26.88,76.35,121.29,,,,,,,,,,,,,,,,,,,,,,,,,,,,,,,,,,,,,,,,,,,,,,,,,,,,,,,,,,,,,,,,,,
119613,0,1.9936,,0.0,0.02,-0.07,0,1,0,0.07,0.59,12,,110.88,27.12,76.35,123.51,,,,,,,,,,,,,,,,,,,,,54,56,55,54,54,52,48,46,45,51,54,54,54,55,54,56,39,42,42,42,40,40,33,32,46,50,50,52,53,54,55,54,,,,,,,,,,,,,,
119623,0,1.9937,,,,,,,,,,,,110.79,26.79,76.35,118.35,,,,,,,,,,,,,,,,,,,,,,,,,,,,,,,,,,,,,,,,,,,,,,,,,,,,,,,,,,,,,,,,,,
119633,0,1.9939,,,,,,,,,,,,111.0,26.88,76.14,124.92,,,,,,,,,,,,,,,,,,,,,54,56,55,54,53,52,48,46,45,51,54,54,54,55,54,56,39,42,42,42,40,40,33,32,46,50,50,52,53,54,55,54,,,,,,,,,,,,,,
119643,0,1.994,,,,,,,,,,,,110.79,27.0,76.68,119.88,,,,,,,,,,,,,,,,,,,,,,,,,,,,,,,,,,,,,,,,,,,,,,,,,,,,,,,,,,,,,,,,,,
119653,0,1.9942,,0.11,0.01,-0.33,0,1,1,0.35,0.59,59,2,111.0,26.88,76.26,126.03,12.66,3401,1,32,52.2,0.96,0.84,12.37,0.0,127.0,54,55,0,0,53,0,0,0,0,1,54,56,55,54,53,52,48,46,45,51,54,54,54,55,54,56,39,42,42,42,40,40,33,32,46,50,50,52,53,54,55,54,0.0,0.0,0.0,0.0,0,0,0.0,0,0.0,-1,0.0,0,0.0,1.9942
119663,0,1.9944,,,,,,,,,,,,110.79,27.12,76.68,120.3,,,,,,,,,,,,,,,,,,,,,,,,,,,,,,,,,,,,,,,,,,,,,,,,,,,,,,,,,,,,,,,,,,
119673,0,1.9946,,,,,,,,,,,,111.0,26.79,76.26,120.63,,,,,,,,,,,,,,,,,,,,,54,56,55,54,53,52,48,46,45,51,54,54,54,55,55,56,39,42,42,42,40,40,33,32,46,50,50,52,53,54,55,54,,,,,,,,,,,,,,
119683,0,1.9947,,,,,,,,,,,,110.79,27.12,76.47,121.41,,,,,,,,,,,,,,,,,,,,,,,,,,,,,,,,,,,,,,,,,,,,,,,,,,,,,,,,,,,,,,,,,,
119693,0,1.9949,,-0.01,0.07,-0.03,-0,1,0,0.07,0.59,13,,110.88,26.79,76.35,119.97,,,,,,,,,,,,,,,,,,,,,54,56,55,54,53,52,48,46,45,51,54,54,54,55,55,56,39,43,42,42,40,40,33,32,46,50,50,52,53,54,55,54,,,,,,,,,,,,,,
119703,0,1.995,,,,,,,,,,,,110.88,27.12,76.35,122.4,,,,,,,,,,,,,,,,,,,,,,,,,,,,,,,,,,,,,,,,,,,,,,,,,,,,,,,,,,,,,,,,,,
119713,0,1.9952,,,,,,,,,,,,111.0,27.21,76.68,117.03,,,,,,,,,,,,,,,,,,,,,54,56,55,54,53,52,48,46,45,51,54,54,54,55,55,56,39,43,42,42,40,40,33,32,46,50,50,52,53,54,55,54,,,,,,,,,,,,,,
119723,0,1.9954,,,,,,,,,,,,110.88,27.0,76.59,116.79,,,,,,,,,,,,,,,,,,,,,,,,,,,,,,,,,,,,,,,,,,,,,,,,,,,,,,,,,,,,,,,,,,
119733,0,1.9955,,0.03,0.04,0.06,0,1,0,0.07,0.59,12,,110.88,27.0,76.59,116.79,,,,,,,,,,,,,,,,,,,,,54,56,55,54,53,52,48,46,45,51,54,54,54,55,54,56,39,43,42,42,40,40,33,32,46,50,50,52,53,54,55,54,,,,,,,,,,,,,,
119743,0,1.9957,,,,,,,,,,,,111.0,27.0,76.26,123.93,,,,,,,,,,,,,,,,,,,,,,,,,,,,,,,,,,,,,,,,,,,,,,,,,,,,,,,,,,,,,,,,,,
119753,0,1.9959,,,,,,,,,,,2,111.0,26.88,76.14,124.05,12.66,3283,1,32,59.8,0.96,0.82,12.37,0.0,120.0,54,55,0,0,53,0,0,0,0,1,54,56,55,54,54,52,48,46,45,51,54,54,54,55,54,56,39,42,42,42,40,40,33,32,46,50,50,52,53,54,55,54,0.0,0.0,0.0,0.0,0,0,0.0,0,0.0,-1,0.0,0,0.0,1.9959
119763,0,1.996,,,,,,,,,,,,110.79,26.88,76.68,119.97,,,,,,,,,,,,,,,,,,,,,,,,,,,,,,,,,,,,,,,,,,,,,,,,,,,,,,,,,,,,,,,,,,
119773,0,1.9962,,-0.02,0.09,-0.13,0,0,-0,0.16,0.59,27,,110.79,26.88,76.68,119.97,,,,,,,,,,,,,,,,,,,,,54,56,55,54,54,52,48,46,45,51,54,54,54,55,54,56,39,42,42,42,40,40,33,32,46,50,50,52,53,54,55,54,,,,,,,,,,,,,,
119783,0,1.9964,,,,,,,,,,,,111.0,27.12,76.26,120.21,,,,,,,,,,,,,,,,,,,,,,,,,,,,,,,,,,,,,,,,,,,,,,,,,,,,,,,,,,,,,,,,,,
119793,0,1.9966,,,,,,,,,,,,111.0,26.67,76.35,120.63,,,,,,,,,,,,,,,,,,,,,54,56,55,54,54,52,48,46,45,51,54,54,54,55,54,56,39,42,42,42,40,40,33,32,46,50,50,52,53,54,55,54,,,,,,,,,,,,,,
119803,0,1.9967,,,,,,,,,,,,110.88,27.33,76.59,119.55,,,,,,,,,,,,,,,,,,,,,,,,,,,,,,,,,,,,,,,,,,,,,,,,,,,,,,,,,,,,,,,,,,
119813,0,1.9969,,0.06,0.03,0.09,-0,1,0,0.11,0.59,18,,110.88,27.33,76.59,119.55,,,,,,,,,,,,,,,,,,,,,54,56,55,54,54,52,48,46,45,51,54,54,54,55,55,56,39,42,42,42,40,40,33,32,46,50,50,52,53,54,55,54,,,,,,,,,,,,,,
119823,0,1.997,,,,,,,,,,,,110.88,27.0,76.47,116.37,,,,,,,,,,,,,,,,,,,,,,,,,,,,,,,,,,,,,,,,,,,,,,,,,,,,,,,,,,,,,,,,,,
119833,0,1.9972,,,,,,,,,,,,110.88,26.79,76.59,117.57,,,,,,,,,,,,,,,,,,,,,54,56,55,54,54,52,48,46,45,51,54,54,54,55,55,56,39,42,42,42,40,40,33,32,46,50,50,52,53,54,55,54,,,,,,,,,,,,,,
119843,0,1.9974,,,,,,,,,,,,110.88,27.12,76.26,122.61,,,,,,,,,,,,,,,,,,,,,,,,,,,,,,,,,,,,,,,,,,,,,,,,,,,,,,,,,,,,,,,,,,
119853,0,1.9976,,0.13,0.0,-0.05,-0,1,0,0.14,0.59,24,2,110.88,27.12,76.47,116.46,12.68,3404,1,32,57.0,0.96,0.84,12.38,0.0,114.0,54,55,0,0,53,0,0,0,0,1,54,56,55,54,54,52,48,46,45,51,54,54,54,55,55,56,39,42,42,42,40,40,33,32,46,50,50,52,53,54,55,54,0.0,0.0,0.0,0.0,0,0,0.0,0,0.0,-1,0.0,0,0.0,1.9976
119863,0,1.9977,,,,,,,,,,,,111.12,26.88,76.35,122.85,,,,,,,,,,,,,,,,,,,,,,,,,,,,,,,,,,,,,,,,,,,,,,,,,,,,,,,,,,,,,,,,,,
119873,0,1.9979,,,,,,,,,,,,110.79,26.34,76.47,124.05,,,,,,,,,,,,,,,,,,,,,54,56,55,54,54,52,48,46,45,51,54,54,54,55,55,56,40,43,42,42,40,40,33,32,46,50,50,52,53,54,55,54,,,,,,,,,,,,,,
119883,0,1.998,,,,,,,,,,,,111.12,26.88,76.26,124.71,,,,,,,,,,,,,,,,,,,,,,,,,,,,,,,,,,,,,,,,,,,,,,,,,,,,,,,,,,,,,,,,,,
119893,0,1.9982,,-0.1,0.03,0.11,-0,-1,-0,0.15,0.59,26,,110.79,26.79,76.68,119.34,,,,,,,,,,,,,,,,,,,,,54,56,55,54,54,52,48,46,45,51,54,54,54,55,55,56,40,43,42,42,40,40,33,32,46,50,50,52,53,54,55,54,,,,,,,,,,,,,,
119903,0,1.9984,,,,,,,,,,,,111.12,26.67,76.26,123.27,,,,,,,,,,,,,,,,,,,,,,,,,,,,,,,,,,,,,,,,,,,,,,,,,,,,,,,,,,,,,,,,,,
119913,0,1.9985,,,,,,,,,,,,110.79,26.46,76.68,121.95,,,,,,,,,,,,,,,,,,,,,54,56,55,54,54,52,48,46,45,51,54,54,54,55,55,56,40,43,42,42,40,40,33,32,46,50,50,52,53,54,55,54,,,,,,,,,,,,,,
119923,0,1.9987,,,,,,,,,,,,111.21,26.67,76.35,120.42,,,,,,,,,,,,,,,,,,,,,,,,,,,,,,,,,,,,,,,,,,,,,,,,,,,,,,,,,,,,,,,,,,
119933,0,1.9989,,0.01,0.01,-0.2,-0,1,-0,0.2,0.59,34,,110.88,27.0,76.59,117.9,,,,,,,,,,,,,,,,,,,,,54,56,55,54,54,52,48,46,45,52,54,54,54,55,55,56,39,43,42,42,40,40,33,32,46,50,50,52,53,54,55,54,,,,,,,,,,,,,,
119943,0,1.999,,,,,,,,,,,,111.12,26.55,76.35,117.24,,,,,,,,,,,,,,,,,,,,,,,,,,,,,,,,,,,,,,,,,,,,,,,,,,,,,,,,,,,,,,,,,,
119953,0,1.9992,,,,,,,,,,,2,111.0,27.12,76.47,121.41,12.66,3226,1,32,55.8,0.96,0.86,12.38,0.0,125.0,53,55,0,0,53,0,0,0,0,1,54,56,55,54,54,52,48,46,45,52,54,54,54,55,55,56,39,43,42,42,40,40,33,32,46,50,50,52,53,54,55,54,0.0,0.0,0.0,0.0,0,0,0.0,0,0.0,-1,0.0,0,0.0,1.9992
119963,0,1.9994,,,,,,,,,,,,110.88,26.67,76.47,115.59,,,,,,,,,,,,,,,,,,,,,,,,,,,,,,,,,,,,,,,,,,,,,,,,,,,,,,,,,,,,,,,,,,
119973,0,1.9996,,-0.05,0.06,-0.09,-0,-0,-1,0.12,0.59,20,,111.0,26.79,76.35,121.08,,,,,,,,,,,,,,,,,,,,,54,56,55,54,54,52,48,46,45,52,54,54,54,55,55,56,39,43,42,42,40,40,33,32,46,50,50,52,53,54,55,54,,,,,,,,,,,,,,
119983,0,1.9997,,,,,,,,,,,,110.88,27.0,76.59,117.78,,,,,,,,,,,,,,,,,,,,,,,,,,,,,,,,,,,,,,,,,,,,,,,,,,,,,,,,,,,,,,,,,,
119993,0,1.9999,,,,,,,,,,,,111.12,26.88,76.26,124.92,,,,,,,,,,,,,,,,,,,,,54,56,55,54,54,52,48,46,45,51,54,54,54,55,55,56,39,43,42,42,40,40,33,32,46,50,50,52,53,54,55,54,,,,,,,,,,,,,,
120003,0,2.0001,,,,,,,,,,,,110.88,27.0,76.68,121.86,,,,,,,,,,,,,,,,,,,,,,,,,,,,,,,,,,,,,,,,,,,,,,,,,,,,,,,,,,,,,,,,,,
120013,0,2.0002,,-0.01,0.05,0.04,-0,0,0,0.07,0.59,12,,111.12,27.0,76.35,124.38,,,,,,,,,,,,,,,,,,,,,54,56,55,54,54,52,48,46,45,51,54,54,54,55,55,56,39,43,42,42,40,40,34,32,46,50,50,52,53,54,55,54,,,,,,,,,,,,,,
120023,0,2.0004,,,,,,,,,,,,110.79,27.12,76.68,112.95,,,,,,,,,,,,,,,,,,,,,,,,,,,,,,,,,,,,,,,,,,,,,,,,,,,,,,,,,,,,,,,,,,
120033,0,2.0006,,,,,,,,,,,,111.0,26.88,76.26,119.97,,,,,,,,,,,,,,,,,,,,,54,56,55,54,54,52,48,46,45,51,54,54,54,55,55,56,39,43,42,42,40,40,34,32,46,50,50,52,52,54,55,53,,,,,,,,,,,,,,
120043,0,2.0007,,,,,,,,,,,,110.79,27.12,76.68,113.16,,,,,,,,,,,,,,,,,,,,,,,,,,,,,,,,,,,,,,,,,,,,,,,,,,,,,,,,,,,,,,,,,,
120053,0,2.0009,12.85,0.07,0.04,-0.25,-0,-1,-1,0.27,0.59,45,2,111.12,27.12,76.47,121.08,12.65,3236,1,32,54.3,0.96,0.85,12.38,0.0,119.0,53,55,0,0,53,0,0,0,0,1,54,56,55,54,54,52,48,46,45,52,54,54,54,55,55,56,39,43,42,42,40,40,34,32,46,50,50,52,52,54,55,53,0.0,0.0,0.0,0.0,0,0,0.0,0,0.0,-1,0.0,0,0.0,2.0009
120063,0,2.001,,,,,,,,,,,,111.0,27.12,76.47,122.73,,,,,,,,,,,,,,,,,,,,,,,,,,,,,,,,,,,,,,,,,,,,,,,,,,,,,,,,,,,,,,,,,,
120073,0,2.0012,,,,,,,,,,,,110.88,27.0,76.35,120.54,,,,,,,,,,,,,,,,,,,,,54,56,55,54,54,52,48,46,45,52,54,54,54,55,55,56,39,43,42,42,40,40,34,33,46,50,50,52,52,54,55,53,,,,,,,,,,,,,,
120083,0,2.0014,,,,,,,,,,,,111.0,27.21,76.47,120.54,,,,,,,,,,,,,,,,,,,,,,,,,,,,,,,,,,,,,,,,,,,,,,,,,,,,,,,,,,,,,,,,,,
120093,0,2.0015,,-0.05,0.08,-0.11,-0,-1,-1,0.14,0.59,24,,110.88,26.67,76.47,117.12,,,,,,,,,,,,,,,,,,,,,54,56,55,54,54,52,48,46,45,52,54,54,54,55,55,56,39,43,42,42,40,40,34,33,45,49,50,52,52,53,54,53,,,,,,,,,,,,,,
120103,0,2.0017,,,,,,,,,,,,111.12,27.0,76.26,122.19,,,,,,,,,,,,,,,,,,,,,,,,,,,,,,,,,,,,,,,,,,,,,,,,,,,,,,,,,,,,,,,,,,
120113,0,2.0019,,,,,,,,,,,,111.0,27.21,76.68,115.05,,,,,,,,,,,,,,,,,,,,,54,56,55,54,54,52,48,46,45,52,54,54,54,55,55,56,39,43,42,42,40,40,34,33,45,49,50,52,52,53,54,53,,,,,,,,,,,,,,
120123,0,2.002,,,,,,,,,,,,110.88,27.12,76.59,122.52,,,,,,,,,,,,,,,,,,,,,,,,,,,,,,,,,,,,,,,,,,,,,,,,,,,,,,,,,,,,,,,,,,
120133,0,2.0022,,-0.03,0.03,0.05,-0,0,0,0.06,0.59,10,,110.88,27.12,76.59,122.52,,,,,,,,,,,,,,,,,,,,,54,56,55,54,54,52,48,46,45,51,54,54,54,55,55,56,39,43,42,42,40,40,34,32,45,49,50,52,52,53,54,53,,,,,,,,,,,,,,
120143,0,2.0024,,,,,,,,,,,,111.21,27.0,76.26,121.2,,,,,,,,,,,,,,,,,,,,,,,,,,,,,,,,,,,,,,,,,,,,,,,,,,,,,,,,,,,,,,,,,,
120153,0,2.0025,,,,,,,,,,,2,110.88,27.12,76.68,114.6,12.67,3277,1,32,60.0,0.96,0.85,12.38,0.0,122.0,52,54,0,0,53,0,0,0,0,1,54,56,55,54,54,52,48,46,45,51,54,54,54,55,55,56,39,43,42,42,40,40,34,32,46,49,50,52,52,53,54,53,0.0,0.0,0.0,0.0,0,0,0.0,0,0.0,-1,0.0,0,0.0,2.0025
120163,0,2.0027,,,,,,,,,,,,110.79,27.33,76.68,114.27,,,,,,,,,,,,,,,,,,,,,,,,,,,,,,,,,,,,,,,,,,,,,,,,,,,,,,,,,,,,,,,,,,
120173,0,2.0029,,-0.11,0.06,-0.12,0,-2,-0,0.17,0.59,29,,110.79,27.33,76.68,114.27,,,,,,,,,,,,,,,,,,,,,54,56,55,54,54,52,48,46,45,51,54,54,54,55,55,56,39,43,42,42,40,40,34,32,46,49,50,52,52,53,54,53,,,,,,,,,,,,,,
120183,0,2.0031,,,,,,,,,,,,110.88,27.0,76.26,118.68,,,,,,,,,,,,,,,,,,,,,,,,,,,,,,,,,,,,,,,,,,,,,,,,,,,,,,,,,,,,,,,,,,
120193,0,2.0032,,,,,,,,,,,,111.0,27.0,76.35,116.7,,,,,,,,,,,,,,,,,,,,,54,56,55,54,54,52,48,46,45,51,54,54,54,55,55,56,39,43,42,42,40,40,34,32,46,49,50,52,52,53,54,53,,,,,,,,,,,,,,
120203,0,2.0034,,,,,,,,,,,,110.88,27.33,76.47,123.6,,,,,,,,,,,,,,,,,,,,,,,,,,,,,,,,,,,,,,,,,,,,,,,,,,,,,,,,,,,,,,,,,,
120213,0,2.0036,,0.05,0.01,-0.01,-0,-0,0,0.05,0.59,9,,110.88,27.33,76.47,123.6,,,,,,,,,,,,,,,,,,,,,54,56,55,54,54,52,48,46,45,51,54,54,54,55,55,56,39,43,42,42,40,40,34,32,46,49,50,52,52,53,54,53,,,,,,,,,,,,,,
120223,0,2.0037,,,,,,,,,,,,110.88,27.0,76.35,122.07,,,,,,,,,,,,,,,,,,,,,,,,,,,,,,,,,,,,,,,,,,,,,,,,,,,,,,,,,,,,,,,,,,
120233,0,2.0039,,,,,,,,,,,,110.88,27.0,76.35,122.07,,,,,,,,,,,,,,,,,,,,,54,56,55,54,54,52,48,46,45,51,54,54,54,55,55,56,39,43,42,42,40,40,34,32,46,49,50,52,52,53,54,53,,,,,,,,,,,,,,
120243,0,2.0041,,,,,,,,,,,,111.12,27.12,76.35,124.83,,,,,,,,,,,,,,,,,,,,,,,,,,,,,,,,,,,,,,,,,,,,,,,,,,,,,,,,,,,,,,,,,,
120253,0,2.0042,,0.07,0.03,-0.24,-0,-0,-0,0.25,0.59,43,2,110.79,27.0,76.68,124.83,12.69,3416,1,32,57.5,0.96,0.85,12.38,0.0,117.0,52,54,0,0,53,0,0,0,0,1,54,56,55,54,54,52,48,46,46,52,54,54,54,55,55,56,40,43,42,42,40,40,34,33,46,49,50,52,52,53,54,53,0.0,0.0,0.0,0.0,0,0,0.0,0,0.0,-1,0.0,0,0.0,2.0042
120263,0,2.0044,,,,,,,,,,,,111.0,27.0,76.26,125.7,,,,,,,,,,,,,,,,,,,,,,,,,,,,,,,,,,,,,,,,,,,,,,,,,,,,,,,,,,,,,,,,,,
120273,0,2.0045,,,,,,,,,,,,110.79,27.21,76.59,118.23,,,,,,,,,,,,,,,,,,,,,54,56,55,54,54,52,48,46,46,52,54,54,54,55,55,56,40,43,42,42,40,40,34,33,46,49,50,52,52,53,54,53,,,,,,,,,,,,,,
120283,0,2.0047,,,,,,,,,,,,111.0,27.0,76.26,120.87,,,,,,,,,,,,,,,,,,,,,,,,,,,,,,,,,,,,,,,,,,,,,,,,,,,,,,,,,,,,,,,,,,
120293,0,2.0049,,-0.11,0.03,0.08,-0,0,0,0.14,0.59,24,,110.88,27.12,76.47,119.55,,,,,,,,,,,,,,,,,,,,,54,56,55,54,54,52,48,46,46,52,54,54,54,55,55,56,40,43,42,42,40,40,34,33,45,49,50,52,52,53,54,52,,,,,,,,,,,,,,
120303,0,2.005,,,,,,,,,,,,110.88,27.0,76.35,118.02,,,,,,,,,,,,,,,,,,,,,,,,,,,,,,,,,,,,,,,,,,,,,,,,,,,,,,,,,,,,,,,,,,
120313,0,2.0052,,,,,,,,,,,,110.88,27.33,76.47,121.86,,,,,,,,,,,,,,,,,,,,,54,56,55,54,54,52,48,46,45,52,54,54,54,55,54,56,40,43,42,42,40,40,34,33,45,49,50,52,52,53,54,52,,,,,,,,,,,,,,
120323,0,2.0054,,,,,,,,,,,,111.0,27.21,76.47,116.37,,,,,,,,,,,,,,,,,,,,,,,,,,,,,,,,,,,,,,,,,,,,,,,,,,,,,,,,,,,,,,,,,,
120333,0,2.0055,,-0.0,0.04,-0.19,0,-1,-0,0.19,0.59,33,,110.88,27.21,76.35,121.29,,,,,,,,,,,,,,,,,,,,,54,56,55,54,53,52,48,46,45,52,54,54,54,55,54,56,39,43,42,42,40,40,34,32,45,49,50,52,52,53,54,52,,,,,,,,,,,,,,
120343,0,2.0057,,,,,,,,,,,,110.88,27.12,76.59,118.77,,,,,,,,,,,,,,,,,,,,,,,,,,,,,,,,,,,,,,,,,,,,,,,,,,,,,,,,,,,,,,,,,,
120353,0,2.0059,,,,,,,,,,,2,111.0,27.0,76.26,122.52,12.65,3448,1,32,56.4,0.96,0.84,12.38,0.0,128.0,52,54,0,0,53,0,0,0,0,1,54,56,55,54,53,52,48,46,45,52,54,54,54,55,54,56,39,43,42,42,40,40,34,32,45,49,50,52,52,52,54,53,0.0,0.0,0.0,0.0,0,0,0.0,0,0.0,-1,0.0,0,0.0,2.0059
120363,0,2.0061,,,,,,,,,,,,110.79,26.88,76.47,119.55,,,,,,,,,,,,,,,,,,,,,,,,,,,,,,,,,,,,,,,,,,,,,,,,,,,,,,,,,,,,,,,,,,
120373,0,2.0062,,-0.03,0.03,-0.18,0,-2,-1,0.18,0.59,31,,111.0,27.12,76.35,120.3,,,,,,,,,,,,,,,,,,,,,54,56,55,54,53,52,48,46,45,51,54,54,54,55,55,56,39,43,42,42,40,40,34,32,45,49,50,52,52,52,54,53,,,,,,,,,,,,,,
120383,0,2.0064,,,,,,,,,,,,110.79,27.0,76.59,118.44,,,,,,,,,,,,,,,,,,,,,,,,,,,,,,,,,,,,,,,,,,,,,,,,,,,,,,,,,,,,,,,,,,
120393,0,2.0066,,,,,,,,,,,,111.0,27.0,76.35,122.85,,,,,,,,,,,,,,,,,,,,,54,56,55,54,53,52,48,46,45,51,54,54,54,55,55,56,40,43,42,42,40,40,33,32,45,49,50,52,52,52,54,53,,,,,,,,,,,,,,
120403,0,2.0067,,,,,,,,,,,,110.88,27.12,76.59,117.45,,,,,,,,,,,,,,,,,,,,,,,,,,,,,,,,,,,,,,,,,,,,,,,,,,,,,,,,,,,,,,,,,,
120413,0,2.0069,,0.1,0.01,-0.38,0,-1,-1,0.39,0.59,67,,111.0,27.0,76.47,116.91,,,,,,,,,,,,,,,,,,,,,54,56,55,54,53,52,48,46,45,51,54,54,54,55,55,56,40,43,42,42,40,40,33,32,45,49,50,52,52,53,54,52,,,,,,,,,,,,,,
120423,0,2.0071,,,,,,,,,,,,110.88,27.12,76.47,121.62,,,,,,,,,,,,,,,,,,,,,,,,,,,,,,,,,,,,,,,,,,,,,,,,,,,,,,,,,,,,,,,,,,
120433,0,2.0072,,,,,,,,,,,,111.0,27.12,76.47,119.1,,,,,,,,,,,,,,,,,,,,,54,56,55,54,53,52,48,46,45,51,54,54,54,55,55,56,40,43,42,42,40,40,33,32,45,49,50,52,52,53,54,52,,,,,,,,,,,,,,
120443,0,2.0074,,,,,,,,,,,,111.0,27.21,76.47,124.59,,,,,,,,,,,,,,,,,,,,,,,,,,,,,,,,,,,,,,,,,,,,,,,,,,,,,,,,,,,,,,,,,,
120453,0,2.0076,,-0.04,0.06,-0.09,-0,-0,-1,0.12,0.59,20,2,110.79,27.0,76.47,121.86,12.64,3255,1,32,55.0,0.96,0.83,12.38,0.0,123.0,53,55,0,0,53,0,0,0,0,1,54,56,55,54,53,52,48,46,46,51,54,54,54,55,55,56,39,42,42,42,40,40,33,32,45,49,50,52,52,53,54,52,0.0,0.0,0.0,0.0,0,0,0.0,0,0.0,-1,0.0,0,0.0,2.0076
120463,0,2.0077,,,,,,,,,,,,111.0,27.12,76.35,124.5,,,,,,,,,,,,,,,,,,,,,,,,,,,,,,,,,,,,,,,,,,,,,,,,,,,,,,,,,,,,,,,,,,
120473,0,2.0079,,,,,,,,,,,,110.79,27.0,76.47,118.77,,,,,,,,,,,,,,,,,,,,,54,56,55,54,53,52,48,46,46,51,54,54,54,55,55,56,39,42,42,42,40,40,33,32,45,49,50,52,52,53,54,53,,,,,,,,,,,,,,
120483,0,2.008,,,,,,,,,,,,111.0,27.12,76.26,127.35,,,,,,,,,,,,,,,,,,,,,,,,,,,,,,,,,,,,,,,,,,,,,,,,,,,,,,,,,,,,,,,,,,
120493,0,2.0082,,0.01,0.03,0.01,0,1,0,0.03,0.59,5,,110.79,27.12,76.47,118.35,,,,,,,,,,,,,,,,,,,,,54,56,55,54,53,52,48,46,46,51,54,54,54,55,55,56,39,42,42,42,40,40,33,32,45,49,50,52,52,53,54,53,,,,,,,,,,,,,,
120503,0,2.0084,,,,,,,,,,,,111.0,26.88,76.26,120.63,,,,,,,,,,,,,,,,,,,,,,,,,,,,,,,,,,,,,,,,,,,,,,,,,,,,,,,,,,,,,,,,,,
120513,0,2.0085,,,,,,,,,,,,110.79,27.0,76.59,113.28,,,,,,,,,,,,,,,,,,,,,54,56,55,54,53,52,48,46,45,51,54,54,54,55,55,56,39,43,42,42,40,40,33,33,45,49,50,52,52,53,54,53,,,,,,,,,,,,,,
120523,0,2.0087,,,,,,,,,,,,111.0,27.21,76.47,117.03,,,,,,,,,,,,,,,,,,,,,,,,,,,,,,,,,,,,,,,,,,,,,,,,,,,,,,,,,,,,,,,,,,
120533,0,2.0089,,-0.1,0.05,-0.05,0,-3,-1,0.12,0.59,20,,110.88,27.45,76.59,119.55,,,,,,,,,,,,,,,,,,,,,54,56,55,54,53,52,48,46,45,51,54,54,54,55,55,56,39,43,42,42,40,40,33,33,46,50,50,52,52,53,54,53,,,,,,,,,,,,,,
120543,0,2.009,,,,,,,,,,,,110.88,27.0,76.35,118.02,,,,,,,,,,,,,,,,,,,,,,,,,,,,,,,,,,,,,,,,,,,,,,,,,,,,,,,,,,,,,,,,,,
120553,0,2.0092,,,,,,,,,,,2,111.0,27.33,76.47,123.06,12.64,3394,1,32,54.8,0.96,0.84,12.38,0.0,121.0,52,54,0,0,54,0,0,0,0,1,54,56,55,54,53,52,48,46,45,51,54,54,54,55,55,56,39,43,42,42,40,40,33,33,46,50,50,52,52,53,54,53,0.0,0.0,0.0,0.0,0,0,0.0,0,0.0,-1,0.0,0,0.0,2.0092
120563,0,2.0094,,,,,,,,,,,,110.88,27.12,76.47,118.11,,,,,,,,,,,,,,,,,,,,,,,,,,,,,,,,,,,,,,,,,,,,,,,,,,,,,,,,,,,,,,,,,,
120573,0,2.0096,,0.11,0.02,-0.18,0,-1,-0,0.21,0.59,36,,110.88,27.12,76.26,124.83,,,,,,,,,,,,,,,,,,,,,54,56,55,54,53,52,48,46,45,51,54,54,54,55,54,56,39,43,42,42,40,40,34,32,46,50,50,52,52,53,54,53,,,,,,,,,,,,,,
120583,0,2.0097,,,,,,,,,,,,111.12,27.12,76.35,127.02,,,,,,,,,,,,,,,,,,,,,,,,,,,,,,,,,,,,,,,,,,,,,,,,,,,,,,,,,,,,,,,,,,
120593,0,2.0099,,,,,,,,,,,,111.12,27.12,76.35,127.02,,,,,,,,,,,,,,,,,,,,,54,56,55,54,53,52,48,46,45,51,54,54,54,55,54,56,39,43,42,42,40,40,34,32,46,50,50,52,52,53,54,53,,,,,,,,,,,,,,
120603,0,2.0101,,,,,,,,,,,,110.88,27.0,76.47,119.34,,,,,,,,,,,,,,,,,,,,,,,,,,,,,,,,,,,,,,,,,,,,,,,,,,,,,,,,,,,,,,,,,,
120613,0,2.0102,,-0.05,0.02,-0.22,0,-2,-1,0.22,0.59,38,,110.88,27.0,76.47,119.34,,,,,,,,,,,,,,,,,,,,,54,56,55,54,53,52,48,46,45,51,54,54,54,55,54,56,39,43,42,42,40,40,34,32,45,49,50,52,52,53,54,53,,,,,,,,,,,,,,
120623,0,2.0104,,,,,,,,,,,,111.0,26.67,76.47,120.54,,,,,,,,,,,,,,,,,,,,,,,,,,,,,,,,,,,,,,,,,,,,,,,,,,,,,,,,,,,,,,,,,,
120633,0,2.0106,,,,,,,,,,,,111.0,26.67,76.47,120.54,,,,,,,,,,,,,,,,,,,,,54,56,55,54,53,52,48,46,45,51,53,54,54,55,54,56,39,43,42,42,40,40,33,32,45,49,50,52,52,53,54,53,,,,,,,,,,,,,,
120643,0,2.0107,,,,,,,,,,,,111.0,27.45,76.59,119.76,,,,,,,,,,,,,,,,,,,,,,,,,,,,,,,,,,,,,,,,,,,,,,,,,,,,,,,,,,,,,,,,,,
120653,0,2.0109,,-0.01,-0.02,-0.08,-0,0,0,0.08,0.59,14,2,110.88,27.33,76.47,119.76,12.66,3346,1,32,58.5,0.96,0.8,12.37,0.0,123.0,52,54,0,0,54,0,0,0,0,1,54,56,55,54,53,52,48,46,45,51,53,54,54,55,54,56,39,43,42,42,40,40,33,32,45,49,50,52,52,53,54,53,0.0,0.0,0.0,0.0,0,0,0.0,0,0.0,-1,0.0,0,0.0,2.0109
120663,0,2.011,,,,,,,,,,,,111.0,27.33,76.59,117.9,,,,,,,,,,,,,,,,,,,,,,,,,,,,,,,,,,,,,,,,,,,,,,,,,,,,,,,,,,,,,,,,,,
