"Interval"|"ms"|0|0|1,"Utc"|"ms"|0|0|1,"ElapsedTime"|"Min"|0.0|0.0|10,"Battery"|"Volts"|0.0|20.0|1,"AccelX"|"G"|-3.0|3.0|25,"AccelY"|"G"|-3.0|3.0|25,"AccelZ"|"G"|-3.0|3.0|25,"Yaw"|"Deg/Sec"|-120|120|25,"Pitch"|"Deg/Sec"|-120|120|25,"Roll"|"Deg/Sec"|-120|120|25,"Gsum"|"G"|0.0|3.0|25,"GsumMax"|"G"|0.0|3.0|25,"GsumPct"|"%"|0|100|25,"StAngle"|"Deg"|-100|100|10,"SuspPosFL"|"mm"|0.0|150.0|10,"SuspPosFR"|"mm"|0.0|150.0|10,"SuspPosRL"|"mm"|0.0|150.0|10,"SuspPosRR"|"mm"|0.0|150.0|10,"ADL_BAT"|"V"|0.0|20.0|10,"RPM"|""|0|20000|10,"TPS"|"%"|0|100|10,"IAT"|"F"|0|300|10,"MAP"|"KPa"|0.0|255.0|10,"LambdaAim"|""|0.0|1.75|10,"Lambda"|""|0.0|1.75|10,"ECU_BAT"|"V"|0.0|20.0|10,"FuelCut"|""|0.0|100.0|10,"InjDuty"|"%"|0.0|100.0|10,"BrakePres-F"|"psi"|0|1200|10,"BrakePres-R"|"psi"|0|1200|10,"AuxUpDuty"|"%"|0|100|10,"AuxDownDuty"|"%"|0|100|10,"EngineTemp"|"F"|0|300|10,"WheelSpdRL"|""|0|100|10,"WheelSpdRR"|""|0|100|10,"WheelSpdFL"|""|0|100|10,"WheelSpdFR"|""|0|100|10,"Gear"|""|0|10|10,"TireTmpLF1"|"C"|20|90|50,"TireTmpLF2"|"C"|20|90|50,"TireTmpLF3"|"C"|20|90|50,"TireTmpLF4"|"C"|20|90|50,"TireTmpLF5"|"C"|20|90|50,"TireTmpLF6"|"C"|20|90|50,"TireTmpLF7"|"C"|20|90|50,"TireTmpLF8"|"C"|20|90|50,"TireTmpRF1"|"C"|20|90|50,"TireTmpRF2"|"C"|20|90|50,"TireTmpRF3"|"C"|20|90|50,"TireTmpRF4"|"C"|20|90|50,"TireTmpRF5"|"C"|20|90|50,"TireTmpRF6"|"C"|20|90|50,"TireTmpRF7"|"C"|20|90|50,"TireTmpRF8"|"C"|20|90|50,"TireTmpLR1"|"C"|20|90|50,"TireTmpLR2"|"C"|20|90|50,"TireTmpLR3"|"C"|20|90|50,"TireTmpLR4"|"C"|20|90|50,"TireTmpLR5"|"C"|20|90|50,"TireTmpLR6"|"C"|20|90|50,"TireTmpLR7"|"C"|20|90|50,"TireTmpLR8"|"C"|20|90|50,"TireTmpRR1"|"C"|20|90|50,"TireTmpRR2"|"C"|20|90|50,"TireTmpRR3"|"C"|20|90|50,"TireTmpRR4"|"C"|20|90|50,"TireTmpRR5"|"C"|20|90|50,"TireTmpRR6"|"C"|20|90|50,"TireTmpRR7"|"C"|20|90|50,"TireTmpRR8"|"C"|20|90|50,"Latitude"|"Degrees"|-180.0|180.0|10,"Longitude"|"Degrees"|-180.0|180.0|10,"Speed"|"kph"|0.0|150.0|10,"Altitude"|"m"|0.0|4000.0|10,"GPSSats"|""|0|20|10,"GPSQual"|""|0|5|10,"GPSDOP"|""|0.0|20.0|10,"LapCount"|""|0|0|10,"LapTime"|"Min"|0.0|0.0|10,"Sector"|""|0|0|10,"SectorTime"|"Min"|0.0|0.0|10,"CurrentLap"|""|0|0|10,"Distance"|"mi"|0.0|0.0|10,"SessionTime"|"Min"|0.0|0.0|10
95833,0,1.5972,,,,,,,,,,,,,,,,,,,,,,,,,,,,,,,,,,,,38,40,41,40,42,42,42,40,38,39,38,38,37,38,37,36,49,50,47,54,54,56,56,50,39,33,32,33,33,34,36,42,,,,,,,,,,,,,,
95673,0,1.5946,,,,,,,,,,,,,,,,,,,,,,,,,,,,,,,,,,,,38,40,41,40,41,41,41,40,37,39,38,38,37,37,36,36,49,50,47,54,54,56,56,50,39,33,32,33,33,33,36,42,,,,,,,,,,,,,,
95693,0,1.5949,,0.15,0.02,-0.23,-0,0,-1,0.27,1.01,27,,,,,,,,,,,,,,,,,,,,,,,,,,38,40,41,40,41,41,41,40,37,39,38,38,37,37,36,36,49,50,47,54,54,56,56,50,39,33,32,33,33,33,36,42,,,,,,,,,,,,,,
95713,0,1.5952,,,,,,,,,,,,,,,,,,,,,,,,,,,,,,,,,,,,38,40,41,40,41,41,42,40,37,39,38,38,37,38,37,36,49,50,47,54,54,56,56,50,39,33,32,33,33,33,36,42,,,,,,,,,,,,,,
95733,0,1.5956,,0.04,0.05,-0.18,-0,0,-1,0.19,1.01,19,,,,,,,,,,,,,,,,,,,,,,,,,,38,40,41,40,41,41,42,40,37,39,38,38,37,38,37,36,49,50,47,54,54,56,56,50,40,34,32,33,33,34,36,42,,,,,,,,,,,,,,
95753,0,1.5959,,,,,,,,,,,-2,113.64,28.86,71.19,107.34,12.9,3549,2,32,100.0,0.96,0.88,12.49,0.0,120.0,59,60,0,0,65,0,0,0,0,1,38,40,41,40,41,41,42,40,37,39,38,38,37,38,37,36,49,50,47,54,54,56,56,50,40,34,32,33,33,34,36,42,0.0,0.0,0.0,0.0,0,0,0.0,0,0.0,-1,0.0,0,0.0,1.5959
95773,0,1.5962,,-0.05,0.03,-0.18,-0,-1,-1,0.19,1.01,19,,,,,,,,,,,,,,,,,,,,,,,,,,38,40,41,40,41,41,42,40,38,39,38,38,37,38,37,36,50,50,48,54,54,56,56,50,40,34,32,33,33,34,36,42,,,,,,,,,,,,,,
95813,0,1.5969,,0.11,0.06,-0.11,-0,-2,-2,0.17,1.01,17,,,,,,,,,,,,,,,,,,,,,,,,,,38,40,41,40,42,42,42,40,38,39,38,38,37,38,37,36,50,50,48,54,54,56,56,50,39,33,32,33,33,34,36,42,,,,,,,,,,,,,,
95833,0,1.5972,,,,,,,,,,,,,,,,,,,,,,,,,,,,,,,,,,,,38,40,41,40,42,42,42,40,38,39,38,38,37,38,37,36,49,50,47,54,54,56,56,50,39,33,32,33,33,34,36,42,,,,,,,,,,,,,,
95853,0,1.5975,,-0.01,0.06,-0.07,-0,-1,-1,0.09,1.01,9,-2,113.52,28.98,71.43,113.94,12.87,3508,2,32,100.0,0.96,0.87,12.48,0.0,123.0,59,60,0,0,66,0,0,0,0,1,38,40,41,40,41,42,42,40,38,39,38,38,37,38,37,36,49,50,47,54,54,56,56,50,40,34,32,33,33,34,36,42,0.0,0.0,0.0,0.0,0,0,0.0,0,0.0,-1,0.0,0,0.0,1.5975
95873,0,1.5979,,,,,,,,,,,,,,,,,,,,,,,,,,,,,,,,,,,,38,40,41,40,41,42,42,40,38,39,38,38,37,38,37,36,49,50,47,54,54,56,56,50,40,34,32,33,33,34,36,42,,,,,,,,,,,,,,
95893,0,1.5982,,-0.04,0.05,-0.13,-0,1,-1,0.14,1.01,14,,,,,,,,,,,,,,,,,,,,,,,,,,38,40,41,40,41,42,42,40,38,39,38,38,37,38,37,36,49,50,47,54,54,56,56,50,40,34,32,33,33,34,36,42,,,,,,,,,,,,,,
95913,0,1.5986,,,,,,,,,,,,,,,,,,,,,,,,,,,,,,,,,,,,38,40,41,40,41,41,42,40,38,39,38,38,37,38,37,36,49,50,47,54,54,56,56,50,40,34,32,33,33,34,36,42,,,,,,,,,,,,,,
95933,0,1.5989,,0.13,0.05,-0.07,0,-1,-2,0.16,1.01,16,,,,,,,,,,,,,,,,,,,,,,,,,,38,40,41,40,41,41,42,40,38,39,38,38,37,38,37,36,49,50,47,54,54,56,56,50,39,33,32,33,33,34,36,42,,,,,,,,,,,,,,
95953,0,1.5992,,,,,,,,,,,-2,113.85,28.98,71.1,109.44,12.86,3561,2,32,100.0,0.96,0.86,12.49,0.0,120.0,59,60,0,0,66,0,0,0,0,1,38,40,41,40,41,41,42,40,38,39,38,38,37,38,36,36,49,50,47,54,54,56,56,50,39,33,32,33,33,34,36,42,0.0,0.0,0.0,0.0,0,0,0.0,0,0.0,-1,0.0,0,0.0,1.5992
95973,0,1.5996,,-0.0,0.07,-0.08,-0,-0,-1,0.11,1.01,11,,,,,,,,,,,,,,,,,,,,,,,,,,38,40,41,40,41,42,42,40,38,39,38,38,37,38,36,36,49,50,47,54,54,56,56,50,39,33,32,33,33,34,36,42,,,,,,,,,,,,,,
95993,0,1.5999,,,,,,,,,,,,,,,,,,,,,,,,,,,,,,,,,,,,38,40,41,40,41,42,42,40,38,39,38,38,37,38,36,36,49,50,47,54,54,56,56,50,39,33,32,33,32,33,36,42,,,,,,,,,,,,,,
96013,0,1.6002,,-0.09,0.02,-0.02,-0,0,-1,0.09,1.01,9,,,,,,,,,,,,,,,,,,,,,,,,,,38,40,41,40,41,42,42,40,38,39,38,38,37,38,36,36,49,50,47,54,54,56,56,50,39,33,32,33,32,33,36,42,,,,,,,,,,,,,,
96033,0,1.6005,,,,,,,,,,,,,,,,,,,,,,,,,,,,,,,,,,,,38,40,41,40,41,42,42,41,38,39,38,38,37,37,37,36,49,50,48,54,54,56,56,50,39,33,32,33,32,33,36,42,,,,,,,,,,,,,,
96053,0,1.6009,13.1,0.01,0.01,0.17,-0,0,0,0.17,1.01,17,-3,113.85,28.86,71.19,120.21,12.88,3611,2,32,100.0,0.96,0.86,12.48,0.0,131.0,59,61,0,0,66,0,0,0,0,1,38,40,41,40,41,42,42,41,38,39,38,38,37,37,37,36,49,50,48,54,54,56,56,50,39,33,32,33,32,34,36,42,0.0,0.0,0.0,0.0,0,0,0.0,0,0.0,-1,0.0,0,0.0,1.6009
96073,0,1.6012,,,,,,,,,,,,,,,,,,,,,,,,,,,,,,,,,,,,38,40,41,40,41,42,42,41,38,39,38,38,37,37,37,36,49,50,48,54,54,56,56,50,39,33,32,33,32,34,36,42,,,,,,,,,,,,,,
96093,0,1.6016,,-0.19,0.05,0.01,-0,-1,-0,0.2,1.01,20,,,,,,,,,,,,,,,,,,,,,,,,,,38,40,42,41,41,42,42,41,37,38,38,38,36,37,36,36,49,50,47,54,54,56,56,50,39,33,32,33,32,34,36,42,,,,,,,,,,,,,,
96113,0,1.6019,,,,,,,,,,,,,,,,,,,,,,,,,,,,,,,,,,,,38,40,42,41,41,42,42,41,37,38,38,38,36,37,36,36,49,50,47,54,54,56,56,50,39,33,32,32,32,33,36,42,,,,,,,,,,,,,,
96133,0,1.6022,,-0.04,0.05,0.15,-0,-0,1,0.16,1.01,16,,,,,,,,,,,,,,,,,,,,,,,,,,38,40,42,41,41,42,42,41,37,38,38,38,36,37,36,36,49,50,47,54,54,56,56,50,39,33,32,32,32,33,36,42,,,,,,,,,,,,,,
96153,0,1.6026,,,,,,,,,,,-2,113.76,28.86,71.31,110.1,12.87,3732,2,32,100.0,0.96,0.87,12.46,0.0,119.0,59,61,0,0,66,0,0,0,0,1,38,40,42,41,41,42,42,41,37,38,38,38,36,37,36,36,50,50,47,54,54,56,56,50,39,33,32,32,32,33,36,42,0.0,0.0,0.0,0.0,0,0,0.0,0,0.0,-1,0.0,0,0.0,1.6026
96173,0,1.6029,,-0.08,0.06,0.19,-0,0,1,0.21,1.01,21,,,,,,,,,,,,,,,,,,,,,,,,,,39,40,41,41,42,42,42,41,37,38,38,38,36,37,36,36,50,50,47,54,54,56,56,50,39,33,32,33,32,33,36,42,,,,,,,,,,,,,,
96193,0,1.6032,,,,,,,,,,,,,,,,,,,,,,,,,,,,,,,,,,,,39,40,41,41,42,42,42,41,37,38,38,38,36,37,36,36,50,50,47,54,54,56,56,50,39,33,32,33,32,33,36,42,,,,,,,,,,,,,,
96213,0,1.6035,,-0.2,0.04,0.22,-0,-0,1,0.3,1.01,30,,,,,,,,,,,,,,,,,,,,,,,,,,39,40,41,41,42,42,42,41,38,39,38,38,37,37,37,36,50,50,47,54,54,56,56,50,39,33,32,33,32,33,36,42,,,,,,,,,,,,,,
96233,0,1.6039,,,,,,,,,,,,,,,,,,,,,,,,,,,,,,,,,,,,38,40,41,40,42,42,42,41,38,39,38,38,37,37,37,36,50,50,48,54,54,56,56,50,39,33,32,33,32,33,36,42,,,,,,,,,,,,,,
96253,0,1.6042,,-0.05,0.04,0.36,-0,0,1,0.36,1.01,36,-2,113.64,28.86,71.43,114.15,12.83,3711,2,32,100.0,0.96,0.87,12.47,0.0,131.0,59,61,0,0,66,0,0,0,0,1,38,40,41,40,42,42,42,41,38,39,38,38,37,37,37,36,50,50,48,54,54,56,56,50,39,33,32,33,32,33,36,42,0.0,0.0,0.0,0.0,0,0,0.0,0,0.0,-1,0.0,0,0.0,1.6042
96273,0,1.6046,,,,,,,,,,,,,,,,,,,,,,,,,,,,,,,,,,,,38,40,41,40,42,42,42,41,38,39,38,38,36,37,36,36,50,50,48,54,54,56,56,50,39,33,32,33,32,33,36,42,,,,,,,,,,,,,,
96293,0,1.6049,,-0.21,0.08,0.14,-0,-1,1,0.27,1.01,27,,,,,,,,,,,,,,,,,,,,,,,,,,39,40,42,41,42,42,42,41,38,39,38,38,36,37,36,36,49,50,48,54,54,56,56,50,39,33,32,33,32,33,36,42,,,,,,,,,,,,,,
96313,0,1.6052,,,,,,,,,,,,,,,,,,,,,,,,,,,,,,,,,,,,39,40,42,41,42,42,42,41,38,39,38,38,36,37,36,36,49,50,48,54,54,56,56,50,39,33,32,33,32,33,36,42,,,,,,,,,,,,,,
96333,0,1.6056,,-0.09,0.07,0.09,-0,-2,0,0.15,1.01,14,,,,,,,,,,,,,,,,,,,,,,,,,,39,40,42,41,42,42,42,41,38,39,38,38,37,37,36,36,49,50,48,54,54,56,56,50,39,33,32,33,32,33,36,42,,,,,,,,,,,,,,
96353,0,1.6059,,,,,,,,,,,-2,113.52,28.98,71.43,114.48,12.89,3703,2,32,100.0,0.96,0.87,12.47,0.0,123.0,59,61,0,0,66,0,0,0,0,1,40,40,42,41,42,42,42,41,38,39,38,38,37,37,36,36,50,50,48,54,54,56,56,50,39,33,32,33,32,33,36,42,0.0,0.0,0.0,0.0,0,0,0.0,0,0.0,-1,0.0,0,0.0,1.6059
96373,0,1.6062,,-0.03,0.1,0.1,0,-2,-0,0.14,1.01,14,,,,,,,,,,,,,,,,,,,,,,,,,,40,40,42,41,42,42,42,41,38,39,38,38,37,37,36,36,50,50,48,54,54,56,56,50,39,33,32,33,32,33,36,42,,,,,,,,,,,,,,
96393,0,1.6066,,,,,,,,,,,,,,,,,,,,,,,,,,,,,,,,,,,,40,40,42,41,42,42,42,41,38,39,38,38,37,37,36,36,50,50,48,54,54,56,56,50,39,33,32,33,32,33,36,42,,,,,,,,,,,,,,
96413,0,1.6069,,-0.2,0.06,-0.04,0,-1,-0,0.21,1.01,21,,,,,,,,,,,,,,,,,,,,,,,,,,40,40,42,41,42,42,42,41,38,39,38,38,37,38,36,36,49,50,48,54,54,56,56,50,39,33,32,33,32,33,36,42,,,,,,,,,,,,,,
96433,0,1.6072,,,,,,,,,,,,,,,,,,,,,,,,,,,,,,,,,,,,40,40,42,41,42,42,42,41,38,39,38,38,37,38,36,36,49,50,48,54,54,56,56,50,39,33,32,33,32,33,36,42,,,,,,,,,,,,,,
96453,0,1.6076,,0.02,0.05,-0.07,-0,0,0,0.09,1.01,9,-2,113.85,28.86,71.19,111.75,12.87,3519,2,32,100.0,0.96,0.87,12.47,0.0,126.0,59,60,0,0,66,0,0,0,0,1,40,40,42,41,42,42,42,41,38,39,38,38,37,38,36,36,49,50,48,54,54,56,56,50,39,33,32,33,32,33,36,42,0.0,0.0,0.0,0.0,0,0,0.0,0,0.0,-1,0.0,0,0.0,1.6076
96473,0,1.6079,,,,,,,,,,,,,,,,,,,,,,,,,,,,,,,,,,,,38,40,41,40,42,42,42,40,37,39,38,38,37,37,36,36,50,50,48,54,54,56,56,50,39,33,32,33,32,33,36,42,,,,,,,,,,,,,,
96493,0,1.6082,,0.11,0.05,0.05,-0,-0,-0,0.13,1.01,13,,,,,,,,,,,,,,,,,,,,,,,,,,38,40,41,40,42,42,42,40,37,39,38,38,37,37,36,36,50,50,48,54,54,56,56,50,39,33,32,33,33,33,36,42,,,,,,,,,,,,,,
96513,0,1.6086,,,,,,,,,,,,,,,,,,,,,,,,,,,,,,,,,,,,38,40,41,40,42,42,42,40,37,39,38,38,37,37,36,36,50,50,48,54,54,56,56,50,39,33,32,33,33,33,36,42,,,,,,,,,,,,,,
96533,0,1.6089,,-0.01,0.03,-0.02,-0,1,0,0.04,1.01,4,,,,,,,,,,,,,,,,,,,,,,,,,,38,40,41,40,42,42,42,40,38,38,38,38,37,38,37,36,50,50,48,54,54,56,56,50,39,33,32,33,33,33,36,42,,,,,,,,,,,,,,
96553,0,1.6092,,,,,,,,,,,-2,113.64,29.07,71.31,110.85,12.84,3234,2,32,100.0,0.96,0.84,12.48,0.0,120.0,59,60,0,0,66,0,0,0,0,1,39,40,41,41,42,42,42,40,38,38,38,38,37,38,37,36,50,50,48,54,54,56,56,50,39,33,32,33,33,33,36,42,0.0,0.0,0.0,0.0,0,0,0.0,0,0.0,-1,0.0,0,0.0,1.6092
96573,0,1.6096,,-0.07,0.03,0.1,0,3,1,0.12,1.01,12,,,,,,,,,,,,,,,,,,,,,,,,,,39,40,41,41,42,42,42,40,38,38,38,38,37,38,37,36,50,50,48,54,54,56,56,50,39,33,32,33,33,33,36,42,,,,,,,,,,,,,,
96593,0,1.6099,,,,,,,,,,,,,,,,,,,,,,,,,,,,,,,,,,,,39,40,41,41,42,42,42,40,38,39,38,38,37,38,37,36,50,50,48,54,54,56,56,50,39,33,32,33,33,33,36,42,,,,,,,,,,,,,,
96613,0,1.6102,,0.22,0.02,0.02,-0,3,1,0.22,1.01,22,,,,,,,,,,,,,,,,,,,,,,,,,,39,40,41,41,42,42,42,41,38,39,38,38,37,38,37,36,50,50,48,54,54,56,56,50,39,33,32,33,33,33,36,42,,,,,,,,,,,,,,
96633,0,1.6105,,,,,,,,,,,,,,,,,,,,,,,,,,,,,,,,,,,,39,40,41,41,42,42,42,41,38,39,38,38,37,38,37,36,50,50,48,54,54,56,56,50,39,33,32,32,32,33,36,42,,,,,,,,,,,,,,
96653,0,1.6109,,0.17,0.04,0.16,0,4,1,0.24,1.01,24,-3,113.64,28.86,71.31,117.9,12.87,3408,2,32,100.0,0.96,0.84,12.48,0.0,117.0,59,60,0,0,66,0,0,0,0,1,39,40,41,41,42,42,42,41,38,39,38,38,37,38,36,36,50,50,48,54,54,56,56,50,39,33,32,32,32,33,36,42,0.0,0.0,0.0,0.0,0,0,0.0,0,0.0,-1,0.0,0,0.0,1.6109
96673,0,1.6112,,,,,,,,,,,,,,,,,,,,,,,,,,,,,,,,,,,,38,40,41,41,42,42,42,40,38,39,38,38,37,38,36,36,50,50,48,54,54,56,56,50,39,33,32,32,32,33,36,42,,,,,,,,,,,,,,
96693,0,1.6115,,-0.05,0.05,0.11,0,3,1,0.13,1.01,13,,,,,,,,,,,,,,,,,,,,,,,,,,38,40,41,41,42,42,42,40,38,39,38,38,37,38,36,36,50,50,48,54,54,56,56,50,39,33,32,33,32,33,36,42,,,,,,,,,,,,,,
96713,0,1.6119,,,,,,,,,,,,,,,,,,,,,,,,,,,,,,,,,,,,38,40,41,41,42,42,42,40,38,39,38,38,37,38,36,36,50,50,48,54,54,56,56,50,39,33,32,33,32,33,36,42,,,,,,,,,,,,,,
96733,0,1.6122,,0.19,0.03,0.05,-0,3,1,0.2,1.01,20,,,,,,,,,,,,,,,,,,,,,,,,,,39,40,41,41,41,42,42,40,37,39,38,38,37,38,36,36,50,50,48,54,54,56,57,50,39,33,32,33,32,33,36,42,,,,,,,,,,,,,,
96753,0,1.6126,,,,,,,,,,,-2,113.85,28.98,71.1,120.09,12.83,3479,2,32,100.0,0.96,0.84,12.48,0.0,126.0,59,60,0,0,66,0,0,0,0,1,39,40,41,41,41,42,42,40,37,39,38,38,37,38,36,36,50,50,48,54,54,56,57,50,39,33,32,33,32,33,36,42,0.0,0.0,0.0,0.0,0,0,0.0,0,0.0,-1,0.0,0,0.0,1.6126
96773,0,1.6129,,0.07,0.03,0.04,0,3,1,0.09,1.01,9,,,,,,,,,,,,,,,,,,,,,,,,,,39,40,41,41,41,42,42,40,37,39,38,38,37,38,36,36,50,50,48,54,54,56,57,50,39,33,32,33,32,33,36,42,,,,,,,,,,,,,,
96793,0,1.6132,,,,,,,,,,,,,,,,,,,,,,,,,,,,,,,,,,,,38,40,41,40,41,42,42,40,38,39,38,38,37,38,37,36,50,50,48,54,54,56,56,50,39,33,32,33,32,33,36,42,,,,,,,,,,,,,,
96813,0,1.6135,,0.04,0.02,-0.06,0,3,1,0.08,1.01,8,,,,,,,,,,,,,,,,,,,,,,,,,,38,40,41,40,41,42,42,40,38,39,38,38,37,38,37,36,50,50,48,54,54,56,56,50,39,33,32,33,32,34,36,42,,,,,,,,,,,,,,
96833,0,1.6139,,,,,,,,,,,,,,,,,,,,,,,,,,,,,,,,,,,,38,40,41,40,41,42,42,40,38,39,38,38,37,38,37,36,50,50,48,54,54,56,56,50,39,33,32,33,32,34,36,42,,,,,,,,,,,,,,
96853,0,1.6142,,0.18,0.02,0.0,0,1,0,0.18,1.01,18,-3,113.85,28.86,71.1,117.03,12.87,3550,2,32,100.0,0.96,0.87,12.48,0.0,128.0,58,59,0,0,66,0,0,0,0,1,38,40,41,40,41,42,42,40,38,39,38,38,37,38,37,36,50,50,48,54,54,56,57,51,39,33,32,33,32,34,36,42,0.0,0.0,0.0,0.0,0,0,0.0,0,0.0,-1,0.0,0,0.0,1.6142
96873,0,1.6146,,,,,,,,,,,,,,,,,,,,,,,,,,,,,,,,,,,,39,40,41,40,42,42,42,41,38,39,38,38,37,38,37,36,50,50,48,54,54,56,57,51,39,33,32,32,32,33,36,42,,,,,,,,,,,,,,
96893,0,1.6149,,0.03,0.03,-0.07,0,2,1,0.08,1.01,8,,,,,,,,,,,,,,,,,,,,,,,,,,39,40,41,40,42,42,42,41,38,39,38,38,37,38,37,36,50,50,48,54,54,56,57,51,39,33,32,32,32,33,36,42,,,,,,,,,,,,,,
96913,0,1.6152,,,,,,,,,,,,,,,,,,,,,,,,,,,,,,,,,,,,39,40,41,40,42,42,42,41,38,39,38,38,37,38,37,36,50,50,48,54,54,56,57,51,39,33,32,32,32,33,36,42,,,,,,,,,,,,,,
96933,0,1.6156,,0.13,-0.01,-0.02,-0,2,1,0.13,1.01,13,,,,,,,,,,,,,,,,,,,,,,,,,,38,40,41,40,42,42,42,40,38,39,38,38,37,38,37,36,50,50,48,54,54,56,56,50,39,33,32,32,32,33,36,42,,,,,,,,,,,,,,
96953,0,1.6159,,,,,,,,,,,-2,113.64,28.98,71.43,117.12,12.91,3508,2,32,100.0,0.96,0.84,12.49,0.0,127.0,58,59,0,0,66,0,0,0,0,1,38,40,41,40,42,42,42,40,38,39,38,38,37,38,37,36,50,50,48,54,54,56,56,50,39,33,32,32,32,33,36,42,0.0,0.0,0.0,0.0,0,0,0.0,0,0.0,-1,0.0,0,0.0,1.6159
96973,0,1.6162,,0.2,0.01,0.09,0,2,1,0.22,1.01,21,,,,,,,,,,,,,,,,,,,,,,,,,,38,40,41,40,42,42,42,40,38,39,38,38,38,38,37,36,50,50,48,54,54,56,56,50,39,33,32,32,32,33,36,42,,,,,,,,,,,,,,
96993,0,1.6165,,,,,,,,,,,,,,,,,,,,,,,,,,,,,,,,,,,,39,40,41,40,41,42,42,40,38,39,38,38,38,38,37,36,50,50,48,54,54,56,57,51,39,33,32,32,32,33,36,42,,,,,,,,,,,,,,
97013,0,1.6169,,0.06,0.0,-0.01,0,3,1,0.06,1.01,6,,,,,,,,,,,,,,,,,,,,,,,,,,39,40,41,40,41,42,42,40,38,39,38,38,38,38,37,36,50,50,48,54,54,56,57,51,39,33,32,32,32,33,36,42,,,,,,,,,,,,,,
97033,0,1.6172,,,,,,,,,,,,,,,,,,,,,,,,,,,,,,,,,,,,39,40,41,40,41,42,42,40,38,40,38,38,38,38,37,37,50,50,48,54,54,56,57,51,39,33,32,32,32,33,36,42,,,,,,,,,,,,,,
97053,0,1.6176,13.1,-0.06,0.01,-0.02,0,3,1,0.07,1.01,7,-2,113.85,28.98,71.19,113.07,12.83,3343,2,32,100.0,0.96,0.84,12.49,0.0,117.0,58,59,0,0,66,0,0,0,0,1,38,40,41,40,42,42,42,40,38,40,38,38,38,38,37,37,50,50,48,54,54,56,56,50,39,33,32,32,32,33,36,42,0.0,0.0,0.0,0.0,0,0,0.0,0,0.0,-1,0.0,0,0.0,1.6176
97073,0,1.6179,,,,,,,,,,,,,,,,,,,,,,,,,,,,,,,,,,,,38,40,41,40,42,42,42,40,38,40,38,38,38,38,37,37,50,50,48,54,54,56,56,50,39,33,32,32,32,33,36,42,,,,,,,,,,,,,,
97093,0,1.6182,,0.12,0.0,0.06,-0,2,2,0.13,1.01,13,,,,,,,,,,,,,,,,,,,,,,,,,,38,40,41,40,42,42,42,40,38,40,38,38,38,38,37,37,50,50,48,54,54,56,56,50,39,33,32,32,32,33,36,42,,,,,,,,,,,,,,
97113,0,1.6186,,,,,,,,,,,,,,,,,,,,,,,,,,,,,,,,,,,,39,40,41,40,41,41,42,40,38,39,38,38,38,38,38,36,49,50,47,54,54,56,56,50,39,33,32,32,32,33,36,42,,,,,,,,,,,,,,
97133,0,1.6189,,0.14,0.02,0.13,0,1,1,0.19,1.01,19,,,,,,,,,,,,,,,,,,,,,,,,,,39,40,41,40,41,41,42,40,38,39,38,38,38,38,38,36,49,50,47,54,54,56,56,50,39,33,32,32,32,33,36,42,,,,,,,,,,,,,,
97153,0,1.6192,,,,,,,,,,,-2,113.76,29.07,71.19,115.47,12.87,3436,2,32,100.0,0.96,0.88,12.49,0.0,114.0,58,59,0,0,66,0,0,0,0,1,39,40,41,40,41,41,42,40,38,39,38,38,38,38,38,36,49,50,47,54,54,56,56,50,39,33,32,32,32,33,36,42,0.0,0.0,0.0,0.0,0,0,0.0,0,0.0,-1,0.0,0,0.0,1.6192
97173,0,1.6196,,-0.02,0.01,0.12,-0,1,1,0.12,1.01,12,,,,,,,,,,,,,,,,,,,,,,,,,,38,40,41,40,41,41,42,40,38,39,38,38,38,38,37,37,50,50,48,54,54,56,57,50,39,33,32,32,32,33,36,42,,,,,,,,,,,,,,
97193,0,1.6199,,,,,,,,,,,,,,,,,,,,,,,,,,,,,,,,,,,,38,40,41,40,41,41,42,40,38,39,38,38,38,38,37,37,50,50,48,54,54,56,57,50,38,33,32,32,32,33,36,42,,,,,,,,,,,,,,
97213,0,1.6202,,-0.13,0.02,0.2,-0,-2,0,0.24,1.01,24,,,,,,,,,,,,,,,,,,,,,,,,,,38,40,41,40,41,41,42,40,38,39,38,38,38,38,37,37,50,50,48,54,54,56,57,50,38,33,32,32,32,33,36,42,,,,,,,,,,,,,,
97233,0,1.6205,,,,,,,,,,,,,,,,,,,,,,,,,,,,,,,,,,,,38,40,41,40,41,41,42,40,38,39,38,38,38,38,37,36,50,50,48,54,54,56,57,50,38,33,32,32,32,33,36,42,,,,,,,,,,,,,,
97253,0,1.6209,,0.14,0.01,0.2,-0,-3,0,0.24,1.01,24,-3,113.43,28.98,71.43,113.16,12.84,3691,2,32,100.0,0.96,0.85,12.49,0.0,126.0,58,58,0,0,66,0,0,0,0,1,39,40,41,41,42,42,42,40,38,39,38,38,38,38,37,36,50,50,48,54,54,56,57,50,39,33,32,33,32,33,36,42,0.0,0.0,0.0,0.0,0,0,0.0,0,0.0,-1,0.0,0,0.0,1.6209
97273,0,1.6212,,,,,,,,,,,,,,,,,,,,,,,,,,,,,,,,,,,,39,40,41,41,42,42,42,40,38,39,38,38,38,38,37,36,50,50,48,54,54,56,57,50,39,33,32,33,32,33,36,42,,,,,,,,,,,,,,
97293,0,1.6216,,0.01,-0.01,0.16,-0,-2,0,0.16,1.01,16,,,,,,,,,,,,,,,,,,,,,,,,,,39,40,41,41,42,42,42,40,38,40,38,38,38,38,38,37,50,50,48,54,54,56,57,50,39,33,32,33,32,33,36,42,,,,,,,,,,,,,,
97313,0,1.6219,,,,,,,,,,,,,,,,,,,,,,,,,,,,,,,,,,,,38,40,41,40,41,41,42,40,38,40,38,38,38,38,38,37,50,50,48,54,54,56,57,50,39,33,32,33,32,33,36,42,,,,,,,,,,,,,,
97333,0,1.6222,,0.05,-0.01,0.06,-0,-1,0,0.08,1.01,8,,,,,,,,,,,,,,,,,,,,,,,,,,38,40,41,40,41,41,42,40,38,40,38,38,38,38,38,37,50,50,48,54,54,56,57,50,39,33,32,33,32,33,36,42,,,,,,,,,,,,,,
97353,0,1.6226,,,,,,,,,,,-2,113.76,28.86,71.31,120.3,12.89,3840,2,32,100.0,0.96,0.88,12.47,0.0,131.0,56,56,0,0,66,0,0,0,0,1,38,40,41,40,41,41,42,40,38,40,38,38,38,38,38,37,50,50,48,54,54,56,57,50,39,33,32,33,32,33,36,42,0.0,0.0,0.0,0.0,0,0,0.0,0,0.0,-1,0.0,0,0.0,1.6226
97373,0,1.6229,,0.04,0.04,0.15,0,-1,-0,0.16,1.01,16,,,,,,,,,,,,,,,,,,,,,,,,,,38,40,41,40,41,42,42,40,38,40,38,38,38,38,38,37,50,50,48,54,54,56,57,50,39,33,32,33,32,33,36,42,,,,,,,,,,,,,,
97393,0,1.6232,,,,,,,,,,,,,,,,,,,,,,,,,,,,,,,,,,,,38,40,41,40,41,42,42,40,38,40,38,38,38,38,38,37,50,50,48,54,54,56,57,50,39,33,32,33,32,33,36,42,,,,,,,,,,,,,,
97413,0,1.6235,,-0.11,0.06,-0.1,0,-3,-1,0.17,1.01,16,,,,,,,,,,,,,,,,,,,,,,,,,,38,40,41,40,41,42,42,40,38,40,38,38,38,38,38,37,50,50,48,54,54,56,57,50,39,33,32,33,32,33,36,42,,,,,,,,,,,,,,
97433,0,1.6239,,,,,,,,,,,,,,,,,,,,,,,,,,,,,,,,,,,,38,40,41,40,42,41,42,40,38,39,38,38,37,38,37,36,50,50,48,54,54,56,57,50,39,33,32,33,32,33,36,42,,,,,,,,,,,,,,
97453,0,1.6242,,0.08,0.07,-0.13,0,-4,-2,0.16,1.01,16,-2,113.85,28.86,71.19,112.08,12.84,3732,2,32,100.0,0.96,0.8,12.47,0.0,131.0,56,55,0,0,66,0,0,0,0,1,38,40,41,40,42,41,42,40,38,39,38,38,37,38,37,36,50,50,48,54,54,56,57,50,39,33,32,33,33,33,36,42,0.0,0.0,0.0,0.0,0,0,0.0,0,0.0,-1,0.0,0,0.0,1.6242
97473,0,1.6246,,,,,,,,,,,,,,,,,,,,,,,,,,,,,,,,,,,,38,40,41,40,42,41,42,40,38,39,38,38,37,38,37,36,50,50,48,54,54,56,57,50,39,33,32,33,33,33,36,42,,,,,,,,,,,,,,
97493,0,1.6249,,-0.09,0.07,-0.37,0,-4,-1,0.38,1.01,38,,,,,,,,,,,,,,,,,,,,,,,,,,38,40,41,40,41,41,42,40,38,39,38,38,37,38,38,37,50,50,48,54,54,56,56,50,39,33,32,33,33,33,36,42,,,,,,,,,,,,,,
97513,0,1.6252,,,,,,,,,,,,,,,,,,,,,,,,,,,,,,,,,,,,38,40,41,40,41,41,42,40,38,39,38,38,37,38,38,37,50,50,48,54,54,56,56,50,39,33,32,32,32,33,36,42,,,,,,,,,,,,,,
97533,0,1.6256,,0.04,0.02,-0.31,-0,-4,-1,0.31,1.01,31,,,,,,,,,,,,,,,,,,,,,,,,,,38,40,41,40,41,41,42,40,38,39,38,38,37,38,38,37,50,50,48,54,54,56,56,50,39,33,32,32,32,33,36,42,,,,,,,,,,,,,,
97553,0,1.6259,,,,,,,,,,,-3,113.76,28.98,70.98,111.51,12.88,3679,2,32,100.0,0.96,0.82,12.48,0.0,125.0,54,54,0,0,66,0,0,0,0,1,38,40,41,40,41,41,42,40,38,39,38,38,37,38,38,36,50,50,48,54,54,56,56,50,39,33,32,32,32,33,36,42,0.0,0.0,0.0,0.0,0,0,0.0,0,0.0,-1,0.0,0,0.0,1.6259
97573,0,1.6262,,0.03,0.07,-0.07,0,-3,-1,0.11,1.01,11,,,,,,,,,,,,,,,,,,,,,,,,,,39,40,41,41,42,42,42,41,38,39,38,38,37,38,38,36,50,50,48,54,54,56,57,50,39,33,32,33,32,33,36,42,,,,,,,,,,,,,,
97593,0,1.6265,,,,,,,,,,,,,,,,,,,,,,,,,,,,,,,,,,,,39,40,41,41,42,42,42,41,38,39,38,38,37,38,38,36,50,50,48,54,54,56,57,50,39,33,32,33,32,33,36,42,,,,,,,,,,,,,,
97613,0,1.6269,,-0.16,0.05,-0.22,0,-3,-1,0.27,1.01,27,,,,,,,,,,,,,,,,,,,,,,,,,,39,40,41,41,42,42,42,41,38,39,38,38,38,38,38,36,50,50,48,54,54,56,57,50,39,33,32,33,32,33,36,42,,,,,,,,,,,,,,
97633,0,1.6272,,,,,,,,,,,,,,,,,,,,,,,,,,,,,,,,,,,,38,40,41,40,41,41,42,40,38,39,38,38,38,38,38,36,50,50,48,54,54,56,57,50,39,33,32,32,32,33,36,42,,,,,,,,,,,,,,
97653,0,1.6276,,0.11,0.07,-0.26,0,-2,-1,0.29,1.01,29,-2,113.76,28.98,71.31,112.74,12.85,3699,2,32,100.0,0.96,0.84,12.48,0.0,127.0,53,54,0,0,66,0,0,0,0,1,38,40,41,40,41,41,42,40,38,39,38,38,38,38,38,36,50,50,48,54,54,56,57,50,39,33,32,32,32,33,36,42,0.0,0.0,0.0,0.0,0,0,0.0,0,0.0,-1,0.0,0,0.0,1.6276
97673,0,1.6279,,,,,,,,,,,,,,,,,,,,,,,,,,,,,,,,,,,,38,40,41,40,41,41,42,40,38,39,38,38,37,38,37,36,50,50,48,54,54,56,57,50,39,33,32,32,32,33,36,42,,,,,,,,,,,,,,
97693,0,1.6282,,0.06,0.07,-0.12,0,-2,-1,0.15,1.01,15,,,,,,,,,,,,,,,,,,,,,,,,,,38,40,41,40,41,42,42,40,38,39,38,38,37,38,37,36,50,50,48,54,54,56,57,50,39,33,32,32,32,33,36,42,,,,,,,,,,,,,,
97713,0,1.6286,,,,,,,,,,,,,,,,,,,,,,,,,,,,,,,,,,,,38,40,41,40,41,42,42,40,38,39,38,38,37,38,37,36,50,50,48,54,54,56,57,50,39,33,32,32,32,33,36,42,,,,,,,,,,,,,,
97733,0,1.6289,,-0.15,0.03,-0.12,0,-2,-1,0.19,1.01,19,,,,,,,,,,,,,,,,,,,,,,,,,,38,40,41,40,41,42,42,40,38,39,38,38,38,38,37,37,50,50,48,54,54,56,57,50,39,33,32,32,32,33,36,42,,,,,,,,,,,,,,
97753,0,1.6292,,,,,,,,,,,-2,113.52,29.07,71.43,113.73,12.88,3387,2,32,100.0,0.96,0.85,12.47,0.0,119.0,53,54,0,0,66,0,0,0,0,1,39,40,41,40,41,41,42,40,38,39,38,38,38,38,37,37,49,50,48,54,54,56,56,50,39,33,32,32,32,33,36,42,0.0,0.0,0.0,0.0,0,0,0.0,0,0.0,-1,0.0,0,0.0,1.6292
97773,0,1.6296,,-0.05,0.02,-0.11,-0,-4,-1,0.12,1.01,12,,,,,,,,,,,,,,,,,,,,,,,,,,39,40,41,40,41,41,42,40,38,39,38,38,38,38,37,37,49,50,48,54,54,56,56,50,39,33,32,33,32,33,36,42,,,,,,,,,,,,,,
97793,0,1.6299,,,,,,,,,,,,,,,,,,,,,,,,,,,,,,,,,,,,39,40,41,40,41,41,42,40,38,39,38,38,38,38,37,37,49,50,48,54,54,56,56,50,39,33,32,33,32,33,36,42,,,,,,,,,,,,,,
97813,0,1.6302,,0.03,0.06,-0.05,0,-3,-1,0.08,1.01,8,,,,,,,,,,,,,,,,,,,,,,,,,,39,40,41,41,41,42,42,41,38,39,38,38,37,38,37,36,50,50,47,54,54,56,56,50,39,33,32,33,32,33,36,42,,,,,,,,,,,,,,
97833,0,1.6306,,,,,,,,,,,,,,,,,,,,,,,,,,,,,,,,,,,,39,40,41,41,41,42,42,41,38,39,38,38,37,38,37,36,50,50,47,54,54,56,56,50,39,33,32,32,32,33,36,42,,,,,,,,,,,,,,
97853,0,1.6309,,-0.16,0.06,-0.16,-0,-2,-1,0.24,1.01,24,-2,113.85,28.86,71.19,115.71,12.84,3432,2,32,100.0,0.96,0.88,12.48,0.0,120.0,54,54,0,0,66,0,0,0,0,1,39,40,41,41,41,42,42,41,38,39,38,38,37,38,37,36,50,50,47,54,54,56,56,50,39,33,32,32,32,33,36,42,0.0,0.0,0.0,0.0,0,0,0.0,0,0.0,-1,0.0,0,0.0,1.6309
97873,0,1.6312,,,,,,,,,,,,,,,,,,,,,,,,,,,,,,,,,,,,38,40,41,40,41,42,42,40,38,39,38,38,37,38,37,36,50,50,47,54,54,56,56,50,39,33,32,32,32,33,36,42,,,,,,,,,,,,,,
97893,0,1.6316,,0.07,0.04,-0.02,-0,-1,0,0.09,1.01,9,,,,,,,,,,,,,,,,,,,,,,,,,,38,40,41,40,41,42,42,40,38,39,38,38,37,38,37,36,49,50,48,54,54,56,57,50,39,33,32,33,32,33,36,42,,,,,,,,,,,,,,
97913,0,1.6319,,,,,,,,,,,,,,,,,,,,,,,,,,,,,,,,,,,,38,40,41,40,41,42,42,40,38,39,38,38,37,38,37,36,49,50,48,54,54,56,57,50,39,33,32,33,32,33,36,42,,,,,,,,,,,,,,
97933,0,1.6322,,0.02,0.04,0.14,-0,-0,0,0.14,1.01,14,,,,,,,,,,,,,,,,,,,,,,,,,,38,40,41,40,41,42,42,40,37,39,38,38,37,38,37,36,49,50,48,54,54,56,57,50,39,33,32,33,32,33,36,42,,,,,,,,,,,,,,
97953,0,1.6326,,,,,,,,,,,-3,113.85,29.07,71.19,114.06,12.89,3287,2,32,100.0,0.96,0.85,12.48,0.0,121.0,54,54,0,0,66,0,0,0,0,1,38,40,41,40,41,41,41,40,37,39,38,38,37,38,37,36,50,50,48,54,54,56,56,50,39,33,32,32,32,33,36,42,0.0,0.0,0.0,0.0,0,0,0.0,0,0.0,-1,0.0,0,0.0,1.6326
97973,0,1.6329,,-0.16,0.04,0.09,-0,-1,-0,0.19,1.01,19,,,,,,,,,,,,,,,,,,,,,,,,,,38,40,41,40,41,41,41,40,37,39,38,38,37,38,37,36,50,50,48,54,54,56,56,50,39,33,32,32,32,33,36,42,,,,,,,,,,,,,,
97993,0,1.6332,,,,,,,,,,,,,,,,,,,,,,,,,,,,,,,,,,,,38,40,41,40,41,41,41,40,37,39,38,38,37,38,37,36,50,50,48,54,54,56,56,50,39,33,32,32,32,33,36,42,,,,,,,,,,,,,,
98013,0,1.6335,,-0.05,0.02,0.14,-0,-2,0,0.15,1.01,15,,,,,,,,,,,,,,,,,,,,,,,,,,38,40,41,40,41,41,41,40,37,39,38,38,37,38,37,36,49,50,48,54,54,56,56,50,39,33,32,32,32,33,36,42,,,,,,,,,,,,,,
98033,0,1.6339,,,,,,,,,,,,,,,,,,,,,,,,,,,,,,,,,,,,38,40,41,40,41,41,41,40,37,39,38,38,37,38,37,36,49,50,48,54,54,56,56,50,39,33,32,32,32,33,36,42,,,,,,,,,,,,,,
98053,0,1.6342,13.06,0.12,0.03,-0.04,-0,-2,-0,0.13,1.01,13,-2,113.43,29.07,71.43,117.03,12.82,3425,2,32,100.0,0.96,0.84,12.48,0.0,116.0,53,54,0,0,66,0,0,0,0,1,38,40,41,40,41,41,41,40,38,39,38,38,37,38,37,36,49,50,48,54,54,56,56,50,39,33,32,32,32,33,36,42,0.0,0.0,0.0,0.0,0,0,0.0,0,0.0,-1,0.0,0,0.0,1.6342
98073,0,1.6345,,,,,,,,,,,,,,,,,,,,,,,,,,,,,,,,,,,,38,40,41,41,41,42,42,41,38,39,38,38,37,38,37,36,49,50,47,54,54,56,56,50,39,33,32,32,32,33,36,42,,,,,,,,,,,,,,
98093,0,1.6349,,0.05,0.0,0.05,-0,-1,-0,0.07,1.01,7,,,,,,,,,,,,,,,,,,,,,,,,,,38,40,41,41,41,42,42,41,38,39,38,38,37,38,37,36,49,50,47,54,54,56,56,50,38,33,32,32,32,33,36,42,,,,,,,,,,,,,,
98113,0,1.6352,,,,,,,,,,,,,,,,,,,,,,,,,,,,,,,,,,,,38,40,41,41,41,42,42,41,38,39,38,38,37,38,37,36,49,50,47,54,54,56,56,50,38,33,32,32,32,33,36,42,,,,,,,,,,,,,,
98133,0,1.6356,,-0.15,0.04,-0.22,-0,-2,-1,0.27,1.01,26,,,,,,,,,,,,,,,,,,,,,,,,,,39,40,41,40,42,42,42,40,38,39,38,38,37,38,37,36,49,50,48,54,54,56,56,50,38,33,32,32,32,33,36,42,,,,,,,,,,,,,,
98153,0,1.6359,,,,,,,,,,,-2,113.97,28.98,71.1,120.09,12.87,3576,2,32,100.0,0.96,0.86,12.48,0.0,127.0,53,54,0,0,66,0,0,0,0,1,39,40,41,40,42,42,42,40,38,39,38,38,37,38,37,36,49,50,48,54,54,56,56,50,38,33,32,32,32,33,36,42,0.0,0.0,0.0,0.0,0,0,0.0,0,0.0,-1,0.0,0,0.0,1.6359
98173,0,1.6362,,0.07,0.05,-0.23,-0,-2,-0,0.25,1.01,25,,,,,,,,,,,,,,,,,,,,,,,,,,39,40,41,40,42,42,42,40,38,39,38,38,37,38,37,36,49,50,48,54,54,56,56,50,38,33,32,32,32,33,36,42,,,,,,,,,,,,,,
98193,0,1.6365,,,,,,,,,,,,,,,,,,,,,,,,,,,,,,,,,,,,38,40,41,40,41,41,41,40,37,39,38,38,37,38,37,36,49,50,48,54,54,56,56,50,38,33,32,32,32,33,36,42,,,,,,,,,,,,,,
98213,0,1.6369,,-0.02,0.07,-0.21,0,0,-0,0.22,1.01,22,,,,,,,,,,,,,,,,,,,,,,,,,,38,40,41,40,41,41,41,40,37,39,38,38,37,38,37,36,49,50,47,54,54,56,56,50,39,32,32,32,32,33,36,42,,,,,,,,,,,,,,
98233,0,1.6372,,,,,,,,,,,,,,,,,,,,,,,,,,,,,,,,,,,,38,40,41,40,41,41,41,40,37,39,38,38,37,38,37,36,49,50,47,54,54,56,56,50,39,32,32,32,32,33,36,42,,,,,,,,,,,,,,
98253,0,1.6376,,-0.12,0.06,-0.2,-0,0,-0,0.24,1.01,24,-3,113.85,29.07,71.1,108.66,12.86,3323,2,32,100.0,0.96,0.85,12.48,0.0,121.0,50,51,0,0,66,0,0,0,0,1,38,40,41,40,41,41,41,40,37,39,38,38,37,38,37,36,49,50,47,54,54,56,56,50,39,32,32,32,32,33,36,42,0.0,0.0,0.0,0.0,0,0,0.0,0,0.0,-1,0.0,0,0.0,1.6376
98273,0,1.6379,,,,,,,,,,,,,,,,,,,,,,,,,,,,,,,,,,,,38,40,41,40,41,41,41,40,37,39,38,38,37,38,37,36,49,50,48,54,54,56,56,50,39,33,32,33,32,34,36,42,,,,,,,,,,,,,,
98293,0,1.6382,,0.08,0.03,-0.15,-0,0,0,0.17,1.01,17,,,,,,,,,,,,,,,,,,,,,,,,,,38,40,41,40,41,41,41,40,37,39,38,38,37,38,37,36,49,50,48,54,54,56,56,50,39,33,32,33,32,34,36,42,,,,,,,,,,,,,,
98313,0,1.6386,,,,,,,,,,,,,,,,,,,,,,,,,,,,,,,,,,,,38,40,41,40,41,41,41,40,38,39,38,38,38,38,37,36,49,50,48,54,54,56,56,50,39,33,32,33,32,34,36,42,,,,,,,,,,,,,,
98333,0,1.6389,,0.09,0.06,0.03,-0,-1,-0,0.11,1.01,11,,,,,,,,,,,,,,,,,,,,,,,,,,38,40,41,40,41,41,42,40,38,39,38,38,38,38,37,36,50,50,48,54,54,56,57,50,39,33,32,33,33,33,36,42,,,,,,,,,,,,,,
98353,0,1.6392,,,,,,,,,,,-3,113.76,28.98,71.43,118.77,12.89,3501,2,32,100.0,0.96,0.87,12.48,0.0,111.0,50,50,0,0,66,0,0,0,0,1,38,40,41,40,41,41,42,40,38,39,38,38,38,38,37,36,50,50,48,54,54,56,57,50,39,33,32,33,33,33,36,42,0.0,0.0,0.0,0.0,0,0,0.0,0,0.0,-1,0.0,0,0.0,1.6392
98373,0,1.6395,,-0.05,0.04,0.06,-0,1,1,0.09,1.01,9,,,,,,,,,,,,,,,,,,,,,,,,,,38,40,41,40,41,41,42,40,38,40,38,38,38,38,37,36,50,50,48,54,54,56,57,50,39,33,32,33,33,33,36,42,,,,,,,,,,,,,,
98393,0,1.6399,,,,,,,,,,,,,,,,,,,,,,,,,,,,,,,,,,,,38,40,41,40,41,42,42,40,38,40,38,38,38,38,37,36,50,50,48,54,54,56,57,50,39,33,32,33,33,34,36,42,,,,,,,,,,,,,,
98413,0,1.6402,,-0.07,0.01,0.18,-0,-1,0,0.19,1.01,19,,,,,,,,,,,,,,,,,,,,,,,,,,38,40,41,40,41,42,42,40,38,40,38,38,38,38,37,36,50,50,48,54,54,56,57,50,39,33,32,33,33,34,36,42,,,,,,,,,,,,,,
98433,0,1.6406,,,,,,,,,,,,,,,,,,,,,,,,,,,,,,,,,,,,38,40,41,40,41,42,42,40,38,39,38,38,37,38,37,36,50,50,48,54,54,56,57,50,39,33,32,33,33,34,36,42,,,,,,,,,,,,,,
98453,0,1.6409,,0.03,0.02,0.27,-0,-2,-0,0.28,1.01,28,-2,113.85,29.07,70.98,118.02,12.88,3646,2,32,100.0,0.96,0.87,12.49,0.0,129.0,49,50,0,0,66,0,0,0,0,1,38,40,41,40,41,42,42,40,38,39,38,38,37,38,37,36,50,50,48,54,54,56,56,51,39,33,32,33,33,34,36,42,0.0,0.0,0.0,0.0,0,0,0.0,0,0.0,-1,0.0,0,0.0,1.6409
98473,0,1.6412,,,,,,,,,,,,,,,,,,,,,,,,,,,,,,,,,,,,38,40,41,40,41,42,42,40,38,39,38,38,37,38,37,36,50,50,48,54,54,56,56,51,40,33,32,33,33,34,36,42,,,,,,,,,,,,,,
98493,0,1.6416,,-0.06,0.02,0.03,-0,-1,-1,0.07,1.01,7,,,,,,,,,,,,,,,,,,,,,,,,,,38,40,41,40,41,42,42,40,38,39,38,38,37,38,37,36,50,50,48,54,54,56,56,51,40,33,32,33,33,34,36,42,,,,,,,,,,,,,,
98513,0,1.6419,,,,,,,,,,,,,,,,,,,,,,,,,,,,,,,,,,,,39,40,41,41,42,42,42,40,38,39,38,38,38,38,37,37,49,50,48,54,54,56,57,50,40,33,32,33,33,34,36,42,,,,,,,,,,,,,,
98533,0,1.6422,,-0.05,-0.01,-0.05,-0,-0,-0,0.07,1.01,7,,,,,,,,,,,,,,,,,,,,,,,,,,39,40,41,41,42,42,42,40,38,39,38,38,38,38,37,37,49,50,48,54,54,56,57,50,39,33,32,33,33,34,36,42,,,,,,,,,,,,,,
98553,0,1.6426,,,,,,,,,,,-3,113.85,28.98,71.19,112.29,12.88,3711,2,32,100.0,0.96,0.88,12.47,0.0,124.0,50,49,0,0,66,0,0,0,0,1,39,40,41,41,42,42,42,40,38,39,38,38,38,38,37,37,49,50,48,54,54,56,57,50,39,33,32,33,33,34,36,42,0.0,0.0,0.0,0.0,0,0,0.0,0,0.0,-1,0.0,0,0.0,1.6426
98573,0,1.6429,,0.07,-0.0,0.08,-0,-0,0,0.11,1.01,11,,,,,,,,,,,,,,,,,,,,,,,,,,39,40,42,41,42,42,42,41,38,40,38,38,38,38,37,37,49,50,48,54,54,56,57,50,39,33,32,33,33,34,36,42,,,,,,,,,,,,,,
98593,0,1.6432,,,,,,,,,,,,,,,,,,,,,,,,,,,,,,,,,,,,39,40,42,41,42,42,42,41,38,40,38,38,38,38,37,37,50,51,48,54,54,56,57,50,39,33,32,33,33,34,36,42,,,,,,,,,,,,,,
98613,0,1.6435,,-0.06,-0.01,0.04,-0,1,1,0.07,1.01,7,,,,,,,,,,,,,,,,,,,,,,,,,,39,40,42,41,42,42,42,41,38,40,38,38,38,38,37,37,50,51,48,54,54,56,57,50,39,33,32,33,33,34,36,42,,,,,,,,,,,,,,
98633,0,1.6439,,,,,,,,,,,,,,,,,,,,,,,,,,,,,,,,,,,,39,40,42,41,42,42,42,41,38,40,39,38,38,38,38,37,50,51,48,54,54,56,57,50,39,33,32,33,33,34,36,42,,,,,,,,,,,,,,
98653,0,1.6442,,0.13,0.0,-0.09,-0,1,1,0.16,1.01,16,-3,113.52,28.98,71.43,115.71,12.88,3703,2,32,100.0,0.96,0.87,12.47,0.0,125.0,50,49,0,0,66,0,0,0,0,1,39,40,42,41,42,42,42,40,38,40,39,38,38,38,38,37,50,51,48,54,54,56,57,50,39,33,32,33,32,33,36,42,0.0,0.0,0.0,0.0,0,0,0.0,0,0.0,-1,0.0,0,0.0,1.6442
98673,0,1.6446,,,,,,,,,,,,,,,,,,,,,,,,,,,,,,,,,,,,39,40,42,41,42,42,42,40,38,40,39,38,38,38,38,37,50,51,48,54,54,56,57,50,39,33,32,33,32,33,36,42,,,,,,,,,,,,,,
98693,0,1.6449,,0.12,0.04,0.01,-0,1,0,0.12,1.01,12,,,,,,,,,,,,,,,,,,,,,,,,,,39,40,42,41,42,42,42,40,38,40,39,38,38,38,38,37,50,51,48,54,54,56,57,50,39,33,32,33,32,33,36,42,,,,,,,,,,,,,,
98713,0,1.6452,,,,,,,,,,,,,,,,,,,,,,,,,,,,,,,,,,,,39,41,42,41,42,42,42,41,38,40,39,38,38,38,38,37,50,51,49,54,54,56,57,50,40,34,32,33,33,34,36,42,,,,,,,,,,,,,,
98733,0,1.6456,,-0.05,0.01,-0.05,-0,2,0,0.07,1.01,7,,,,,,,,,,,,,,,,,,,,,,,,,,39,41,42,41,42,42,42,41,38,40,39,38,38,38,38,37,50,51,49,54,54,56,57,50,40,34,32,33,33,34,36,42,,,,,,,,,,,,,,
98753,0,1.6459,,,,,,,,,,,-3,113.64,28.98,71.43,111.09,12.89,3699,2,32,100.0,0.96,0.88,12.47,0.0,126.0,50,49,0,0,66,0,0,0,0,1,39,41,42,41,42,42,42,41,38,40,38,38,38,38,38,37,50,51,49,54,54,56,57,50,40,34,32,33,33,34,36,42,0.0,0.0,0.0,0.0,0,0,0.0,0,0.0,-1,0.0,0,0.0,1.6459
98773,0,1.6462,,0.14,-0.04,0.07,-0,1,1,0.16,1.01,16,,,,,,,,,,,,,,,,,,,,,,,,,,39,41,42,41,42,42,42,40,38,40,38,38,38,38,38,37,50,51,49,54,54,56,57,50,40,34,32,33,33,34,36,42,,,,,,,,,,,,,,
98793,0,1.6465,,,,,,,,,,,,,,,,,,,,,,,,,,,,,,,,,,,,39,41,42,41,42,42,42,40,38,40,38,38,38,38,38,37,50,51,49,54,54,56,57,50,40,33,32,33,33,34,36,42,,,,,,,,,,,,,,
98813,0,1.6469,,-0.01,-0.01,-0.02,-0,2,0,0.03,1.01,3,,,,,,,,,,,,,,,,,,,,,,,,,,39,41,42,41,42,42,42,40,38,40,38,38,38,38,38,37,50,51,49,54,54,56,57,50,40,33,32,33,33,34,36,42,,,,,,,,,,,,,,
98833,0,1.6472,,,,,,,,,,,,,,,,,,,,,,,,,,,,,,,,,,,,39,41,42,41,42,42,42,41,38,40,39,38,38,38,38,37,50,51,50,54,54,56,57,50,40,33,32,33,33,34,36,42,,,,,,,,,,,,,,
98853,0,1.6476,,0.11,-0.05,0.05,-0,3,1,0.13,1.01,13,-3,113.76,28.98,71.43,115.59,12.85,3770,2,32,100.0,0.96,0.88,12.48,0.0,126.0,49,49,0,0,66,0,0,0,0,1,39,41,42,41,42,42,42,41,38,40,39,38,38,38,38,37,50,51,50,54,54,56,57,50,40,33,32,33,33,34,36,42,0.0,0.0,0.0,0.0,0,0,0.0,0,0.0,-1,0.0,0,0.0,1.6476
98873,0,1.6479,,,,,,,,,,,,,,,,,,,,,,,,,,,,,,,,,,,,39,41,42,41,42,42,42,41,38,40,39,38,38,38,38,37,50,51,50,54,54,56,57,50,40,33,32,33,33,34,36,42,,,,,,,,,,,,,,
98893,0,1.6482,,0.02,0.02,0.22,-0,3,1,0.22,1.01,22,,,,,,,,,,,,,,,,,,,,,,,,,,39,41,42,41,42,42,42,41,38,40,39,38,38,38,37,37,50,51,50,54,54,56,57,50,40,33,32,33,33,34,36,42,,,,,,,,,,,,,,
98913,0,1.6486,,,,,,,,,,,,,,,,,,,,,,,,,,,,,,,,,,,,39,41,42,41,42,42,42,41,38,40,39,38,38,38,37,37,50,52,50,55,54,56,57,51,40,33,32,33,33,34,36,42,,,,,,,,,,,,,,
98933,0,1.6489,,-0.09,-0.01,0.07,-0,3,1,0.11,1.01,11,,,,,,,,,,,,,,,,,,,,,,,,,,39,41,42,41,42,42,42,41,38,40,39,38,38,38,37,37,50,52,50,55,54,56,57,51,40,33,32,33,33,34,36,42,,,,,,,,,,,,,,
98953,0,1.6492,,,,,,,,,,,-2,113.97,28.98,71.19,114.15,12.86,3611,2,32,100.0,0.96,0.85,12.48,0.0,125.0,50,49,0,0,66,0,0,0,0,1,39,41,42,41,42,42,42,40,38,40,39,38,38,38,38,37,50,52,50,55,54,56,57,51,40,33,32,33,33,34,36,42,0.0,0.0,0.0,0.0,0,0,0.0,0,0.0,-1,0.0,0,0.0,1.6492
98973,0,1.6495,,0.12,-0.07,0.07,-0,3,1,0.16,1.01,16,,,,,,,,,,,,,,,,,,,,,,,,,,39,41,42,41,42,42,42,40,38,40,39,38,38,38,38,37,50,52,50,55,54,56,57,51,40,34,32,33,33,34,36,42,,,,,,,,,,,,,,
98993,0,1.6499,,,,,,,,,,,,,,,,,,,,,,,,,,,,,,,,,,,,39,41,42,41,42,42,42,40,38,40,39,38,38,38,38,37,50,52,50,55,54,56,57,51,40,34,32,33,33,34,36,42,,,,,,,,,,,,,,
99013,0,1.6502,,0.05,-0.02,0.03,-0,3,1,0.06,1.01,6,,,,,,,,,,,,,,,,,,,,,,,,,,39,41,42,41,42,42,42,40,38,40,39,38,38,38,38,37,50,52,50,55,54,56,57,51,40,34,32,33,33,34,36,42,,,,,,,,,,,,,,
99033,0,1.6506,,,,,,,,,,,,,,,,,,,,,,,,,,,,,,,,,,,,39,41,42,41,42,42,42,41,38,40,39,38,38,38,38,37,50,52,50,55,54,56,58,51,40,33,32,33,33,34,36,42,,,,,,,,,,,,,,
99053,0,1.6509,13.1,-0.16,0.0,-0.07,-0,0,0,0.17,1.01,17,-3,113.85,29.07,71.19,115.59,12.9,3454,2,32,100.0,0.96,0.86,12.48,0.0,119.0,50,50,0,0,66,0,0,0,0,1,39,41,42,41,42,42,42,41,38,40,39,38,38,38,38,37,50,52,50,55,54,56,58,51,40,33,32,33,33,34,36,42,0.0,0.0,0.0,0.0,0,0,0.0,0,0.0,-1,0.0,0,0.0,1.6509
99073,0,1.6512,,,,,,,,,,,,,,,,,,,,,,,,,,,,,,,,,,,,39,41,42,41,42,42,42,41,38,40,39,38,38,38,38,37,50,52,50,55,54,56,58,51,40,33,32,33,33,34,36,42,,,,,,,,,,,,,,
99093,0,1.6516,,0.07,-0.03,-0.06,-0,-0,0,0.1,1.01,10,,,,,,,,,,,,,,,,,,,,,,,,,,40,41,42,41,42,42,42,41,38,40,39,38,38,38,38,37,50,52,50,55,54,56,57,51,40,33,32,33,33,34,36,42,,,,,,,,,,,,,,
99113,0,1.6519,,,,,,,,,,,,,,,,,,,,,,,,,,,,,,,,,,,,40,41,42,41,42,42,42,41,38,40,39,38,38,38,38,37,50,52,50,55,54,56,57,51,40,33,32,33,33,34,36,42,,,,,,,,,,,,,,
99133,0,1.6522,,-0.01,-0.0,-0.0,-0,1,1,0.01,1.01,1,,,,,,,,,,,,,,,,,,,,,,,,,,40,41,42,41,42,42,42,41,38,40,39,38,38,38,38,37,50,52,50,55,54,56,57,51,40,33,32,33,33,34,36,42,,,,,,,,,,,,,,
99153,0,1.6526,,,,,,,,,,,-2,113.64,29.07,71.43,116.13,12.91,3189,2,32,100.0,0.96,0.88,12.48,0.0,121.0,50,52,0,0,66,0,0,0,0,1,39,41,42,41,42,42,42,41,38,40,39,38,38,38,38,37,50,52,50,55,54,56,58,51,40,33,32,33,33,34,36,42,0.0,0.0,0.0,0.0,0,0,0.0,0,0.0,-1,0.0,0,0.0,1.6526
99173,0,1.6529,,-0.13,-0.0,0.02,-0,1,0,0.13,1.01,13,,,,,,,,,,,,,,,,,,,,,,,,,,39,41,42,41,42,42,42,41,38,40,39,38,38,38,38,37,50,52,50,55,54,56,58,51,40,33,32,33,33,34,36,42,,,,,,,,,,,,,,
99193,0,1.6532,,,,,,,,,,,,,,,,,,,,,,,,,,,,,,,,,,,,39,41,42,41,42,42,42,41,38,40,39,38,38,38,38,37,50,52,50,55,54,56,58,51,40,33,32,33,33,34,36,42,,,,,,,,,,,,,,
99213,0,1.6536,,0.07,-0.02,0.03,-0,1,1,0.08,1.01,8,,,,,,,,,,,,,,,,,,,,,,,,,,39,41,42,41,42,42,42,41,38,40,39,38,38,38,38,37,50,52,50,55,54,56,58,51,40,33,32,33,33,34,36,42,,,,,,,,,,,,,,
99233,0,1.6539,,,,,,,,,,,,,,,,,,,,,,,,,,,,,,,,,,,,39,41,42,41,42,42,42,41,38,40,39,38,38,38,38,37,50,52,50,55,54,56,57,51,40,33,32,32,32,34,36,42,,,,,,,,,,,,,,
99253,0,1.6542,,0.08,0.02,0.13,-0,1,-0,0.15,1.01,15,-3,113.85,28.98,71.31,114.72,12.88,3394,2,32,100.0,0.96,0.88,12.48,0.0,118.0,51,54,0,0,66,0,0,0,0,1,39,41,42,41,42,42,42,41,38,40,39,38,38,38,38,37,50,52,50,55,54,56,57,51,40,33,32,32,32,34,36,42,0.0,0.0,0.0,0.0,0,0,0.0,0,0.0,-1,0.0,0,0.0,1.6542
99273,0,1.6546,,,,,,,,,,,,,,,,,,,,,,,,,,,,,,,,,,,,40,42,42,42,42,42,42,41,38,40,39,38,38,38,38,37,50,52,50,55,54,56,57,51,40,33,32,32,32,34,36,42,,,,,,,,,,,,,,
99293,0,1.6549,,-0.07,0.0,-0.02,-0,1,1,0.08,1.01,8,,,,,,,,,,,,,,,,,,,,,,,,,,40,42,42,42,42,42,42,41,38,40,39,38,38,38,38,37,50,52,50,55,54,56,57,51,40,33,32,33,33,34,36,42,,,,,,,,,,,,,,
99313,0,1.6552,,,,,,,,,,,,,,,,,,,,,,,,,,,,,,,,,,,,40,42,42,42,42,42,42,41,38,40,39,38,38,38,38,37,50,52,50,55,54,56,57,51,40,33,32,33,33,34,36,42,,,,,,,,,,,,,,
99333,0,1.6556,,-0.16,-0.02,0.06,-0,1,0,0.17,1.01,17,,,,,,,,,,,,,,,,,,,,,,,,,,40,42,42,42,42,42,42,41,38,40,39,38,38,38,38,37,50,52,50,55,54,56,57,51,40,33,32,33,33,34,36,42,,,,,,,,,,,,,,
99353,0,1.6559,,,,,,,,,,,-2,113.76,29.19,71.31,115.38,12.86,3371,2,32,100.0,0.96,0.88,12.49,0.0,123.0,51,54,0,0,67,0,0,0,0,1,40,42,42,41,42,42,42,41,38,40,39,38,38,38,38,37,50,52,50,55,54,56,57,51,40,33,32,33,33,34,36,43,0.0,0.0,0.0,0.0,0,0,0.0,0,0.0,-1,0.0,0,0.0,1.6559
99373,0,1.6562,,0.08,-0.03,0.04,-0,-1,1,0.1,1.01,10,,,,,,,,,,,,,,,,,,,,,,,,,,40,42,42,41,42,42,42,41,38,40,39,38,38,38,38,37,50,52,50,55,54,56,57,51,40,33,32,33,33,34,36,43,,,,,,,,,,,,,,
99393,0,1.6565,,,,,,,,,,,,,,,,,,,,,,,,,,,,,,,,,,,,40,42,42,41,42,42,42,41,38,40,39,38,38,38,37,37,50,52,50,55,54,56,57,51,40,33,32,33,33,34,36,43,,,,,,,,,,,,,,
99413,0,1.6569,,0.01,0.01,0.19,-0,-0,0,0.19,1.01,19,,,,,,,,,,,,,,,,,,,,,,,,,,40,41,42,41,42,42,42,41,38,40,39,38,38,38,37,37,50,52,50,55,54,56,57,51,40,34,32,33,33,34,37,42,,,,,,,,,,,,,,
99433,0,1.6572,,,,,,,,,,,,,,,,,,,,,,,,,,,,,,,,,,,,40,41,42,41,42,42,42,41,38,40,39,38,38,38,37,37,50,52,50,55,54,56,57,51,40,34,32,33,33,34,37,42,,,,,,,,,,,,,,
99453,0,1.6576,,-0.15,0.0,0.08,-0,-1,-0,0.17,1.01,17,-2,113.85,28.98,71.31,115.38,12.9,3527,2,32,100.0,0.96,0.88,12.49,0.0,123.0,51,53,0,0,67,0,0,0,0,1,40,41,42,41,42,42,42,41,38,40,39,38,38,38,38,37,50,52,50,55,54,56,57,51,40,34,32,33,33,34,37,42,0.0,0.0,0.0,0.0,0,0,0.0,0,0.0,-1,0.0,0,0.0,1.6576
99473,0,1.6579,,,,,,,,,,,,,,,,,,,,,,,,,,,,,,,,,,,,40,41,42,41,42,42,42,41,38,40,39,38,38,38,38,37,50,52,50,55,54,56,57,51,40,33,32,33,33,34,36,42,,,,,,,,,,,,,,
99493,0,1.6582,,0.04,-0.03,0.17,-0,-1,0,0.17,1.01,17,,,,,,,,,,,,,,,,,,,,,,,,,,40,41,42,41,42,42,42,41,38,40,39,38,38,38,38,37,50,52,50,55,54,56,57,51,40,33,32,33,33,34,36,42,,,,,,,,,,,,,,
99513,0,1.6586,,,,,,,,,,,,,,,,,,,,,,,,,,,,,,,,,,,,40,41,42,41,42,42,42,41,38,40,39,38,38,38,38,37,50,52,50,55,54,56,57,51,40,33,32,33,33,34,36,42,,,,,,,,,,,,,,
99533,0,1.6589,,0.03,0.02,0.31,-0,-1,-0,0.31,1.01,31,,,,,,,,,,,,,,,,,,,,,,,,,,40,41,42,42,42,42,42,41,38,40,39,39,38,38,38,38,50,52,50,55,54,56,57,51,40,33,32,33,33,34,36,42,,,,,,,,,,,,,,
99553,0,1.6592,,,,,,,,,,,-2,113.97,28.98,71.1,115.47,12.84,3545,2,32,100.0,0.96,0.85,12.48,0.0,116.0,51,53,0,0,67,0,0,0,0,1,40,41,42,42,42,42,42,41,38,40,39,39,38,38,38,38,50,52,50,54,54,56,57,51,40,33,32,33,32,33,36,42,0.0,0.0,0.0,0.0,0,0,0.0,0,0.0,-1,0.0,0,0.0,1.6592
99573,0,1.6595,,-0.16,0.02,0.14,0,-0,0,0.22,1.01,22,,,,,,,,,,,,,,,,,,,,,,,,,,40,41,42,42,42,42,42,41,38,40,39,39,38,38,38,38,50,52,50,54,54,56,57,51,40,33,32,33,32,33,36,42,,,,,,,,,,,,,,
99593,0,1.6599,,,,,,,,,,,,,,,,,,,,,,,,,,,,,,,,,,,,40,42,42,41,42,42,42,41,38,40,39,38,38,38,38,37,50,52,50,54,54,56,57,51,40,33,32,33,32,33,36,42,,,,,,,,,,,,,,
99613,0,1.6602,,0.07,-0.0,0.08,-0,-1,-0,0.11,1.01,11,,,,,,,,,,,,,,,,,,,,,,,,,,40,42,42,41,42,42,42,41,38,40,39,38,38,38,38,37,50,52,50,55,54,56,57,50,40,34,32,32,33,34,36,42,,,,,,,,,,,,,,
99633,0,1.6606,,,,,,,,,,,,,,,,,,,,,,,,,,,,,,,,,,,,40,42,42,41,42,42,42,41,38,40,39,38,38,38,38,37,50,52,50,55,54,56,57,50,40,34,32,32,33,34,36,42,,,,,,,,,,,,,,
99653,0,1.6609,,0.05,0.04,0.25,0,-1,-0,0.26,1.01,26,-3,113.76,29.07,71.43,112.41,12.87,3630,2,32,100.0,0.96,0.89,12.47,0.0,125.0,51,52,0,0,67,0,0,0,0,1,40,41,42,41,42,42,42,41,38,40,39,38,38,38,38,37,50,52,50,55,54,56,57,50,40,34,32,32,33,34,36,42,0.0,0.0,0.0,0.0,0,0,0.0,0,0.0,-1,0.0,0,0.0,1.6609
99673,0,1.6612,,,,,,,,,,,,,,,,,,,,,,,,,,,,,,,,,,,,40,41,42,41,42,42,42,41,38,40,39,38,38,38,38,37,50,52,50,54,54,56,57,50,40,33,32,33,33,33,36,42,,,,,,,,,,,,,,
99693,0,1.6616,,-0.15,0.02,0.12,-0,-2,-1,0.19,1.01,19,,,,,,,,,,,,,,,,,,,,,,,,,,40,41,42,41,42,42,42,41,38,40,39,38,38,38,38,37,50,52,50,54,54,56,57,50,40,33,32,33,33,33,36,42,,,,,,,,,,,,,,
99713,0,1.6619,,,,,,,,,,,,,,,,,,,,,,,,,,,,,,,,,,,,40,41,42,41,42,42,42,41,38,40,39,39,38,38,38,38,50,52,50,54,54,56,57,50,40,33,32,33,33,33,36,42,,,,,,,,,,,,,,
99733,0,1.6622,,-0.0,0.0,0.09,-0,-3,-1,0.09,1.01,9,,,,,,,,,,,,,,,,,,,,,,,,,,40,42,42,41,42,42,42,41,38,40,39,39,38,38,38,38,50,52,50,54,54,56,57,50,40,33,32,33,32,34,36,42,,,,,,,,,,,,,,
99753,0,1.6625,,,,,,,,,,,-3,113.64,28.98,71.43,112.62,12.83,3662,2,32,100.0,0.96,0.89,12.46,0.0,120.0,51,52,0,0,67,0,0,0,0,1,40,42,42,41,42,42,42,41,38,40,39,39,38,38,38,38,50,52,50,54,54,56,57,50,40,33,32,33,32,34,36,42,0.0,0.0,0.0,0.0,0,0,0.0,0,0.0,-1,0.0,0,0.0,1.6625
99773,0,1.6629,,0.04,0.03,0.24,0,-2,-1,0.24,1.01,24,,,,,,,,,,,,,,,,,,,,,,,,,,40,42,42,41,42,42,42,41,38,40,39,38,38,38,38,38,50,52,50,54,54,56,57,50,40,33,32,33,32,34,36,42,,,,,,,,,,,,,,
99793,0,1.6632,,,,,,,,,,,,,,,,,,,,,,,,,,,,,,,,,,,,40,42,42,42,42,42,42,42,38,40,39,38,38,38,38,38,50,52,50,55,54,56,57,51,40,34,32,33,33,34,36,42,,,,,,,,,,,,,,
99813,0,1.6636,,-0.11,0.01,0.1,-0,-0,-0,0.15,1.01,15,,,,,,,,,,,,,,,,,,,,,,,,,,40,42,42,42,42,42,42,42,38,40,39,38,38,38,38,38,50,52,50,55,54,56,57,51,40,34,32,33,33,34,36,42,,,,,,,,,,,,,,
99833,0,1.6639,,,,,,,,,,,,,,,,,,,,,,,,,,,,,,,,,,,,40,42,42,42,42,42,42,42,38,40,39,38,38,38,38,37,50,52,50,55,54,56,57,51,40,34,32,33,33,34,36,42,,,,,,,,,,,,,,
99853,0,1.6642,,0.09,0.01,-0.08,-0,-1,-1,0.12,1.01,12,-2,113.97,28.98,71.1,110.1,12.91,3715,2,32,100.0,0.96,0.88,12.46,0.0,123.0,51,52,0,0,67,0,0,0,0,1,39,42,42,42,42,42,42,41,38,40,39,38,38,38,38,37,50,52,50,55,54,56,57,51,40,34,32,33,33,34,36,42,0.0,0.0,0.0,0.0,0,0,0.0,0,0.0,-1,0.0,0,0.0,1.6642
99873,0,1.6646,,,,,,,,,,,,,,,,,,,,,,,,,,,,,,,,,,,,39,42,42,42,42,42,42,41,38,40,39,38,38,38,38,37,50,52,50,54,54,56,57,51,40,34,32,33,33,34,36,43,,,,,,,,,,,,,,
99893,0,1.6649,,0.08,0.04,0.01,0,-1,-1,0.09,1.01,9,,,,,,,,,,,,,,,,,,,,,,,,,,39,42,42,42,42,42,42,41,38,40,39,38,38,38,38,37,50,52,50,54,54,56,57,51,40,34,32,33,33,34,36,43,,,,,,,,,,,,,,
99913,0,1.6652,,,,,,,,,,,,,,,,,,,,,,,,,,,,,,,,,,,,39,42,42,41,42,42,42,41,38,40,39,38,38,38,38,37,50,52,50,54,54,56,57,51,40,34,32,33,33,34,36,43,,,,,,,,,,,,,,
99933,0,1.6656,,-0.11,0.02,-0.09,-0,-1,-1,0.14,1.01,14,,,,,,,,,,,,,,,,,,,,,,,,,,39,42,42,41,42,42,42,41,38,40,39,38,38,38,38,37,50,52,50,55,54,56,57,51,40,33,32,33,33,34,36,42,,,,,,,,,,,,,,
99953,0,1.6659,,,,,,,,,,,-3,113.85,29.07,71.1,112.95,12.83,3457,2,32,100.0,0.96,0.87,12.46,0.0,120.0,51,53,0,0,67,0,0,0,0,1,39,42,42,41,42,42,42,41,38,40,39,38,38,38,38,37,50,52,50,55,54,56,57,51,40,33,32,33,33,34,36,42,0.0,0.0,0.0,0.0,0,0,0.0,0,0.0,-1,0.0,0,0.0,1.6659
99973,0,1.6662,,0.01,0.02,-0.01,-0,-1,-0,0.02,1.01,2,,,,,,,,,,,,,,,,,,,,,,,,,,40,41,42,41,42,42,42,41,38,40,39,38,38,38,38,37,50,52,50,55,54,56,57,51,40,33,32,33,33,34,36,42,,,,,,,,,,,,,,
99993,0,1.6665,,,,,,,,,,,,,,,,,,,,,,,,,,,,,,,,,,,,40,41,42,41,42,42,42,41,38,40,39,38,38,38,38,37,50,52,50,54,54,56,57,50,40,33,32,32,32,33,36,42,,,,,,,,,,,,,,
100013,0,1.6669,,-0.0,0.05,0.15,-0,-0,-0,0.16,1.01,16,,,,,,,,,,,,,,,,,,,,,,,,,,40,41,42,41,42,42,42,41,38,40,39,38,38,38,38,37,50,52,50,54,54,56,57,50,40,33,32,32,32,33,36,42,,,,,,,,,,,,,,
100033,0,1.6672,,,,,,,,,,,,,,,,,,,,,,,,,,,,,,,,,,,,40,42,42,42,42,42,42,41,38,40,39,39,38,38,38,38,50,52,50,54,54,56,57,50,40,33,32,32,32,33,36,42,,,,,,,,,,,,,,
100053,0,1.6676,13.1,-0.19,0.05,-0.21,-0,-3,-2,0.29,1.01,29,-2,113.76,29.07,71.43,110.64,12.88,3464,2,32,100.0,0.96,0.9,12.47,0.0,120.0,51,53,0,0,67,0,0,0,0,1,40,42,42,42,42,42,42,41,38,40,39,39,38,38,38,38,50,52,50,55,54,56,57,51,40,33,32,33,33,34,36,42,0.0,0.0,0.0,0.0,0,0,0.0,0,0.0,-1,0.0,0,0.0,1.6676
100073,0,1.6679,,,,,,,,,,,,,,,,,,,,,,,,,,,,,,,,,,,,40,42,42,42,42,42,42,41,38,40,39,39,38,38,38,38,50,52,50,55,54,56,57,51,40,33,32,33,33,34,36,42,,,,,,,,,,,,,,
100093,0,1.6682,,-0.0,0.03,-0.15,-0,-3,-1,0.15,1.01,15,,,,,,,,,,,,,,,,,,,,,,,,,,40,42,42,42,42,42,42,41,38,40,39,38,38,38,38,38,50,52,50,55,54,56,57,51,40,33,32,33,33,34,36,42,,,,,,,,,,,,,,
100113,0,1.6686,,,,,,,,,,,,,,,,,,,,,,,,,,,,,,,,,,,,40,42,42,41,42,42,42,41,38,40,39,38,38,38,38,38,50,52,50,55,54,56,57,51,40,33,32,33,32,33,36,43,,,,,,,,,,,,,,
100133,0,1.6689,,-0.06,0.04,-0.26,0,-1,-1,0.27,1.01,27,,,,,,,,,,,,,,,,,,,,,,,,,,40,42,42,41,42,42,42,41,38,40,39,38,38,38,38,38,50,52,50,55,54,56,57,51,40,33,32,33,32,33,36,43,,,,,,,,,,,,,,
100153,0,1.6692,,,,,,,,,,,-3,113.76,28.98,71.43,115.05,12.83,3285,2,32,100.0,0.96,0.86,12.48,0.0,122.0,51,53,0,0,67,0,0,0,0,1,40,42,42,41,42,42,42,41,38,40,40,39,38,38,38,38,50,52,50,55,54,56,57,51,40,33,32,33,32,33,36,43,0.0,0.0,0.0,0.0,0,0,0.0,0,0.0,-1,0.0,0,0.0,1.6692
100173,0,1.6695,,-0.1,0.01,-0.18,-0,0,-0,0.21,1.01,21,,,,,,,,,,,,,,,,,,,,,,,,,,40,42,42,42,42,42,42,41,38,40,40,39,38,38,38,38,50,52,50,55,54,56,57,51,40,33,32,33,32,34,36,42,,,,,,,,,,,,,,
100193,0,1.6699,,,,,,,,,,,,,,,,,,,,,,,,,,,,,,,,,,,,40,42,42,42,42,42,42,41,38,40,40,39,38,38,38,38,50,52,50,54,54,56,57,50,40,33,32,33,32,34,36,42,,,,,,,,,,,,,,
100213,0,1.6702,,0.13,0.04,-0.36,-0,-0,-1,0.38,1.01,38,,,,,,,,,,,,,,,,,,,,,,,,,,40,42,42,42,42,42,42,41,38,40,40,39,38,38,38,38,50,52,50,54,54,56,57,50,40,33,32,33,32,34,36,42,,,,,,,,,,,,,,
100233,0,1.6706,,,,,,,,,,,,,,,,,,,,,,,,,,,,,,,,,,,,40,42,42,42,42,42,42,42,38,40,40,39,38,38,38,38,50,52,50,54,54,56,57,50,40,33,32,33,32,34,36,42,,,,,,,,,,,,,,
100253,0,1.6709,,0.08,0.03,-0.24,-0,1,-0,0.25,1.01,25,-2,113.97,28.98,71.1,110.97,12.91,3290,2,32,100.0,0.96,0.88,12.48,0.0,118.0,51,53,0,0,67,0,0,0,0,1,40,42,42,42,42,42,42,42,38,40,40,39,38,38,38,38,50,52,50,55,54,56,57,51,40,33,32,33,32,34,36,42,0.0,0.0,0.0,0.0,0,0,0.0,0,0.0,-1,0.0,0,0.0,1.6709
100273,0,1.6712,,,,,,,,,,,,,,,,,,,,,,,,,,,,,,,,,,,,40,42,42,42,42,42,42,42,38,40,40,39,38,38,38,38,50,52,50,55,54,56,57,51,40,33,32,33,32,34,36,42,,,,,,,,,,,,,,
100293,0,1.6716,,-0.11,0.04,-0.29,-0,0,-1,0.32,1.01,32,,,,,,,,,,,,,,,,,,,,,,,,,,40,42,42,42,42,42,42,41,38,40,40,39,38,38,38,37,50,52,50,55,54,56,57,51,40,33,32,33,32,34,36,42,,,,,,,,,,,,,,
100313,0,1.6719,,,,,,,,,,,,,,,,,,,,,,,,,,,,,,,,,,,,40,42,42,42,42,42,42,41,38,40,40,39,38,38,38,37,50,52,50,55,54,56,57,51,40,34,32,33,33,33,36,42,,,,,,,,,,,,,,
100333,0,1.6722,,0.02,0.0,-0.22,-0,1,-0,0.22,1.01,22,,,,,,,,,,,,,,,,,,,,,,,,,,40,42,42,42,42,42,42,41,38,40,40,39,38,38,38,37,50,52,50,55,54,56,57,51,40,34,32,33,33,33,36,42,,,,,,,,,,,,,,
100353,0,1.6725,,,,,,,,,,,-2,113.64,29.19,71.43,114.15,12.87,3326,2,32,100.0,0.96,0.86,12.49,0.0,121.0,51,53,0,0,67,0,0,0,0,1,40,42,42,42,42,42,42,41,38,40,40,39,38,38,38,38,50,52,50,55,54,56,57,51,40,34,32,33,33,33,36,42,0.0,0.0,0.0,0.0,0,0,0.0,0,0.0,-1,0.0,0,0.0,1.6725
100373,0,1.6729,,0.21,0.05,-0.14,-0,1,-0,0.26,1.01,26,,,,,,,,,,,,,,,,,,,,,,,,,,40,42,42,42,42,42,42,41,38,40,40,39,38,38,38,38,50,52,50,55,54,56,57,50,40,33,32,32,32,33,36,42,,,,,,,,,,,,,,
100393,0,1.6732,,,,,,,,,,,,,,,,,,,,,,,,,,,,,,,,,,,,40,42,42,42,42,42,42,41,38,40,40,39,38,38,38,38,50,52,50,55,54,56,57,50,40,33,32,32,32,33,36,42,,,,,,,,,,,,,,
100413,0,1.6736,,0.12,0.05,0.01,-0,0,-0,0.13,1.01,13,,,,,,,,,,,,,,,,,,,,,,,,,,40,42,42,42,42,42,42,41,38,40,40,39,38,38,38,38,50,52,50,55,54,56,57,50,40,33,32,32,32,33,36,42,,,,,,,,,,,,,,
100433,0,1.6739,,,,,,,,,,,,,,,,,,,,,,,,,,,,,,,,,,,,40,42,42,42,42,42,42,41,38,40,40,39,38,38,38,38,50,52,50,55,54,56,57,51,40,33,32,33,32,34,36,42,,,,,,,,,,,,,,
100453,0,1.6742,,-0.03,0.02,-0.13,-0,0,0,0.14,1.01,14,-2,113.85,29.19,71.19,116.04,12.83,3366,2,32,100.0,0.96,0.87,12.49,0.0,118.0,51,52,0,0,67,0,0,0,0,1,40,42,42,42,42,42,42,41,38,40,40,39,38,38,38,38,50,52,50,55,54,56,57,51,40,33,32,33,32,34,36,42,0.0,0.0,0.0,0.0,0,0,0.0,0,0.0,-1,0.0,0,0.0,1.6742
100473,0,1.6746,,,,,,,,,,,,,,,,,,,,,,,,,,,,,,,,,,,,40,42,42,42,42,42,42,41,38,40,40,39,38,38,38,38,50,52,50,55,54,56,57,51,40,33,32,33,32,34,36,42,,,,,,,,,,,,,,
100493,0,1.6749,,-0.13,0.03,-0.02,-0,1,-0,0.14,1.01,14,,,,,,,,,,,,,,,,,,,,,,,,,,39,41,42,41,42,42,42,41,38,40,40,39,38,38,38,38,50,52,50,55,54,56,57,51,40,33,32,33,33,34,37,42,,,,,,,,,,,,,,
100513,0,1.6752,,,,,,,,,,,,,,,,,,,,,,,,,,,,,,,,,,,,39,41,42,41,42,42,42,41,38,40,40,39,38,38,38,38,50,52,50,55,54,56,57,51,40,33,32,33,33,34,37,42,,,,,,,,,,,,,,
100533,0,1.6756,,0.0,0.02,-0.06,0,0,0,0.06,1.01,6,,,,,,,,,,,,,,,,,,,,,,,,,,39,41,42,41,42,42,42,41,38,40,40,39,38,38,38,37,50,52,50,55,54,56,57,51,40,33,32,33,33,34,37,42,,,,,,,,,,,,,,
100553,0,1.6759,,,,,,,,,,,-3,113.64,29.07,71.43,115.92,12.88,3548,2,32,100.0,0.96,0.9,12.49,0.0,116.0,51,53,0,0,67,0,0,0,0,1,39,41,42,41,42,42,42,41,38,40,40,39,38,38,38,37,50,52,50,55,54,56,57,51,40,33,32,33,33,34,37,42,0.0,0.0,0.0,0.0,0,0,0.0,0,0.0,-1,0.0,0,0.0,1.6759
100573,0,1.6762,,0.14,0.02,-0.04,0,-1,-0,0.14,1.01,14,,,,,,,,,,,,,,,,,,,,,,,,,,39,41,42,41,42,42,42,41,38,40,40,39,38,38,38,37,50,52,50,55,54,56,57,51,40,33,32,33,33,34,37,42,,,,,,,,,,,,,,
100593,0,1.6765,,,,,,,,,,,,,,,,,,,,,,,,,,,,,,,,,,,,39,41,42,41,42,42,42,41,38,40,40,39,38,38,38,37,50,52,50,55,54,56,57,51,40,33,32,33,33,34,37,42,,,,,,,,,,,,,,
100613,0,1.6769,,0.05,-0.02,-0.02,-0,0,-0,0.05,1.01,5,,,,,,,,,,,,,,,,,,,,,,,,,,39,41,42,41,42,42,42,40,38,40,40,39,38,38,38,38,50,52,50,55,54,56,57,51,40,33,32,33,33,34,37,42,,,,,,,,,,,,,,
100633,0,1.6772,,,,,,,,,,,,,,,,,,,,,,,,,,,,,,,,,,,,39,41,42,41,42,42,42,40,38,40,40,39,38,38,38,38,50,52,50,55,54,56,57,50,40,33,32,33,33,34,36,42,,,,,,,,,,,,,,
100653,0,1.6776,,-0.15,0.01,-0.11,-0,-0,-0,0.18,1.01,18,-3,113.85,29.07,71.19,108.99,12.9,3201,2,32,100.0,0.96,0.89,12.5,0.0,113.0,51,52,0,0,67,0,0,0,0,1,39,41,42,41,42,42,42,40,38,40,40,39,38,38,38,38,50,52,50,55,54,56,57,50,40,33,32,33,33,34,36,42,0.0,0.0,0.0,0.0,0,0,0.0,0,0.0,-1,0.0,0,0.0,1.6776
100673,0,1.6779,,,,,,,,,,,,,,,,,,,,,,,,,,,,,,,,,,,,39,41,42,41,42,42,42,41,38,40,40,39,38,38,38,38,50,52,50,55,54,56,57,50,40,33,32,33,33,34,36,42,,,,,,,,,,,,,,
100693,0,1.6782,,0.12,-0.0,-0.33,0,0,-0,0.35,1.01,35,,,,,,,,,,,,,,,,,,,,,,,,,,39,41,42,41,42,42,42,41,38,40,40,39,38,38,38,38,50,52,50,55,54,56,57,51,40,33,32,32,32,33,36,42,,,,,,,,,,,,,,
100713,0,1.6786,,,,,,,,,,,,,,,,,,,,,,,,,,,,,,,,,,,,39,41,42,41,42,42,42,41,38,40,40,39,38,38,38,38,50,52,50,55,54,56,57,51,40,33,32,32,32,33,36,42,,,,,,,,,,,,,,
100733,0,1.6789,,0.1,0.05,-0.19,0,0,-0,0.22,1.01,22,,,,,,,,,,,,,,,,,,,,,,,,,,40,41,42,41,42,42,42,41,38,40,39,39,38,38,38,37,50,52,50,55,54,56,57,51,40,33,32,32,32,33,36,42,,,,,,,,,,,,,,
100753,0,1.6792,,,,,,,,,,,-3,113.76,29.07,71.43,115.14,12.89,3408,2,32,100.0,0.96,0.88,12.49,0.0,126.0,51,52,0,0,67,0,0,0,0,1,40,41,42,41,42,42,42,41,38,40,39,39,38,38,38,37,50,52,50,55,54,56,57,51,40,33,32,32,32,33,36,42,0.0,0.0,0.0,0.0,0,0,0.0,0,0.0,-1,0.0,0,0.0,1.6792
100773,0,1.6795,,-0.06,0.02,-0.24,-0,0,-0,0.25,1.01,25,,,,,,,,,,,,,,,,,,,,,,,,,,40,41,42,41,42,42,42,41,38,40,39,39,38,38,38,37,50,52,50,55,54,56,57,51,40,33,32,32,32,33,36,42,,,,,,,,,,,,,,
100793,0,1.6799,,,,,,,,,,,,,,,,,,,,,,,,,,,,,,,,,,,,40,41,42,41,42,42,42,41,38,40,39,38,38,38,38,37,50,52,50,55,54,56,57,51,40,33,32,32,32,33,36,42,,,,,,,,,,,,,,
100813,0,1.6802,,0.12,-0.04,-0.13,-0,-0,0,0.18,1.01,18,,,,,,,,,,,,,,,,,,,,,,,,,,40,41,42,41,42,42,42,41,38,40,39,38,38,38,38,37,50,52,50,55,54,56,57,50,40,33,32,32,32,33,36,42,,,,,,,,,,,,,,
100833,0,1.6806,,,,,,,,,,,,,,,,,,,,,,,,,,,,,,,,,,,,40,41,42,41,42,42,42,41,38,40,39,38,38,38,38,37,50,52,50,55,54,56,57,50,40,33,32,32,32,33,36,42,,,,,,,,,,,,,,
100853,0,1.6809,,-0.01,0.02,-0.27,-0,1,0,0.28,1.01,27,-3,113.76,28.74,71.43,116.13,12.85,3572,2,32,100.0,0.96,0.88,12.48,0.0,124.0,51,53,0,0,67,0,0,0,0,1,40,41,42,41,42,42,42,41,38,40,39,38,38,38,38,37,50,52,50,55,54,56,57,50,40,33,32,32,32,33,36,42,0.0,0.0,0.0,0.0,0,0,0.0,0,0.0,-1,0.0,0,0.0,1.6809
100873,0,1.6812,,,,,,,,,,,,,,,,,,,,,,,,,,,,,,,,,,,,40,41,42,41,42,42,42,41,38,40,39,38,38,38,38,37,50,52,50,55,54,56,57,50,40,33,32,32,32,34,36,42,,,,,,,,,,,,,,
100893,0,1.6816,,0.17,-0.03,-0.37,-0,1,1,0.41,1.01,41,,,,,,,,,,,,,,,,,,,,,,,,,,40,41,42,41,42,42,42,41,38,40,39,38,38,38,38,37,50,52,50,55,54,56,57,50,40,33,32,32,32,34,36,42,,,,,,,,,,,,,,
100913,0,1.6819,,,,,,,,,,,,,,,,,,,,,,,,,,,,,,,,,,,,40,41,42,41,42,42,42,41,38,40,39,38,38,38,38,37,50,52,50,55,54,56,57,50,40,33,32,32,32,34,36,42,,,,,,,,,,,,,,
100933,0,1.6822,,0.04,-0.02,-0.48,-0,1,1,0.48,1.01,47,,,,,,,,,,,,,,,,,,,,,,,,,,39,41,42,41,42,42,42,41,38,40,39,39,38,38,38,38,50,52,50,55,54,56,57,50,40,33,32,32,32,34,36,42,,,,,,,,,,,,,,
100953,0,1.6825,,,,,,,,,,,-3,113.43,29.07,71.43,113.73,12.88,3543,2,32,100.0,0.96,0.81,12.49,0.0,132.0,51,53,0,0,67,0,0,0,0,1,39,41,42,41,42,42,42,41,38,40,39,39,38,38,38,38,50,52,50,55,54,56,57,51,40,33,32,33,33,33,36,42,0.0,0.0,0.0,0.0,0,0,0.0,0,0.0,-1,0.0,0,0.0,1.6825
100973,0,1.6829,,0.11,-0.08,-0.59,-0,-0,2,0.61,1.01,61,,,,,,,,,,,,,,,,,,,,,,,,,,39,41,42,41,42,42,42,41,38,40,39,39,38,38,38,38,50,52,50,55,54,56,57,51,40,33,32,33,33,33,36,42,,,,,,,,,,,,,,
100993,0,1.6832,,,,,,,,,,,,,,,,,,,,,,,,,,,,,,,,,,,,39,41,42,41,42,42,42,41,38,40,40,39,38,38,38,38,50,52,50,55,54,56,57,51,40,33,32,33,33,33,36,42,,,,,,,,,,,,,,
101013,0,1.6836,,0.09,-0.07,-0.43,-0,-0,2,0.45,1.01,44,,,,,,,,,,,,,,,,,,,,,,,,,,39,41,42,41,42,42,42,41,38,40,40,39,38,38,38,38,50,52,50,54,54,56,56,50,40,33,32,32,32,33,36,42,,,,,,,,,,,,,,
101033,0,1.6839,,,,,,,,,,,,,,,,,,,,,,,,,,,,,,,,,,,,39,41,42,41,42,42,42,41,38,40,40,39,38,38,38,38,50,52,50,54,54,56,56,50,40,33,32,32,32,33,36,42,,,,,,,,,,,,,,
101053,0,1.6842,13.14,0.11,-0.12,-0.87,0,-5,-1,0.89,1.01,88,-3,113.31,29.07,71.52,119.01,12.88,3767,2,32,100.0,0.96,0.81,12.5,0.0,130.0,51,53,0,0,67,0,0,0,0,1,40,41,42,41,42,42,42,41,38,40,39,39,38,38,38,37,50,52,50,54,54,56,56,50,40,33,32,32,32,33,36,42,0.0,0.0,0.0,0.0,0,0,0.0,0,0.0,-1,0.0,0,0.0,1.6842
101073,0,1.6846,,,,,,,,,,,,,,,,,,,,,,,,,,,,,,,,,,,,40,41,42,41,42,42,42,41,38,40,39,39,38,38,38,37,50,52,50,54,54,56,57,51,40,33,32,32,32,33,36,42,,,,,,,,,,,,,,
101093,0,1.6849,,0.12,-0.04,-0.87,0,-5,-1,0.88,1.01,87,,,,,,,,,,,,,,,,,,,,,,,,,,40,41,42,41,42,42,42,41,38,40,39,39,38,38,38,37,50,52,50,54,54,56,57,51,40,33,32,32,32,33,36,42,,,,,,,,,,,,,,
101113,0,1.6852,,,,,,,,,,,,,,,,,,,,,,,,,,,,,,,,,,,,40,41,42,41,42,42,42,41,38,40,39,39,38,38,38,37,50,52,50,54,54,56,57,51,40,33,32,32,32,33,36,42,,,,,,,,,,,,,,
101133,0,1.6855,,0.05,-0.05,-1.14,0,-6,-2,1.14,1.14,100,,,,,,,,,,,,,,,,,,,,,,,,,,39,41,42,41,42,42,42,41,38,40,39,39,38,38,38,37,50,52,50,55,54,56,57,51,40,33,32,33,32,33,36,42,,,,,,,,,,,,,,
101153,0,1.6859,,,,,,,,,,,-3,113.52,29.07,71.43,112.41,12.88,3805,2,32,100.0,0.96,0.83,12.5,0.0,130.0,51,53,0,0,67,0,0,0,0,1,39,41,42,41,42,42,42,41,38,40,39,39,38,38,38,37,50,52,50,55,54,56,57,51,40,33,32,33,32,33,36,42,0.0,0.0,0.0,0.0,0,0,0.0,0,0.0,-1,0.0,0,0.0,1.6859
101173,0,1.6862,,0.14,-0.03,-0.8,0,-5,-1,0.81,1.14,71,,,,,,,,,,,,,,,,,,,,,,,,,,39,41,42,41,42,42,42,41,38,40,39,39,38,38,38,38,50,52,50,55,54,56,57,51,40,33,32,33,32,33,36,42,,,,,,,,,,,,,,
101193,0,1.6866,,,,,,,,,,,,,,,,,,,,,,,,,,,,,,,,,,,,39,41,42,41,42,42,42,41,38,40,39,39,38,38,38,38,50,52,50,55,54,56,57,51,40,33,32,33,33,33,36,42,,,,,,,,,,,,,,
101213,0,1.6869,,0.01,-0.03,-0.91,0,-4,-1,0.91,1.14,79,,,,,,,,,,,,,,,,,,,,,,,,,,39,41,42,41,42,42,42,41,38,40,39,39,38,38,38,38,50,52,50,55,54,56,57,51,40,33,32,33,33,33,36,42,,,,,,,,,,,,,,
101233,0,1.6872,,,,,,,,,,,,,,,,,,,,,,,,,,,,,,,,,,,,39,41,42,41,42,42,42,41,38,40,39,39,38,38,38,37,50,52,50,55,54,56,57,51,40,33,32,33,33,33,36,42,,,,,,,,,,,,,,
101253,0,1.6876,,0.19,-0.06,-0.9,-0,-3,-1,0.92,1.14,81,-3,113.64,29.07,71.43,113.73,12.86,3740,2,32,100.0,0.96,0.84,12.5,0.0,124.0,51,52,0,0,67,0,0,0,0,1,39,41,42,41,42,42,42,41,38,40,39,39,38,38,38,37,50,52,50,55,54,56,57,51,40,33,32,32,32,34,36,42,0.0,0.0,0.0,0.0,0,0,0.0,0,0.0,-1,0.0,0,0.0,1.6876
101273,0,1.6879,,,,,,,,,,,,,,,,,,,,,,,,,,,,,,,,,,,,39,41,42,41,42,42,42,41,38,40,39,39,38,38,38,37,50,52,50,55,54,56,57,51,40,33,32,32,32,34,36,42,,,,,,,,,,,,,,
101293,0,1.6882,,0.12,0.02,-0.57,0,-2,-1,0.58,1.14,51,,,,,,,,,,,,,,,,,,,,,,,,,,39,41,42,41,42,42,42,41,38,40,39,39,38,38,38,37,50,52,50,55,54,56,57,51,40,33,32,32,32,34,36,42,,,,,,,,,,,,,,
101313,0,1.6886,,,,,,,,,,,,,,,,,,,,,,,,,,,,,,,,,,,,40,42,42,42,42,42,42,41,38,40,39,39,38,38,38,38,50,52,50,55,54,56,57,51,40,33,32,32,32,34,36,42,,,,,,,,,,,,,,
101333,0,1.6889,,0.0,-0.01,-0.73,-0,-2,-1,0.73,1.14,64,,,,,,,,,,,,,,,,,,,,,,,,,,40,42,42,42,42,42,42,41,38,40,39,39,38,38,38,38,50,52,50,55,54,56,57,51,40,33,32,32,32,33,36,42,,,,,,,,,,,,,,
101353,0,1.6892,,,,,,,,,,,-3,113.85,28.98,71.43,116.13,12.86,3586,2,32,100.0,0.96,0.84,12.5,0.0,124.0,51,53,0,0,67,0,0,0,0,1,40,42,42,42,42,42,42,41,38,40,39,39,38,38,38,38,50,52,50,55,54,56,57,51,40,33,32,32,32,33,36,42,0.0,0.0,0.0,0.0,0,0,0.0,0,0.0,-1,0.0,0,0.0,1.6892
101373,0,1.6895,,0.21,-0.04,-0.52,-0,-1,0,0.56,1.14,49,,,,,,,,,,,,,,,,,,,,,,,,,,40,42,42,42,42,42,42,42,38,40,40,39,38,38,38,37,50,52,50,55,54,56,57,51,40,33,32,32,32,33,36,42,,,,,,,,,,,,,,
101393,0,1.6899,,,,,,,,,,,,,,,,,,,,,,,,,,,,,,,,,,,,40,42,42,42,42,42,42,42,38,40,40,39,38,38,38,37,50,52,50,55,54,56,57,51,40,34,32,33,33,34,36,42,,,,,,,,,,,,,,
101413,0,1.6902,,0.17,-0.02,-0.31,0,1,0,0.35,1.14,31,,,,,,,,,,,,,,,,,,,,,,,,,,40,42,42,42,42,42,42,42,38,40,40,39,38,38,38,37,50,52,50,55,54,56,57,51,40,34,32,33,33,34,36,42,,,,,,,,,,,,,,
101433,0,1.6906,,,,,,,,,,,,,,,,,,,,,,,,,,,,,,,,,,,,40,42,42,41,42,42,42,41,38,40,40,39,38,38,38,38,50,52,50,55,54,56,57,51,40,34,32,33,33,34,36,42,,,,,,,,,,,,,,
101453,0,1.6909,,-0.06,0.0,-0.37,-0,-0,-0,0.38,1.14,33,-2,114.09,29.07,71.19,114.06,12.86,3264,2,32,100.0,0.96,0.85,12.5,0.0,116.0,51,53,0,0,67,0,0,0,0,1,40,42,42,41,42,42,42,41,38,40,40,39,38,38,38,38,50,52,50,55,54,56,58,51,40,33,32,32,32,33,36,42,0.0,0.0,0.0,0.0,0,0,0.0,0,0.0,-1,0.0,0,0.0,1.6909
101473,0,1.6912,,,,,,,,,,,,,,,,,,,,,,,,,,,,,,,,,,,,40,42,42,41,42,42,42,41,38,40,40,39,38,38,38,38,50,52,50,55,54,56,58,51,40,33,32,32,32,33,36,42,,,,,,,,,,,,,,
101493,0,1.6916,,0.15,-0.0,-0.56,-0,0,-0,0.58,1.14,51,,,,,,,,,,,,,,,,,,,,,,,,,,40,42,42,41,42,42,42,41,38,40,40,39,38,38,38,38,50,52,50,55,54,56,58,51,40,33,32,32,32,33,36,42,,,,,,,,,,,,,,
101513,0,1.6919,,,,,,,,,,,,,,,,,,,,,,,,,,,,,,,,,,,,40,42,42,41,42,42,42,41,38,40,40,39,38,38,38,38,50,52,50,55,54,56,58,51,40,33,32,32,32,33,36,42,,,,,,,,,,,,,,
101533,0,1.6922,,0.23,0.04,-0.39,0,-0,-0,0.45,1.14,39,,,,,,,,,,,,,,,,,,,,,,,,,,40,42,42,41,42,42,42,41,38,40,40,39,38,38,38,38,50,52,50,55,54,56,57,51,40,33,32,32,32,33,36,42,,,,,,,,,,,,,,
