"Interval"|"ms"|0|0|1,"Utc"|"ms"|0|0|1,"ElapsedTime"|"Min"|0.0|0.0|10,"Battery"|"Volts"|0.0|20.0|1,"AccelX"|"G"|-3.0|3.0|25,"AccelY"|"G"|-3.0|3.0|25,"AccelZ"|"G"|-3.0|3.0|25,"Yaw"|"Deg/Sec"|-120|120|25,"Pitch"|"Deg/Sec"|-120|120|25,"Roll"|"Deg/Sec"|-120|120|25,"Gsum"|"G"|0.0|3.0|25,"GsumMax"|"G"|0.0|3.0|25,"GsumPct"|"%"|0|100|25,"StAngle"|"Deg"|-100|100|10,"SuspPosFL"|"mm"|0.0|150.0|10,"SuspPosFR"|"mm"|0.0|150.0|10,"SuspPosRL"|"mm"|0.0|150.0|10,"SuspPosRR"|"mm"|0.0|150.0|10,"ADL_BAT"|"V"|0.0|20.0|10,"RPM"|""|0|20000|10,"TPS"|"%"|0|100|10,"IAT"|"F"|0|300|10,"MAP"|"KPa"|0.0|255.0|10,"LambdaAim"|""|0.0|1.75|10,"Lambda"|""|0.0|1.75|10,"ECU_BAT"|"V"|0.0|20.0|10,"FuelCut"|""|0.0|100.0|10,"InjDuty"|"%"|0.0|100.0|10,"BrakePres-F"|"psi"|0|1200|10,"BrakePres-R"|"psi"|0|1200|10,"AuxUpDuty"|"%"|0|100|10,"AuxDownDuty"|"%"|0|100|10,"EngineTemp"|"F"|0|300|10,"WheelSpdRL"|""|0|100|10,"WheelSpdRR"|""|0|100|10,"WheelSpdFL"|""|0|100|10,"WheelSpdFR"|""|0|100|10,"Gear"|""|0|10|10,"TireTmpLF1"|"C"|-40|200|50,"TireTmpLF2"|"C"|-40|200|50,"TireTmpLF3"|"C"|-40|200|50,"TireTmpLF4"|"C"|-40|200|50,"TireTmpLF5"|"C"|-40|200|50,"TireTmpLF6"|"C"|-40|200|50,"TireTmpLF7"|"C"|-40|200|50,"TireTmpLF8"|"C"|-40|200|50,"TireTmpRF1"|"C"|-40|200|50,"TireTmpRF2"|"C"|-40|200|50,"TireTmpRF3"|"C"|-40|200|50,"TireTmpRF4"|"C"|-40|200|50,"TireTmpRF5"|"C"|-40|200|50,"TireTmpRF6"|"C"|-40|200|50,"TireTmpRF7"|"C"|-40|200|50,"TireTmpRF8"|"C"|-40|200|50,"TireTmpLR1"|"C"|-40|200|50,"TireTmpLR2"|"C"|-40|200|50,"TireTmpLR3"|"C"|-40|200|50,"TireTmpLR4"|"C"|-40|200|50,"TireTmpLR5"|"C"|-40|200|50,"TireTmpLR6"|"C"|-40|200|50,"TireTmpLR7"|"C"|-40|200|50,"TireTmpLR8"|"C"|-40|200|50,"TireTmpRR1"|"C"|-40|200|50,"TireTmpRR2"|"C"|-40|200|50,"TireTmpRR3"|"C"|-40|200|50,"TireTmpRR4"|"C"|-40|200|50,"TireTmpRR5"|"C"|-40|200|50,"TireTmpRR6"|"C"|-40|200|50,"TireTmpRR7"|"C"|-40|200|50,"TireTmpRR8"|"C"|-40|200|50,"Latitude"|"Degrees"|-180.0|180.0|10,"Longitude"|"Degrees"|-180.0|180.0|10,"Speed"|"kph"|0.0|150.0|10,"Altitude"|"m"|0.0|4000.0|10,"GPSSats"|""|0|20|10,"GPSQual"|""|0|5|10,"GPSDOP"|""|0.0|20.0|10,"LapCount"|""|0|0|10,"LapTime"|"Min"|0.0|0.0|10,"Sector"|""|0|0|10,"SectorTime"|"Min"|0.0|0.0|10,"CurrentLap"|""|0|0|10,"Distance"|"mi"|0.0|0.0|10,"SessionTime"|"Min"|0.0|0.0|10
,,,,,,,,,,,,,,,,,,,,,,,,,,,,,,,,,,,,,,,,,,,,,,,,,,,,,,,,,,,,,,,,,,,,,,,,,,,,,,,,,,,
77853,0,1.2975,,-0.06,0.02,-0.35,0,-2,-0,0.36,0.94,38,-3,112.32,26.67,72.63,119.76,12.96,3591,1,22,57.7,0.96,0.87,12.66,0.0,123.0,52,54,0,0,63,0,0,0,0,1,44,46,46,46,44,42,43,44,36,41,42,42,43,42,43,44,30,32,31,30,28,27,26,26,36,37,47,51,52,52,54,52,0.0,0.0,0.0,0.0,0,0,0.0,0,0.0,-1,0.0,0,0.0,1.2975
77873,0,1.2979,,,,,,,,,,,,,,,,,,,,,,,,,,,,,,,,,,,,44,46,46,46,44,42,43,44,36,41,42,42,43,42,43,44,30,32,31,30,28,27,26,26,36,37,47,51,52,52,54,52,,,,,,,,,,,,,,
77893,0,1.2982,,-0.04,0.03,-0.23,0,-2,-1,0.24,0.94,25,,,,,,,,,,,,,,,,,,,,,,,,,,44,46,46,46,44,42,43,44,36,41,42,42,43,42,43,44,31,32,31,30,28,28,26,26,35,37,46,50,52,52,54,52,,,,,,,,,,,,,,
77913,0,1.2986,,,,,,,,,,,,,,,,,,,,,,,,,,,,,,,,,,,,44,46,46,46,44,42,43,44,36,41,42,42,43,42,43,44,31,32,31,30,28,28,26,26,35,37,46,50,52,52,54,52,,,,,,,,,,,,,,
77933,0,1.2989,,0.02,0.08,-0.03,0,-2,-1,0.09,0.94,10,,,,,,,,,,,,,,,,,,,,,,,,,,44,46,46,46,44,42,43,44,36,42,42,43,43,43,43,44,31,32,31,30,28,28,26,26,35,37,46,50,52,52,54,52,,,,,,,,,,,,,,
77953,0,1.2992,,,,,,,,,,,-2,112.32,26.67,72.63,120.42,12.96,3599,1,22,57.1,0.96,0.84,12.65,0.0,117.0,52,54,0,0,63,0,0,0,0,1,44,46,46,46,44,42,43,44,36,42,42,43,43,43,43,44,30,32,31,30,28,27,26,26,36,37,47,50,52,52,54,52,0.0,0.0,0.0,0.0,0,0,0.0,0,0.0,-1,0.0,0,0.0,1.2992
77973,0,1.2996,,-0.12,0.07,-0.3,0,-2,-0,0.33,0.94,35,,,,,,,,,,,,,,,,,,,,,,,,,,44,46,46,46,45,42,43,44,36,42,42,43,43,43,43,44,30,32,31,30,28,27,26,26,36,37,47,50,52,52,54,52,,,,,,,,,,,,,,
78013,0,1.3002,,0.08,0.03,-0.3,-0,-1,0,0.31,0.94,33,,,,,,,,,,,,,,,,,,,,,,,,,,44,46,46,46,45,42,43,44,36,41,42,43,43,43,43,44,31,32,31,30,28,27,26,26,35,37,47,50,52,52,54,52,,,,,,,,,,,,,,
78033,0,1.3005,,,,,,,,,,,,,,,,,,,,,,,,,,,,,,,,,,,,44,46,46,46,45,42,43,44,36,41,42,43,43,43,43,44,31,32,31,30,28,27,26,26,35,37,47,50,52,52,54,52,,,,,,,,,,,,,,
78053,0,1.3009,13.19,0.06,0.07,-0.13,0,-1,0,0.16,0.94,17,-3,112.32,26.55,72.72,118.44,12.94,3561,1,22,56.9,0.96,0.87,12.65,0.0,124.0,52,54,0,0,63,0,0,0,0,1,44,46,46,46,44,42,42,44,36,41,42,42,43,43,43,44,31,32,31,30,28,27,26,26,35,37,47,50,52,52,54,52,0.0,0.0,0.0,0.0,0,0,0.0,0,0.0,-1,0.0,0,0.0,1.3009
78073,0,1.3012,,,,,,,,,,,,,,,,,,,,,,,,,,,,,,,,,,,,44,46,46,46,44,42,42,44,36,41,42,42,43,43,43,44,31,32,31,30,28,27,26,26,36,37,46,51,52,52,54,52,,,,,,,,,,,,,,
78093,0,1.3016,,-0.13,0.05,-0.32,0,-3,-1,0.35,0.94,37,,,,,,,,,,,,,,,,,,,,,,,,,,44,46,46,46,44,42,42,44,36,41,42,42,43,43,43,44,31,32,31,30,28,27,26,26,36,37,46,51,52,52,54,52,,,,,,,,,,,,,,
78113,0,1.3019,,,,,,,,,,,,,,,,,,,,,,,,,,,,,,,,,,,,44,46,46,46,44,42,42,43,36,41,42,42,43,43,43,44,31,32,31,30,28,27,26,26,36,37,46,51,52,52,54,52,,,,,,,,,,,,,,
78133,0,1.3022,,0.02,0.0,-0.28,-0,-3,-1,0.28,0.94,30,,,,,,,,,,,,,,,,,,,,,,,,,,44,46,46,46,44,42,42,43,36,41,42,42,43,43,43,44,31,32,31,30,28,27,26,26,35,37,46,50,51,52,54,52,,,,,,,,,,,,,,
78153,0,1.3025,,,,,,,,,,,-3,112.32,26.55,72.72,117.45,12.97,3619,1,22,56.3,0.96,0.84,12.65,0.0,117.0,52,54,0,0,63,0,0,0,0,1,44,46,46,46,44,42,42,43,36,41,42,42,43,43,43,44,30,32,31,30,28,27,26,26,35,37,46,50,51,52,54,52,0.0,0.0,0.0,0.0,0,0,0.0,0,0.0,-1,0.0,0,0.0,1.3025
78173,0,1.3029,,0.01,0.02,-0.07,-0,-2,-0,0.07,0.94,7,,,,,,,,,,,,,,,,,,,,,,,,,,44,46,46,46,44,42,43,44,36,41,42,42,43,43,43,44,30,32,31,30,28,27,26,26,35,37,46,50,51,52,54,52,,,,,,,,,,,,,,
78193,0,1.3032,,,,,,,,,,,,,,,,,,,,,,,,,,,,,,,,,,,,44,46,46,46,44,42,43,44,36,41,42,43,44,43,44,44,30,32,31,30,28,27,26,26,35,37,46,50,51,52,54,52,,,,,,,,,,,,,,
78213,0,1.3036,,-0.18,0.0,-0.13,-0,-2,-1,0.22,0.94,23,,,,,,,,,,,,,,,,,,,,,,,,,,44,46,46,46,44,42,43,44,36,41,42,43,44,43,44,44,31,32,31,30,28,27,26,26,35,37,46,50,52,52,54,52,,,,,,,,,,,,,,
78233,0,1.3039,,,,,,,,,,,,,,,,,,,,,,,,,,,,,,,,,,,,44,46,46,46,44,42,42,43,36,41,42,43,44,43,44,44,31,32,31,30,28,27,26,26,35,37,46,50,52,52,54,52,,,,,,,,,,,,,,
78253,0,1.3042,,0.05,0.02,-0.2,-0,-2,-1,0.21,0.94,22,-2,112.53,26.46,72.51,121.41,12.98,3641,1,22,55.8,0.96,0.88,12.65,0.0,126.0,52,54,0,0,63,0,0,0,0,1,44,46,46,46,44,42,42,43,36,42,42,43,44,43,43,44,31,32,31,30,28,27,26,26,35,37,46,50,52,52,54,52,0.0,0.0,0.0,0.0,0,0,0.0,0,0.0,-1,0.0,0,0.0,1.3042
78273,0,1.3045,,,,,,,,,,,,,,,,,,,,,,,,,,,,,,,,,,,,44,46,46,46,44,42,42,43,36,42,42,43,44,43,43,44,30,32,31,30,28,27,26,26,36,37,46,50,52,52,54,53,,,,,,,,,,,,,,
78293,0,1.3049,,-0.01,0.02,-0.08,0,-1,-0,0.08,0.94,9,,,,,,,,,,,,,,,,,,,,,,,,,,44,46,46,46,44,42,42,44,36,42,42,43,44,43,43,44,30,32,31,30,28,27,26,26,36,37,46,50,52,52,54,53,,,,,,,,,,,,,,
78313,0,1.3052,,,,,,,,,,,,,,,,,,,,,,,,,,,,,,,,,,,,44,46,46,46,44,42,42,44,36,41,42,43,44,43,43,44,30,32,31,30,28,27,26,26,36,37,46,50,52,52,54,53,,,,,,,,,,,,,,
78333,0,1.3055,,-0.15,0.0,-0.1,0,-2,-1,0.18,0.94,19,,,,,,,,,,,,,,,,,,,,,,,,,,44,46,46,46,44,42,42,44,36,41,42,43,44,43,43,44,31,32,31,30,28,28,26,26,35,37,46,50,52,52,54,52,,,,,,,,,,,,,,
78353,0,1.3059,,,,,,,,,,,-2,112.32,26.55,72.72,119.01,12.96,3611,1,22,55.5,0.96,0.87,12.65,0.0,118.0,52,54,0,0,63,0,0,0,0,1,44,46,46,46,44,42,42,43,36,41,42,43,44,43,43,44,31,32,31,30,28,28,26,26,35,37,46,50,52,52,54,52,0.0,0.0,0.0,0.0,0,0,0.0,0,0.0,-1,0.0,0,0.0,1.3059
78373,0,1.3062,,-0.0,-0.04,-0.1,-0,-2,-0,0.11,0.94,11,,,,,,,,,,,,,,,,,,,,,,,,,,44,46,46,46,44,42,42,43,36,41,42,43,44,43,43,44,31,32,31,30,28,28,26,26,35,37,46,50,52,52,54,52,,,,,,,,,,,,,,
78393,0,1.3066,,,,,,,,,,,,,,,,,,,,,,,,,,,,,,,,,,,,44,46,46,46,44,42,42,43,36,41,42,43,44,43,43,44,30,32,31,30,28,27,26,26,35,37,46,50,52,52,54,53,,,,,,,,,,,,,,
78413,0,1.3069,,0.04,0.01,-0.0,0,-2,-0,0.05,0.94,5,,,,,,,,,,,,,,,,,,,,,,,,,,44,46,46,46,44,42,42,43,36,41,42,43,44,43,43,44,30,32,31,30,28,27,26,26,35,37,46,50,52,52,54,53,,,,,,,,,,,,,,
78433,0,1.3072,,,,,,,,,,,,,,,,,,,,,,,,,,,,,,,,,,,,44,46,46,46,44,42,42,43,36,41,42,42,43,43,43,44,30,32,31,30,28,27,26,26,35,37,46,50,52,52,54,53,,,,,,,,,,,,,,
78453,0,1.3075,,-0.08,-0.02,-0.06,-0,0,1,0.1,0.94,11,-3,112.32,26.55,72.72,118.68,12.96,3251,1,22,55.1,0.96,0.88,12.65,0.0,114.0,52,54,0,0,63,0,0,0,0,1,44,46,46,46,44,42,42,43,36,41,42,42,43,43,43,44,30,32,31,30,28,27,26,26,36,37,46,50,52,52,54,53,0.0,0.0,0.0,0.0,0,0,0.0,0,0.0,-1,0.0,0,0.0,1.3075
78473,0,1.3079,,,,,,,,,,,,,,,,,,,,,,,,,,,,,,,,,,,,44,46,46,46,44,42,42,43,36,41,42,42,43,43,43,44,30,32,31,30,28,27,26,26,36,37,46,50,52,52,54,53,,,,,,,,,,,,,,
78493,0,1.3082,,-0.18,-0.01,-0.01,-0,-1,0,0.18,0.94,19,,,,,,,,,,,,,,,,,,,,,,,,,,44,46,46,46,44,42,42,44,36,41,42,42,43,43,43,44,30,32,31,30,28,27,26,26,36,37,46,50,52,52,54,53,,,,,,,,,,,,,,
78513,0,1.3086,,,,,,,,,,,,,,,,,,,,,,,,,,,,,,,,,,,,44,46,46,46,44,42,42,44,36,41,42,42,43,43,43,44,30,32,31,30,28,27,26,26,36,37,46,50,52,52,54,53,,,,,,,,,,,,,,
78533,0,1.3089,,0.06,-0.0,-0.07,-0,-1,-0,0.09,0.94,10,,,,,,,,,,,,,,,,,,,,,,,,,,44,46,46,46,44,42,42,44,36,41,42,42,43,43,43,44,30,32,31,30,28,27,26,26,35,37,46,50,52,52,54,53,,,,,,,,,,,,,,
78553,0,1.3092,,,,,,,,,,,-2,112.44,26.55,72.63,121.2,12.96,3360,1,22,54.4,0.96,0.86,12.66,0.0,122.0,52,54,0,0,63,0,0,0,0,1,44,46,46,46,45,42,43,44,36,41,42,42,43,43,43,44,30,32,31,30,28,27,26,26,35,37,46,50,52,52,54,53,0.0,0.0,0.0,0.0,0,0,0.0,0,0.0,-1,0.0,0,0.0,1.3092
78573,0,1.3096,,-0.05,-0.01,-0.06,-0,1,0,0.08,0.94,8,,,,,,,,,,,,,,,,,,,,,,,,,,44,46,46,46,45,42,43,44,36,41,42,43,43,43,43,44,30,32,31,30,28,27,26,26,35,37,46,50,52,52,54,53,,,,,,,,,,,,,,
78593,0,1.3099,,,,,,,,,,,,,,,,,,,,,,,,,,,,,,,,,,,,44,46,46,46,45,42,43,44,36,41,42,43,43,43,43,44,31,32,31,30,28,27,26,26,35,37,46,50,52,52,54,52,,,,,,,,,,,,,,
78613,0,1.3102,,-0.1,-0.0,-0.07,-0,1,0,0.13,0.94,13,,,,,,,,,,,,,,,,,,,,,,,,,,44,46,46,46,44,42,42,43,36,41,42,43,43,43,43,44,31,32,31,30,28,27,26,26,35,37,46,50,52,52,54,52,,,,,,,,,,,,,,
78633,0,1.3105,,,,,,,,,,,,,,,,,,,,,,,,,,,,,,,,,,,,44,46,46,46,44,42,42,43,36,41,42,43,44,43,43,44,31,32,31,30,28,27,26,26,35,37,46,50,52,52,54,52,,,,,,,,,,,,,,
78653,0,1.3109,,0.15,0.02,-0.15,-0,1,0,0.21,0.94,22,-3,112.32,26.67,72.72,118.68,12.96,3380,1,22,56.1,0.96,0.88,12.66,0.0,118.0,52,54,0,0,63,0,0,0,0,1,44,46,46,46,44,42,42,43,36,41,42,43,44,43,43,44,30,32,31,30,28,28,26,26,35,37,46,50,51,52,54,53,0.0,0.0,0.0,0.0,0,0,0.0,0,0.0,-1,0.0,0,0.0,1.3109
78673,0,1.3112,,,,,,,,,,,,,,,,,,,,,,,,,,,,,,,,,,,,44,46,46,46,44,42,42,43,36,41,42,43,44,43,43,44,30,32,31,30,28,28,26,26,35,37,46,50,51,52,54,53,,,,,,,,,,,,,,
78693,0,1.3116,,0.08,0.03,0.02,-0,1,1,0.09,0.94,10,,,,,,,,,,,,,,,,,,,,,,,,,,44,46,46,46,44,42,42,43,36,41,42,42,44,43,43,44,30,32,31,30,28,28,26,26,35,37,46,50,51,52,54,53,,,,,,,,,,,,,,
78713,0,1.3119,,,,,,,,,,,,,,,,,,,,,,,,,,,,,,,,,,,,44,46,46,46,44,42,42,43,36,41,42,42,44,43,43,44,31,32,31,30,28,27,26,26,35,37,46,50,52,52,54,52,,,,,,,,,,,,,,
78733,0,1.3122,,-0.09,0.02,-0.06,-0,1,1,0.11,0.94,12,,,,,,,,,,,,,,,,,,,,,,,,,,44,46,46,46,44,42,42,44,36,41,42,42,44,43,43,44,31,32,31,30,28,27,26,26,35,37,46,50,52,52,54,52,,,,,,,,,,,,,,
78753,0,1.3126,,,,,,,,,,,-3,112.32,26.55,72.63,118.77,12.96,3370,1,22,59.2,0.96,0.89,12.66,0.0,119.0,52,54,0,0,63,0,0,0,0,1,44,46,46,46,44,42,42,44,36,41,42,42,44,43,43,44,31,32,31,30,28,27,26,26,35,37,46,50,52,52,54,52,0.0,0.0,0.0,0.0,0,0,0.0,0,0.0,-1,0.0,0,0.0,1.3126
78773,0,1.3129,,0.03,-0.0,0.06,0,2,1,0.07,0.94,7,,,,,,,,,,,,,,,,,,,,,,,,,,44,46,46,46,44,42,42,44,36,41,42,42,44,43,43,44,31,32,31,30,28,28,26,26,35,37,46,50,52,52,54,53,,,,,,,,,,,,,,
78793,0,1.3132,,,,,,,,,,,,,,,,,,,,,,,,,,,,,,,,,,,,44,46,46,46,44,42,42,44,36,41,42,42,44,43,43,44,31,32,31,30,28,28,26,26,35,37,46,50,52,52,54,53,,,,,,,,,,,,,,
78813,0,1.3136,,0.2,0.02,0.01,0,2,1,0.2,0.94,21,,,,,,,,,,,,,,,,,,,,,,,,,,44,46,46,46,44,42,42,44,36,41,42,42,43,43,43,44,31,32,31,30,28,28,26,26,35,37,46,50,52,52,54,53,,,,,,,,,,,,,,
78833,0,1.3139,,,,,,,,,,,,,,,,,,,,,,,,,,,,,,,,,,,,44,46,46,46,44,42,42,44,36,41,42,42,43,43,43,44,31,32,31,30,28,28,26,26,35,37,46,50,52,52,54,52,,,,,,,,,,,,,,
78853,0,1.3142,,0.11,-0.01,0.17,0,2,1,0.21,0.94,22,-3,112.2,26.55,72.63,119.01,12.96,3371,1,22,58.5,0.96,0.87,12.67,0.0,116.0,52,54,0,0,63,0,0,0,0,1,44,46,46,46,44,42,42,44,36,41,42,42,43,43,43,44,31,32,31,30,28,27,26,26,35,37,46,50,52,52,54,52,0.0,0.0,0.0,0.0,0,0,0.0,0,0.0,-1,0.0,0,0.0,1.3142
78873,0,1.3146,,,,,,,,,,,,,,,,,,,,,,,,,,,,,,,,,,,,44,46,46,46,44,42,42,44,36,41,42,42,43,43,43,44,31,32,31,30,28,27,26,26,35,37,46,50,52,52,54,52,,,,,,,,,,,,,,
78893,0,1.3149,,-0.07,0.01,0.03,0,2,1,0.07,0.94,8,,,,,,,,,,,,,,,,,,,,,,,,,,44,46,46,46,44,42,42,44,36,41,42,42,44,43,43,44,31,32,31,30,28,27,26,26,35,37,46,50,52,52,54,52,,,,,,,,,,,,,,
78913,0,1.3152,,,,,,,,,,,,,,,,,,,,,,,,,,,,,,,,,,,,44,46,46,46,44,42,42,44,36,41,42,42,44,43,43,44,30,32,31,30,28,27,26,26,36,37,47,50,52,52,54,53,,,,,,,,,,,,,,
78933,0,1.3155,,-0.07,0.0,0.12,0,2,1,0.14,0.94,14,,,,,,,,,,,,,,,,,,,,,,,,,,44,46,46,46,45,42,43,44,36,41,42,42,44,43,43,44,30,32,31,30,28,27,26,26,36,37,47,50,52,52,54,53,,,,,,,,,,,,,,
78953,0,1.3159,,,,,,,,,,,-3,112.32,26.67,72.63,117.36,12.96,3626,1,22,57.4,0.96,0.86,12.66,0.0,115.0,52,54,0,0,63,0,0,0,0,1,44,46,46,46,45,42,43,44,36,41,42,43,43,43,43,44,30,32,31,30,28,27,26,26,36,37,47,50,52,52,54,53,0.0,0.0,0.0,0.0,0,0,0.0,0,0.0,-1,0.0,0,0.0,1.3159
78973,0,1.3162,,0.14,0.01,0.04,0,1,1,0.14,0.94,15,,,,,,,,,,,,,,,,,,,,,,,,,,44,46,46,46,45,42,43,44,36,41,42,43,43,43,43,44,31,32,31,30,28,28,26,26,36,37,46,50,52,52,54,53,,,,,,,,,,,,,,
78993,0,1.3166,,,,,,,,,,,,,,,,,,,,,,,,,,,,,,,,,,,,44,46,46,46,45,42,43,44,36,41,42,43,43,43,43,44,31,32,31,30,28,28,26,26,36,37,46,50,52,52,54,53,,,,,,,,,,,,,,
79013,0,1.3169,,0.02,-0.03,0.16,0,2,1,0.17,0.94,18,,,,,,,,,,,,,,,,,,,,,,,,,,44,46,46,46,45,42,43,44,36,41,42,42,44,43,43,44,31,32,31,30,28,28,26,26,36,37,46,50,52,52,54,53,,,,,,,,,,,,,,
79033,0,1.3172,,,,,,,,,,,,,,,,,,,,,,,,,,,,,,,,,,,,44,46,46,46,45,42,43,44,36,41,42,42,44,43,43,44,31,32,31,30,28,27,26,26,35,37,46,50,52,52,54,53,,,,,,,,,,,,,,
79053,0,1.3175,13.17,-0.09,0.0,0.13,0,1,1,0.15,0.94,16,-2,112.32,26.67,72.51,119.88,12.97,3731,1,22,56.3,0.96,0.87,12.66,0.0,117.0,52,54,0,0,63,0,0,0,0,1,44,46,46,46,44,42,43,44,36,41,42,42,44,43,43,44,31,32,31,30,28,27,26,26,35,37,46,50,52,52,54,53,0.0,0.0,0.0,0.0,0,0,0.0,0,0.0,-1,0.0,0,0.0,1.3175
79073,0,1.3179,,,,,,,,,,,,,,,,,,,,,,,,,,,,,,,,,,,,44,46,46,46,44,42,43,44,36,41,42,42,43,42,43,44,31,32,31,30,28,27,26,26,35,37,46,50,52,52,54,53,,,,,,,,,,,,,,
79093,0,1.3182,,0.05,-0.0,0.23,0,1,1,0.24,0.94,25,,,,,,,,,,,,,,,,,,,,,,,,,,44,46,46,46,44,42,43,44,36,41,42,42,43,42,43,44,30,32,31,30,28,27,26,26,35,36,46,50,51,52,54,52,,,,,,,,,,,,,,
79113,0,1.3186,,,,,,,,,,,,,,,,,,,,,,,,,,,,,,,,,,,,44,46,46,46,44,42,42,44,36,41,42,42,43,42,43,44,30,32,31,30,28,27,26,26,35,36,46,50,51,52,54,52,,,,,,,,,,,,,,
79133,0,1.3189,,-0.11,-0.01,-0.03,0,0,0,0.12,0.94,13,,,,,,,,,,,,,,,,,,,,,,,,,,44,46,46,46,44,42,42,44,36,41,42,43,44,43,43,44,30,32,31,30,28,27,26,26,35,36,46,50,51,52,54,52,,,,,,,,,,,,,,
79153,0,1.3192,,,,,,,,,,,-3,112.2,26.55,72.63,119.34,12.95,3623,1,22,55.8,0.96,0.88,12.67,0.0,123.0,52,54,0,0,63,0,0,0,0,1,44,46,46,46,44,42,42,44,36,41,42,43,44,43,43,44,30,32,31,30,28,27,26,26,35,37,46,50,52,52,54,53,0.0,0.0,0.0,0.0,0,0,0.0,0,0.0,-1,0.0,0,0.0,1.3192
79173,0,1.3196,,-0.04,-0.02,-0.01,-0,0,0,0.04,0.94,5,,,,,,,,,,,,,,,,,,,,,,,,,,44,46,46,46,44,42,42,44,36,41,42,43,44,43,43,44,30,32,31,30,28,27,26,26,35,37,46,50,52,52,54,53,,,,,,,,,,,,,,
79193,0,1.3199,,,,,,,,,,,,,,,,,,,,,,,,,,,,,,,,,,,,44,46,46,46,44,42,42,43,36,41,42,43,44,43,44,44,30,32,31,30,28,27,26,26,35,37,46,50,52,52,54,53,,,,,,,,,,,,,,
79213,0,1.3202,,0.0,0.04,0.07,-0,-0,-0,0.08,0.94,9,,,,,,,,,,,,,,,,,,,,,,,,,,44,46,46,46,44,42,42,43,36,41,42,43,44,43,44,44,30,32,31,30,28,27,26,26,36,37,46,50,52,52,54,53,,,,,,,,,,,,,,
79233,0,1.3205,,,,,,,,,,,,,,,,,,,,,,,,,,,,,,,,,,,,44,46,46,46,44,42,42,43,36,41,42,43,44,43,44,44,31,32,31,30,28,27,26,26,36,37,46,50,52,52,54,53,,,,,,,,,,,,,,
79253,0,1.3209,,-0.14,0.0,0.08,-0,2,1,0.16,0.94,17,-3,112.2,26.55,72.84,119.01,12.96,3580,1,22,55.0,0.96,0.88,12.67,0.0,117.0,52,54,0,0,63,0,0,0,0,1,44,46,46,46,44,42,42,44,36,41,42,43,44,43,44,44,31,32,31,30,28,27,26,26,36,37,46,50,52,52,54,53,0.0,0.0,0.0,0.0,0,0,0.0,0,0.0,-1,0.0,0,0.0,1.3209
79273,0,1.3212,,,,,,,,,,,,,,,,,,,,,,,,,,,,,,,,,,,,44,46,46,46,44,42,42,44,36,41,42,43,44,43,44,44,31,32,31,30,28,27,26,26,36,37,46,50,52,52,54,53,,,,,,,,,,,,,,
79293,0,1.3216,,0.08,0.02,-0.01,0,1,0,0.08,0.94,8,,,,,,,,,,,,,,,,,,,,,,,,,,44,46,46,46,44,42,42,44,36,41,42,43,44,43,44,44,30,32,31,30,28,27,26,26,36,37,46,50,51,52,54,53,,,,,,,,,,,,,,
79313,0,1.3219,,,,,,,,,,,,,,,,,,,,,,,,,,,,,,,,,,,,44,46,46,46,44,42,43,44,36,41,42,43,44,43,44,44,30,32,31,30,28,27,26,26,36,37,46,50,51,52,54,53,,,,,,,,,,,,,,
79333,0,1.3222,,0.01,0.0,0.06,0,2,1,0.06,0.94,6,,,,,,,,,,,,,,,,,,,,,,,,,,44,46,46,46,44,42,43,44,36,41,42,43,44,43,43,44,30,32,31,30,28,27,26,26,36,37,46,50,51,52,54,53,,,,,,,,,,,,,,
79353,0,1.3226,,,,,,,,,,,-3,112.2,26.55,72.72,122.28,12.95,3486,1,22,54.4,0.96,0.87,12.67,0.0,122.0,52,54,0,0,63,0,0,0,0,1,44,46,46,46,44,42,43,44,36,41,42,43,44,43,43,44,30,32,31,30,28,27,26,26,36,37,46,50,52,52,54,53,0.0,0.0,0.0,0.0,0,0,0.0,0,0.0,-1,0.0,0,0.0,1.3226
79373,0,1.3229,,-0.04,0.01,-0.04,-0,2,1,0.05,0.94,6,,,,,,,,,,,,,,,,,,,,,,,,,,44,46,46,46,45,42,43,44,36,41,42,43,44,43,43,44,30,32,31,30,28,27,26,26,36,37,46,50,52,52,54,53,,,,,,,,,,,,,,
79393,0,1.3232,,,,,,,,,,,,,,,,,,,,,,,,,,,,,,,,,,,,44,46,46,46,45,42,43,44,36,41,42,42,43,42,43,44,30,32,31,30,28,27,26,26,36,37,46,50,52,52,54,53,,,,,,,,,,,,,,
79413,0,1.3235,,0.19,0.03,-0.12,0,2,1,0.23,0.94,24,,,,,,,,,,,,,,,,,,,,,,,,,,44,46,46,46,45,42,43,44,36,41,42,42,43,42,43,44,30,32,31,30,28,27,26,26,35,37,46,50,51,52,54,53,,,,,,,,,,,,,,
79433,0,1.3239,,,,,,,,,,,,,,,,,,,,,,,,,,,,,,,,,,,,44,46,46,46,45,42,43,44,36,41,42,42,43,42,43,44,30,32,31,30,28,27,26,26,35,37,46,50,51,52,54,53,,,,,,,,,,,,,,
79453,0,1.3242,,0.1,0.03,0.01,-0,2,1,0.11,0.94,11,-2,112.32,26.55,72.51,120.09,12.95,3274,1,22,53.7,0.96,0.85,12.67,0.0,114.0,52,54,0,0,63,0,0,0,0,1,44,46,46,46,45,42,43,44,36,41,42,43,43,43,43,44,30,32,31,30,28,27,26,26,35,37,46,50,51,52,54,53,0.0,0.0,0.0,0.0,0,0,0.0,0,0.0,-1,0.0,0,0.0,1.3242
79473,0,1.3246,,,,,,,,,,,,,,,,,,,,,,,,,,,,,,,,,,,,44,46,46,46,45,42,43,44,36,41,42,43,43,43,43,44,31,32,32,30,28,27,26,26,35,37,46,50,51,52,54,53,,,,,,,,,,,,,,
79493,0,1.3249,,-0.08,0.03,-0.08,-0,2,1,0.12,0.94,12,,,,,,,,,,,,,,,,,,,,,,,,,,44,46,46,46,45,42,43,44,36,41,42,43,43,43,43,44,31,32,32,30,28,27,26,26,35,37,46,50,51,52,54,53,,,,,,,,,,,,,,
79513,0,1.3252,,,,,,,,,,,,,,,,,,,,,,,,,,,,,,,,,,,,44,46,46,46,45,42,43,44,36,41,42,43,43,43,43,44,31,32,32,30,28,27,26,26,35,37,46,50,51,52,54,53,,,,,,,,,,,,,,
79533,0,1.3255,,0.14,0.02,-0.3,0,1,0,0.33,0.94,35,,,,,,,,,,,,,,,,,,,,,,,,,,44,46,46,46,45,42,43,44,36,41,42,43,43,43,43,44,31,32,31,30,28,28,26,26,35,37,46,50,51,52,54,53,,,,,,,,,,,,,,
79553,0,1.3259,,,,,,,,,,,-3,112.2,26.67,72.84,119.22,12.96,3343,1,22,55.8,0.96,0.84,12.67,0.0,120.0,52,54,0,0,63,0,0,0,0,1,44,46,46,46,45,42,43,44,36,41,42,43,43,43,43,44,31,32,31,30,28,28,26,26,35,37,46,50,51,52,54,53,0.0,0.0,0.0,0.0,0,0,0.0,0,0.0,-1,0.0,0,0.0,1.3259
79573,0,1.3262,,0.12,0.03,-0.11,0,0,-0,0.17,0.94,18,,,,,,,,,,,,,,,,,,,,,,,,,,44,46,46,46,45,42,43,44,36,41,42,43,43,43,43,44,31,32,31,30,28,28,26,26,35,37,46,50,51,52,54,53,,,,,,,,,,,,,,
79593,0,1.3266,,,,,,,,,,,,,,,,,,,,,,,,,,,,,,,,,,,,44,46,46,46,45,42,43,44,36,41,42,43,43,43,43,44,31,32,31,30,28,28,26,26,35,37,46,50,51,52,54,53,,,,,,,,,,,,,,
79613,0,1.3269,,-0.05,0.02,-0.14,-0,1,0,0.15,0.94,16,,,,,,,,,,,,,,,,,,,,,,,,,,44,46,46,46,45,42,43,44,36,41,42,43,43,43,43,44,31,32,31,30,28,27,26,26,36,37,46,50,51,52,54,53,,,,,,,,,,,,,,
79633,0,1.3272,,,,,,,,,,,,,,,,,,,,,,,,,,,,,,,,,,,,44,46,46,46,45,42,43,44,36,41,42,43,43,43,43,44,31,32,31,30,28,27,26,26,36,37,46,50,51,52,54,53,,,,,,,,,,,,,,
79653,0,1.3275,,-0.03,0.04,-0.03,-0,0,-0,0.06,0.94,7,-2,112.32,26.55,72.63,118.68,12.96,3482,1,22,60.8,0.96,0.84,12.67,0.0,115.0,52,54,0,0,63,0,0,0,0,1,44,46,46,46,45,42,43,44,36,41,42,43,44,43,43,44,31,32,31,30,28,27,26,26,36,37,46,50,51,52,54,53,0.0,0.0,0.0,0.0,0,0,0.0,0,0.0,-1,0.0,0,0.0,1.3275
79673,0,1.3279,,,,,,,,,,,,,,,,,,,,,,,,,,,,,,,,,,,,44,46,46,46,45,42,43,44,36,41,42,43,44,43,43,44,31,32,32,30,28,28,26,26,36,37,46,50,52,52,54,53,,,,,,,,,,,,,,
79693,0,1.3282,,0.1,0.06,-0.04,0,-0,-0,0.12,0.94,13,,,,,,,,,,,,,,,,,,,,,,,,,,44,46,46,46,45,43,43,44,36,41,42,43,44,43,43,44,31,32,32,30,28,28,26,26,36,37,46,50,52,52,54,53,,,,,,,,,,,,,,
79713,0,1.3285,,,,,,,,,,,,,,,,,,,,,,,,,,,,,,,,,,,,44,46,46,46,45,43,43,44,36,42,42,43,44,43,43,44,31,32,32,30,28,28,26,26,36,37,46,50,52,52,54,53,,,,,,,,,,,,,,
79733,0,1.3289,,-0.03,0.03,-0.23,0,1,1,0.23,0.94,24,,,,,,,,,,,,,,,,,,,,,,,,,,44,46,46,46,45,43,43,44,36,42,42,43,44,43,43,44,31,32,32,30,28,28,26,26,36,37,47,50,52,52,54,53,,,,,,,,,,,,,,
79753,0,1.3292,,,,,,,,,,,-3,112.32,26.67,72.63,123.27,12.96,3464,1,22,58.2,0.96,0.87,12.67,0.0,121.0,52,54,0,0,63,0,0,0,0,1,44,46,46,46,45,42,43,44,36,42,42,43,44,43,43,44,31,32,32,30,28,28,26,26,36,37,47,50,52,52,54,53,0.0,0.0,0.0,0.0,0,0,0.0,0,0.0,-1,0.0,0,0.0,1.3292
79773,0,1.3296,,0.1,-0.01,-0.1,-0,1,1,0.15,0.94,15,,,,,,,,,,,,,,,,,,,,,,,,,,44,46,46,46,45,42,43,44,36,41,42,43,43,43,43,44,31,32,32,30,28,28,26,26,36,37,47,50,52,52,54,53,,,,,,,,,,,,,,
79793,0,1.3299,,,,,,,,,,,,,,,,,,,,,,,,,,,,,,,,,,,,44,46,46,46,45,42,43,44,36,41,42,43,43,43,43,44,31,32,31,30,28,28,26,26,35,37,47,50,52,52,54,53,,,,,,,,,,,,,,
79813,0,1.3302,,0.18,0.04,0.01,-0,1,1,0.18,0.94,19,,,,,,,,,,,,,,,,,,,,,,,,,,44,46,46,46,44,42,43,44,36,41,42,43,43,43,43,44,31,32,31,30,28,28,26,26,35,37,47,50,52,52,54,53,,,,,,,,,,,,,,
79833,0,1.3305,,,,,,,,,,,,,,,,,,,,,,,,,,,,,,,,,,,,44,46,46,46,44,42,43,44,36,41,42,43,44,43,43,44,31,32,31,30,28,28,26,26,35,37,47,50,52,52,54,53,,,,,,,,,,,,,,
79853,0,1.3309,,-0.01,0.04,-0.2,0,1,1,0.2,0.94,21,-3,111.87,26.79,72.72,118.02,12.96,3508,1,22,57.5,0.96,0.83,12.68,0.0,119.0,52,54,0,0,64,0,0,0,0,1,44,46,46,46,44,42,43,44,36,41,42,43,44,43,43,44,31,32,32,30,28,27,26,26,36,37,46,50,52,52,54,53,0.0,0.0,0.0,0.0,0,0,0.0,0,0.0,-1,0.0,0,0.0,1.3309
79873,0,1.3312,,,,,,,,,,,,,,,,,,,,,,,,,,,,,,,,,,,,44,46,46,46,45,42,43,44,36,41,42,43,44,43,43,44,31,32,32,30,28,27,26,26,36,37,46,50,52,52,54,53,,,,,,,,,,,,,,
79893,0,1.3316,,0.05,0.05,-0.21,-0,0,1,0.22,0.94,23,,,,,,,,,,,,,,,,,,,,,,,,,,44,46,46,46,45,42,43,44,36,41,42,43,43,43,43,44,31,32,32,30,28,27,26,26,36,37,46,50,52,52,54,53,,,,,,,,,,,,,,
79913,0,1.3319,,,,,,,,,,,,,,,,,,,,,,,,,,,,,,,,,,,,44,46,46,46,45,42,43,44,36,41,42,43,43,43,43,44,31,32,32,30,28,28,26,26,35,37,46,50,52,52,54,53,,,,,,,,,,,,,,
79933,0,1.3322,,0.08,0.07,-0.08,0,-1,-0,0.13,0.94,14,,,,,,,,,,,,,,,,,,,,,,,,,,44,46,46,46,45,42,43,44,36,41,42,43,43,43,43,44,31,32,32,30,28,28,26,26,35,37,46,50,52,52,54,53,,,,,,,,,,,,,,
79953,0,1.3326,,,,,,,,,,,-3,112.32,26.55,72.84,118.23,12.97,3550,1,22,57.1,0.96,0.88,12.67,0.0,114.0,52,54,0,0,64,0,0,0,0,1,44,46,46,46,45,42,42,44,36,41,42,42,43,43,43,44,31,32,32,30,28,28,26,26,35,37,46,50,52,52,54,53,0.0,0.0,0.0,0.0,0,0,0.0,0,0.0,-1,0.0,0,0.0,1.3326
79973,0,1.3329,,-0.06,0.07,-0.22,-0,0,0,0.24,0.94,25,,,,,,,,,,,,,,,,,,,,,,,,,,44,46,46,46,45,42,42,44,36,41,42,42,43,43,43,44,31,32,32,30,28,28,26,26,35,37,46,50,52,52,54,53,,,,,,,,,,,,,,
79993,0,1.3332,,,,,,,,,,,,,,,,,,,,,,,,,,,,,,,,,,,,44,46,46,46,45,42,42,44,36,41,42,42,43,43,43,44,31,32,32,30,28,28,26,26,35,37,46,50,52,52,54,53,,,,,,,,,,,,,,
80013,0,1.3335,,0.08,0.04,-0.01,-0,1,1,0.09,0.94,9,,,,,,,,,,,,,,,,,,,,,,,,,,44,46,46,46,44,42,42,44,36,41,42,42,43,43,43,44,31,32,32,30,28,28,26,26,35,37,46,50,52,52,54,53,,,,,,,,,,,,,,
80033,0,1.3339,,,,,,,,,,,,,,,,,,,,,,,,,,,,,,,,,,,,44,46,46,46,44,42,42,44,36,41,42,43,43,42,43,44,31,32,32,30,28,28,26,26,35,37,46,50,52,52,54,53,,,,,,,,,,,,,,
80053,0,1.3342,13.2,0.18,0.06,0.02,-0,1,0,0.19,0.94,20,-2,112.32,26.67,72.51,123.39,12.96,3504,1,22,56.7,0.96,0.89,12.67,0.0,122.0,52,54,0,0,64,0,0,0,0,1,44,46,46,46,44,42,42,44,36,41,42,43,43,42,43,44,31,32,32,30,28,27,26,26,36,37,46,51,52,52,54,53,0.0,0.0,0.0,0.0,0,0,0.0,0,0.0,-1,0.0,0,0.0,1.3342
80073,0,1.3346,,,,,,,,,,,,,,,,,,,,,,,,,,,,,,,,,,,,44,46,46,46,45,42,43,44,36,41,42,43,43,42,43,44,31,32,32,30,28,27,26,26,36,37,46,51,52,52,54,53,,,,,,,,,,,,,,
80093,0,1.3349,,0.05,-0.0,0.04,-0,2,1,0.06,0.94,7,,,,,,,,,,,,,,,,,,,,,,,,,,44,46,46,46,45,42,43,44,36,41,42,42,43,42,43,44,31,32,32,30,28,27,26,26,36,37,46,51,52,52,54,53,,,,,,,,,,,,,,
80113,0,1.3352,,,,,,,,,,,,,,,,,,,,,,,,,,,,,,,,,,,,44,46,46,46,45,42,43,44,36,41,42,42,43,42,43,44,31,32,31,30,28,27,26,26,36,37,46,51,52,52,54,53,,,,,,,,,,,,,,
80133,0,1.3356,,-0.01,0.02,-0.01,-0,2,1,0.02,0.94,2,,,,,,,,,,,,,,,,,,,,,,,,,,44,46,46,46,45,42,43,44,36,41,42,42,43,42,43,44,31,32,31,30,28,27,26,26,36,37,46,51,52,52,54,53,,,,,,,,,,,,,,
80153,0,1.3359,,,,,,,,,,,-3,112.2,26.67,72.72,118.56,12.96,3611,1,22,56.4,0.96,0.87,12.67,0.0,118.0,52,54,0,0,64,0,0,0,0,1,44,46,46,46,45,42,43,44,36,41,42,43,44,43,43,44,31,32,31,30,28,27,26,26,36,37,46,51,52,52,54,53,0.0,0.0,0.0,0.0,0,0,0.0,0,0.0,-1,0.0,0,0.0,1.3359
80173,0,1.3362,,0.24,0.04,-0.1,-0,2,1,0.26,0.94,28,,,,,,,,,,,,,,,,,,,,,,,,,,44,46,46,46,45,42,43,44,36,41,42,43,44,43,43,44,30,32,31,30,28,27,26,26,35,37,46,50,52,52,54,53,,,,,,,,,,,,,,
80193,0,1.3366,,,,,,,,,,,,,,,,,,,,,,,,,,,,,,,,,,,,44,46,46,46,45,42,43,44,36,41,42,43,44,43,43,44,30,32,31,30,28,27,26,26,35,37,46,50,52,52,54,53,,,,,,,,,,,,,,
80213,0,1.3369,,0.15,0.04,0.04,0,1,1,0.16,0.94,16,,,,,,,,,,,,,,,,,,,,,,,,,,44,46,46,46,45,42,43,44,36,41,42,43,44,43,43,44,30,32,31,30,28,27,26,26,35,37,46,50,52,52,54,53,,,,,,,,,,,,,,
80233,0,1.3372,,,,,,,,,,,,,,,,,,,,,,,,,,,,,,,,,,,,44,46,46,46,45,42,43,44,36,41,42,43,44,43,43,44,31,32,31,30,28,27,26,26,36,37,46,50,52,52,54,53,,,,,,,,,,,,,,
80253,0,1.3376,,-0.07,0.05,-0.24,0,1,0,0.25,0.94,27,-2,112.32,26.67,72.72,119.22,12.98,3462,1,22,55.7,0.96,0.87,12.67,0.0,112.0,52,54,0,0,64,0,0,0,0,1,44,46,46,46,45,42,43,44,36,41,42,43,44,43,43,44,31,32,31,30,28,27,26,26,36,37,46,50,52,52,54,53,0.0,0.0,0.0,0.0,0,0,0.0,0,0.0,-1,0.0,0,0.0,1.3376
80273,0,1.3379,,,,,,,,,,,,,,,,,,,,,,,,,,,,,,,,,,,,44,46,46,46,45,42,43,44,36,41,42,42,43,43,43,44,31,32,31,30,28,27,26,26,36,37,46,50,52,52,54,53,,,,,,,,,,,,,,
80293,0,1.3382,,0.16,0.03,-0.3,0,1,-0,0.34,0.94,36,,,,,,,,,,,,,,,,,,,,,,,,,,44,46,46,46,45,42,43,44,36,41,42,42,43,43,43,44,31,32,31,30,28,27,26,26,35,37,46,51,52,52,54,53,,,,,,,,,,,,,,
80313,0,1.3385,,,,,,,,,,,,,,,,,,,,,,,,,,,,,,,,,,,,44,46,46,46,45,42,43,44,36,41,42,42,43,43,43,44,32,32,32,30,28,28,26,26,35,37,46,51,52,52,54,53,,,,,,,,,,,,,,
80333,0,1.3389,,0.15,0.03,-0.14,0,0,-0,0.2,0.94,22,,,,,,,,,,,,,,,,,,,,,,,,,,44,46,46,46,44,42,43,44,36,41,42,42,43,43,43,44,32,32,32,30,28,28,26,26,35,37,46,51,52,52,54,53,,,,,,,,,,,,,,
80353,0,1.3392,,,,,,,,,,,-2,112.32,26.67,72.63,121.29,12.95,3397,1,22,54.9,0.96,0.85,12.67,0.0,122.0,52,54,0,0,64,0,0,0,0,1,44,46,46,46,44,42,43,44,36,41,42,42,43,42,43,44,32,32,32,30,28,28,26,26,35,37,46,51,52,52,54,53,0.0,0.0,0.0,0.0,0,0,0.0,0,0.0,-1,0.0,0,0.0,1.3392
80373,0,1.3396,,-0.02,0.01,-0.1,0,1,0,0.11,0.94,11,,,,,,,,,,,,,,,,,,,,,,,,,,44,46,46,46,44,42,43,44,36,41,42,42,43,42,43,44,30,32,31,30,28,27,26,26,35,37,46,50,52,52,54,53,,,,,,,,,,,,,,
80393,0,1.3399,,,,,,,,,,,,,,,,,,,,,,,,,,,,,,,,,,,,44,46,46,46,45,42,43,44,36,41,42,42,43,42,43,44,30,32,31,30,28,27,26,26,35,37,46,50,52,52,54,53,,,,,,,,,,,,,,
80413,0,1.3402,,0.2,0.0,0.01,0,1,0,0.2,0.94,21,,,,,,,,,,,,,,,,,,,,,,,,,,44,46,46,46,45,42,43,44,36,41,42,42,43,42,43,44,30,32,31,30,28,27,26,26,35,37,46,50,52,52,54,53,,,,,,,,,,,,,,
80433,0,1.3405,,,,,,,,,,,,,,,,,,,,,,,,,,,,,,,,,,,,44,46,46,46,45,42,43,44,36,41,42,42,43,42,43,44,30,32,31,30,28,27,26,26,36,37,47,51,52,52,54,54,,,,,,,,,,,,,,
80453,0,1.3409,,0.09,0.01,0.09,0,2,0,0.13,0.94,14,-2,112.44,26.67,72.63,120.75,12.97,3252,1,22,53.9,0.96,0.87,12.67,0.0,116.0,52,54,0,0,64,0,0,0,0,1,44,46,46,46,45,42,43,44,36,41,42,42,43,42,43,44,30,32,31,30,28,27,26,26,36,37,47,51,52,52,54,54,0.0,0.0,0.0,0.0,0,0,0.0,0,0.0,-1,0.0,0,0.0,1.3409
80473,0,1.3412,,,,,,,,,,,,,,,,,,,,,,,,,,,,,,,,,,,,44,46,46,46,45,42,43,44,36,41,42,42,43,42,43,44,30,32,31,30,28,27,26,26,36,37,47,51,52,52,54,54,,,,,,,,,,,,,,
80493,0,1.3416,,-0.06,0.04,0.08,0,1,-0,0.1,0.94,11,,,,,,,,,,,,,,,,,,,,,,,,,,44,46,46,46,45,42,43,44,36,41,42,42,43,42,43,44,31,32,31,30,28,28,26,26,36,38,47,51,52,52,54,54,,,,,,,,,,,,,,
80513,0,1.3419,,,,,,,,,,,,,,,,,,,,,,,,,,,,,,,,,,,,44,46,46,46,45,43,43,44,36,41,42,42,43,42,43,44,31,32,31,30,28,28,26,26,36,38,47,51,52,52,54,54,,,,,,,,,,,,,,
80533,0,1.3422,,0.17,0.05,0.0,0,-0,-0,0.17,0.94,18,,,,,,,,,,,,,,,,,,,,,,,,,,44,46,46,46,45,43,43,44,36,41,42,43,44,43,43,44,31,32,31,30,28,28,26,26,36,38,47,51,52,52,54,54,,,,,,,,,,,,,,
80553,0,1.3426,,,,,,,,,,,-3,112.11,26.67,72.84,119.34,12.94,3306,1,22,55.0,0.96,0.87,12.68,0.0,119.0,52,54,0,0,64,0,0,0,0,1,44,46,46,46,45,43,43,44,36,41,42,43,44,43,43,44,31,32,32,30,28,27,26,26,35,37,47,51,52,52,54,53,0.0,0.0,0.0,0.0,0,0,0.0,0,0.0,-1,0.0,0,0.0,1.3426
80573,0,1.3429,,0.11,0.02,0.18,0,1,0,0.21,0.94,23,,,,,,,,,,,,,,,,,,,,,,,,,,44,46,46,46,45,43,43,44,36,41,42,43,44,43,43,44,31,32,32,30,28,27,26,26,35,37,47,51,52,52,54,53,,,,,,,,,,,,,,
80593,0,1.3432,,,,,,,,,,,,,,,,,,,,,,,,,,,,,,,,,,,,44,46,46,46,45,43,43,44,36,42,42,43,44,43,43,44,31,32,32,30,28,27,26,26,35,37,47,51,52,52,54,53,,,,,,,,,,,,,,
80613,0,1.3435,,0.0,-0.01,0.09,0,1,0,0.09,0.94,9,,,,,,,,,,,,,,,,,,,,,,,,,,44,46,46,46,45,43,43,44,36,42,42,43,44,43,43,44,31,32,31,30,28,28,26,26,36,38,47,51,52,52,54,54,,,,,,,,,,,,,,
80633,0,1.3439,,,,,,,,,,,,,,,,,,,,,,,,,,,,,,,,,,,,44,46,46,46,45,42,43,44,36,42,42,43,44,43,43,44,31,32,31,30,28,28,26,26,36,38,47,51,52,52,54,54,,,,,,,,,,,,,,
80653,0,1.3442,,-0.13,0.02,-0.02,0,0,-0,0.14,0.94,14,-2,112.32,26.67,72.51,124.71,12.98,3274,1,22,59.4,0.96,0.87,12.68,0.0,112.0,52,54,0,0,64,0,0,0,0,1,44,46,46,46,45,42,43,44,36,41,42,43,44,43,43,44,31,32,31,30,28,28,26,26,36,38,47,51,52,52,54,54,0.0,0.0,0.0,0.0,0,0,0.0,0,0.0,-1,0.0,0,0.0,1.3442
80673,0,1.3446,,,,,,,,,,,,,,,,,,,,,,,,,,,,,,,,,,,,44,46,46,46,45,42,43,44,36,41,42,43,44,43,43,44,31,32,31,30,28,28,26,26,36,38,47,51,52,52,54,54,,,,,,,,,,,,,,
80693,0,1.3449,,-0.03,0.01,0.04,0,1,0,0.05,0.94,5,,,,,,,,,,,,,,,,,,,,,,,,,,44,46,46,46,45,42,43,44,36,41,42,43,44,43,43,44,31,32,31,30,28,27,26,26,36,37,47,51,52,52,54,53,,,,,,,,,,,,,,
80713,0,1.3452,,,,,,,,,,,,,,,,,,,,,,,,,,,,,,,,,,,,44,46,46,46,45,42,43,44,36,41,42,43,44,43,43,44,31,32,31,30,28,27,26,26,36,37,47,51,52,52,54,53,,,,,,,,,,,,,,
80733,0,1.3456,,0.2,0.05,-0.13,0,0,-0,0.24,0.94,26,,,,,,,,,,,,,,,,,,,,,,,,,,44,46,46,46,45,42,43,44,36,41,42,43,43,43,43,44,31,32,31,30,28,27,26,26,36,37,47,51,52,52,54,53,,,,,,,,,,,,,,
80753,0,1.3459,,,,,,,,,,,-3,112.32,26.67,72.72,118.02,12.97,3380,1,22,58.6,0.96,0.9,12.68,0.0,110.0,52,54,0,0,64,0,0,0,0,1,44,46,46,46,45,42,43,44,36,41,42,43,43,43,43,44,31,32,32,30,28,28,26,26,36,38,47,51,52,52,54,53,0.0,0.0,0.0,0.0,0,0,0.0,0,0.0,-1,0.0,0,0.0,1.3459
80773,0,1.3462,,0.12,0.01,0.05,-0,0,0,0.13,0.94,14,,,,,,,,,,,,,,,,,,,,,,,,,,44,46,46,46,44,42,43,44,36,41,42,43,43,43,43,44,31,32,32,30,28,28,26,26,36,38,47,51,52,52,54,53,,,,,,,,,,,,,,
80793,0,1.3466,,,,,,,,,,,,,,,,,,,,,,,,,,,,,,,,,,,,44,46,46,46,44,42,43,44,36,41,42,43,43,42,43,44,31,32,32,30,28,28,26,26,36,38,47,51,52,52,54,53,,,,,,,,,,,,,,
80813,0,1.3469,,-0.05,0.04,-0.17,0,-0,-0,0.18,0.94,19,,,,,,,,,,,,,,,,,,,,,,,,,,44,46,46,46,44,42,43,44,36,41,42,43,43,42,43,44,31,32,32,30,29,28,26,26,36,38,47,51,52,52,54,54,,,,,,,,,,,,,,
80833,0,1.3472,,,,,,,,,,,,,,,,,,,,,,,,,,,,,,,,,,,,44,46,46,46,45,43,43,44,36,41,42,43,43,42,43,44,31,32,32,30,29,28,26,26,36,38,47,51,52,52,54,54,,,,,,,,,,,,,,
80853,0,1.3476,,-0.02,0.02,0.04,0,1,0,0.05,0.94,5,-2,112.32,26.67,72.63,117.45,12.93,3519,1,22,57.6,0.96,0.87,12.67,0.0,118.0,52,54,0,0,64,0,0,0,0,1,44,46,46,46,45,43,43,44,36,41,42,42,43,43,43,44,31,32,32,30,29,28,26,26,36,38,47,51,52,52,54,54,0.0,0.0,0.0,0.0,0,0,0.0,0,0.0,-1,0.0,0,0.0,1.3476
80873,0,1.3479,,,,,,,,,,,,,,,,,,,,,,,,,,,,,,,,,,,,44,46,46,46,45,43,43,44,36,41,42,42,43,43,43,44,31,32,32,30,28,27,26,26,36,38,47,52,52,52,54,54,,,,,,,,,,,,,,
80893,0,1.3482,,0.2,0.04,0.02,0,0,0,0.2,0.94,21,,,,,,,,,,,,,,,,,,,,,,,,,,44,46,46,46,45,42,43,44,36,41,42,42,43,43,43,44,31,32,32,30,28,27,26,26,36,38,47,52,52,52,54,54,,,,,,,,,,,,,,
80913,0,1.3485,,,,,,,,,,,,,,,,,,,,,,,,,,,,,,,,,,,,44,46,46,46,45,42,43,44,36,41,42,42,43,42,43,44,31,32,32,30,28,27,26,26,36,38,47,52,52,52,54,54,,,,,,,,,,,,,,
80933,0,1.3489,,0.1,-0.01,0.15,-0,1,1,0.19,0.94,20,,,,,,,,,,,,,,,,,,,,,,,,,,44,46,46,46,45,42,43,44,36,41,42,42,43,42,43,44,31,32,31,30,28,28,26,26,36,38,47,51,52,52,54,54,,,,,,,,,,,,,,
80953,0,1.3492,,,,,,,,,,,-2,112.32,26.67,72.72,118.68,12.97,3323,1,22,56.4,0.96,0.87,12.68,0.0,118.0,52,54,0,0,64,0,0,0,0,1,44,46,46,46,45,42,43,44,36,41,42,42,43,42,43,44,31,32,31,30,28,28,26,26,36,38,47,51,52,52,54,54,0.0,0.0,0.0,0.0,0,0,0.0,0,0.0,-1,0.0,0,0.0,1.3492
80973,0,1.3496,,-0.06,-0.02,0.2,-0,0,1,0.21,0.94,22,,,,,,,,,,,,,,,,,,,,,,,,,,44,46,46,46,45,42,43,44,36,41,42,42,43,42,43,44,31,32,31,30,28,28,26,26,36,38,47,51,52,52,54,54,,,,,,,,,,,,,,
80993,0,1.3499,,,,,,,,,,,,,,,,,,,,,,,,,,,,,,,,,,,,44,46,46,46,45,42,43,44,36,41,42,42,43,42,43,44,31,32,31,30,28,27,26,26,36,38,47,51,52,52,54,54,,,,,,,,,,,,,,
81013,0,1.3502,,0.16,-0.05,0.23,-0,0,1,0.28,0.94,30,,,,,,,,,,,,,,,,,,,,,,,,,,44,46,46,46,45,42,43,44,36,41,42,42,43,42,43,44,31,32,31,30,28,27,26,26,36,38,47,51,52,52,54,54,,,,,,,,,,,,,,
81033,0,1.3505,,,,,,,,,,,,,,,,,,,,,,,,,,,,,,,,,,,,44,46,46,46,44,42,43,44,36,41,42,43,43,43,43,44,31,32,31,30,28,27,26,26,36,38,47,51,52,52,54,54,,,,,,,,,,,,,,
81053,0,1.3509,13.19,0.03,-0.04,0.28,0,0,0,0.28,0.94,30,-3,112.32,26.79,72.63,124.26,12.99,3380,1,22,54.8,0.96,0.88,12.68,0.0,118.0,52,54,0,0,64,0,0,0,0,1,44,46,46,46,44,42,43,44,36,41,42,43,43,43,43,44,31,32,31,30,28,27,26,26,36,38,47,51,52,52,54,54,0.0,0.0,0.0,0.0,0,0,0.0,0,0.0,-1,0.0,0,0.0,1.3509
81073,0,1.3512,,,,,,,,,,,,,,,,,,,,,,,,,,,,,,,,,,,,44,46,46,46,44,42,43,44,36,41,42,43,43,43,43,44,31,32,31,30,28,27,26,26,36,38,47,51,52,52,54,54,,,,,,,,,,,,,,
81093,0,1.3515,,-0.01,-0.03,0.02,-0,-2,-0,0.04,0.94,4,,,,,,,,,,,,,,,,,,,,,,,,,,44,46,46,46,45,42,43,44,36,41,42,43,43,43,43,44,31,32,31,30,28,27,26,26,36,38,47,51,52,52,54,54,,,,,,,,,,,,,,
81113,0,1.3519,,,,,,,,,,,,,,,,,,,,,,,,,,,,,,,,,,,,44,46,46,46,45,42,43,44,36,41,42,43,43,43,43,44,31,32,31,30,28,27,26,26,36,38,47,51,52,52,54,54,,,,,,,,,,,,,,
81133,0,1.3522,,0.07,-0.02,0.13,-0,-2,-0,0.15,0.94,16,,,,,,,,,,,,,,,,,,,,,,,,,,44,46,46,46,45,42,43,44,36,41,42,43,43,43,43,44,31,32,32,30,28,28,26,26,36,38,47,51,52,52,54,54,,,,,,,,,,,,,,
81153,0,1.3526,,,,,,,,,,,-2,112.65,26.79,72.63,123.06,12.96,3385,1,22,54.3,0.96,0.87,12.69,0.0,124.0,52,54,0,0,64,0,0,0,0,1,44,46,46,46,45,42,43,44,36,41,42,43,43,43,43,44,31,32,32,30,28,28,26,26,36,38,47,51,52,52,54,54,0.0,0.0,0.0,0.0,0,0,0.0,0,0.0,-1,0.0,0,0.0,1.3526
81173,0,1.3529,,-0.11,-0.01,-0.04,-0,-3,-0,0.12,0.94,12,,,,,,,,,,,,,,,,,,,,,,,,,,44,46,46,46,45,42,43,44,36,41,42,42,43,43,43,44,31,32,32,30,28,28,26,26,36,38,47,51,52,52,54,54,,,,,,,,,,,,,,
81193,0,1.3532,,,,,,,,,,,,,,,,,,,,,,,,,,,,,,,,,,,,44,46,46,46,45,42,43,44,36,41,42,42,43,43,43,44,32,32,32,30,28,28,26,26,36,38,47,51,52,52,54,54,,,,,,,,,,,,,,
81213,0,1.3535,,0.1,-0.02,-0.13,0,-3,-1,0.17,0.94,18,,,,,,,,,,,,,,,,,,,,,,,,,,44,46,46,46,45,43,43,44,36,41,42,42,43,43,43,44,32,32,32,30,28,28,26,26,36,38,47,51,52,52,54,54,,,,,,,,,,,,,,
81233,0,1.3539,,,,,,,,,,,,,,,,,,,,,,,,,,,,,,,,,,,,44,46,46,46,45,43,43,44,36,41,42,42,43,43,43,44,32,32,32,30,28,28,26,26,36,38,47,51,52,52,54,54,,,,,,,,,,,,,,
81253,0,1.3542,,-0.0,0.01,-0.06,0,-2,-1,0.06,0.94,6,-2,112.44,26.79,72.72,121.86,12.94,3362,1,22,53.8,0.96,0.83,12.68,0.0,118.0,52,54,0,0,64,0,0,0,0,1,44,46,46,46,45,43,43,44,36,41,42,42,43,43,43,44,31,32,32,30,28,28,26,26,35,37,47,51,52,52,54,53,0.0,0.0,0.0,0.0,0,0,0.0,0,0.0,-1,0.0,0,0.0,1.3542
81273,0,1.3546,,,,,,,,,,,,,,,,,,,,,,,,,,,,,,,,,,,,44,46,46,46,45,42,43,44,36,41,42,42,43,43,43,44,31,32,32,30,28,28,26,26,35,37,47,51,52,52,54,53,,,,,,,,,,,,,,
81293,0,1.3549,,-0.07,0.04,-0.11,-0,-3,-1,0.13,0.94,14,,,,,,,,,,,,,,,,,,,,,,,,,,44,46,46,46,45,42,43,44,36,41,42,42,43,43,43,44,31,32,32,30,28,28,26,26,35,37,47,51,52,52,54,53,,,,,,,,,,,,,,
81313,0,1.3552,,,,,,,,,,,,,,,,,,,,,,,,,,,,,,,,,,,,44,46,46,46,45,42,43,44,36,41,42,42,43,43,43,44,31,32,32,30,28,28,26,26,36,38,47,51,52,52,54,54,,,,,,,,,,,,,,
81333,0,1.3556,,0.1,0.03,-0.05,0,-2,-1,0.12,0.94,12,,,,,,,,,,,,,,,,,,,,,,,,,,44,46,46,46,45,42,43,44,36,41,42,42,43,43,43,44,31,32,32,30,28,28,26,26,36,38,47,51,52,52,54,54,,,,,,,,,,,,,,
81353,0,1.3559,,,,,,,,,,,-3,112.44,26.79,72.96,115.8,12.96,3248,1,22,53.6,0.96,0.86,12.69,0.0,121.0,52,54,0,0,64,0,0,0,0,1,44,46,46,46,45,42,43,44,36,41,42,43,43,43,43,44,31,32,32,30,28,28,26,26,36,38,47,51,52,52,54,54,0.0,0.0,0.0,0.0,0,0,0.0,0,0.0,-1,0.0,0,0.0,1.3559
81373,0,1.3562,,-0.02,0.0,-0.05,0,-0,0,0.05,0.94,5,,,,,,,,,,,,,,,,,,,,,,,,,,44,46,46,46,45,42,43,44,36,41,42,43,43,43,43,44,31,32,31,30,28,27,26,26,36,38,47,51,52,52,54,53,,,,,,,,,,,,,,
81393,0,1.3565,,,,,,,,,,,,,,,,,,,,,,,,,,,,,,,,,,,,44,46,46,46,45,42,43,44,36,41,42,43,43,43,43,44,31,32,31,30,28,27,26,26,36,38,47,51,52,52,54,53,,,,,,,,,,,,,,
81413,0,1.3569,,-0.02,0.0,0.09,0,1,0,0.1,0.94,10,,,,,,,,,,,,,,,,,,,,,,,,,,44,46,46,46,44,42,43,44,36,41,42,43,43,43,43,44,31,32,31,30,28,27,26,26,36,38,47,51,52,52,54,53,,,,,,,,,,,,,,
81433,0,1.3572,,,,,,,,,,,,,,,,,,,,,,,,,,,,,,,,,,,,44,46,46,46,44,42,43,44,36,41,42,42,44,43,43,44,31,32,31,30,28,27,26,26,36,38,47,51,52,52,54,53,,,,,,,,,,,,,,
81453,0,1.3576,,0.13,0.01,0.08,0,1,0,0.16,0.94,17,-3,112.32,26.67,72.84,121.95,12.96,3476,1,22,54.5,0.96,0.88,12.68,0.0,119.0,52,54,0,0,64,0,0,0,0,1,44,46,46,46,44,42,43,44,36,41,42,42,44,43,43,44,30,32,32,30,28,28,26,26,36,38,47,51,52,52,54,53,0.0,0.0,0.0,0.0,0,0,0.0,0,0.0,-1,0.0,0,0.0,1.3576
81473,0,1.3579,,,,,,,,,,,,,,,,,,,,,,,,,,,,,,,,,,,,44,46,46,46,44,42,43,44,36,41,42,42,44,43,43,44,30,32,32,30,28,28,26,26,36,38,47,51,52,52,54,53,,,,,,,,,,,,,,
81493,0,1.3582,,-0.01,-0.02,-0.03,0,1,1,0.04,0.94,4,,,,,,,,,,,,,,,,,,,,,,,,,,44,46,46,46,44,42,43,44,36,41,42,43,44,43,43,44,30,32,32,30,28,28,26,26,36,38,47,51,52,52,54,53,,,,,,,,,,,,,,
81513,0,1.3586,,,,,,,,,,,,,,,,,,,,,,,,,,,,,,,,,,,,44,46,46,46,44,42,43,44,36,41,42,43,44,43,43,44,31,32,32,30,29,28,26,26,36,38,47,51,52,52,54,53,,,,,,,,,,,,,,
81533,0,1.3589,,0.11,-0.07,0.14,-0,2,2,0.19,0.94,20,,,,,,,,,,,,,,,,,,,,,,,,,,44,46,46,46,45,42,43,44,36,41,42,43,44,43,43,44,31,32,32,30,29,28,26,26,36,38,47,51,52,52,54,53,,,,,,,,,,,,,,
81553,0,1.3592,,,,,,,,,,,-2,112.44,26.67,72.72,121.41,12.97,3527,1,22,56.2,0.96,0.86,12.68,0.0,123.0,52,54,0,0,64,0,0,0,0,1,44,46,46,46,45,42,43,44,36,41,42,43,44,43,43,44,31,32,32,30,29,28,26,26,36,38,47,51,52,52,54,53,0.0,0.0,0.0,0.0,0,0,0.0,0,0.0,-1,0.0,0,0.0,1.3592
81573,0,1.3596,,0.16,0.01,0.19,0,1,1,0.25,0.94,26,,,,,,,,,,,,,,,,,,,,,,,,,,44,46,46,46,45,42,43,44,36,41,42,43,44,43,43,44,31,32,32,30,28,28,26,26,36,38,47,51,52,52,54,54,,,,,,,,,,,,,,
81593,0,1.3599,,,,,,,,,,,,,,,,,,,,,,,,,,,,,,,,,,,,44,46,46,46,45,42,43,44,36,41,42,43,44,43,43,44,31,32,32,30,28,28,26,26,36,38,47,51,52,52,54,54,,,,,,,,,,,,,,
81613,0,1.3602,,-0.01,0.01,0.17,0,1,1,0.17,0.94,18,,,,,,,,,,,,,,,,,,,,,,,,,,44,46,46,46,45,42,43,44,36,41,42,42,43,42,43,44,31,32,32,30,28,28,26,26,36,38,47,51,52,52,54,54,,,,,,,,,,,,,,
81633,0,1.3605,,,,,,,,,,,,,,,,,,,,,,,,,,,,,,,,,,,,44,46,46,46,45,42,43,44,36,41,42,42,43,42,43,44,30,32,32,30,28,28,26,26,36,38,48,51,52,52,54,53,,,,,,,,,,,,,,
81653,0,1.3609,,0.04,0.03,0.01,-0,1,1,0.05,0.94,5,-2,112.44,26.79,72.63,119.67,12.97,3450,1,22,60.4,0.96,0.86,12.68,0.0,119.0,52,54,0,0,64,0,0,0,0,1,44,46,46,46,45,42,43,44,36,41,42,42,43,42,43,44,30,32,32,30,28,28,26,26,36,38,48,51,52,52,54,53,0.0,0.0,0.0,0.0,0,0,0.0,0,0.0,-1,0.0,0,0.0,1.3609
81673,0,1.3612,,,,,,,,,,,,,,,,,,,,,,,,,,,,,,,,,,,,44,46,46,46,45,42,43,44,36,41,42,42,43,43,43,44,30,32,32,30,28,28,26,26,36,38,48,51,52,52,54,53,,,,,,,,,,,,,,
81693,0,1.3615,,0.17,0.05,-0.03,0,0,0,0.18,0.94,19,,,,,,,,,,,,,,,,,,,,,,,,,,44,46,46,46,45,42,43,44,36,41,42,42,43,43,43,44,31,32,31,30,28,27,26,26,36,37,47,51,52,52,54,53,,,,,,,,,,,,,,
81713,0,1.3619,,,,,,,,,,,,,,,,,,,,,,,,,,,,,,,,,,,,44,46,46,46,44,42,43,44,36,41,42,42,43,43,43,44,31,32,31,30,28,27,26,26,36,37,47,51,52,52,54,53,,,,,,,,,,,,,,
81733,0,1.3622,,0.1,-0.0,0.13,-0,0,1,0.17,0.94,18,,,,,,,,,,,,,,,,,,,,,,,,,,44,46,46,46,44,42,43,44,36,41,42,42,43,43,43,44,31,32,31,30,28,27,26,26,36,37,47,51,52,52,54,53,,,,,,,,,,,,,,
81753,0,1.3626,,,,,,,,,,,-3,112.32,26.79,72.96,115.38,12.96,3545,1,22,56.5,0.96,0.86,12.68,0.0,110.0,52,54,0,0,64,0,0,0,0,1,44,46,46,46,44,42,43,44,36,41,42,42,43,43,43,44,31,32,31,30,28,27,26,26,36,37,47,51,52,52,54,53,0.0,0.0,0.0,0.0,0,0,0.0,0,0.0,-1,0.0,0,0.0,1.3626
81773,0,1.3629,,-0.08,0.01,-0.17,0,-1,-0,0.19,0.94,20,,,,,,,,,,,,,,,,,,,,,,,,,,44,46,46,46,44,42,43,44,36,41,42,42,43,43,43,44,31,32,32,30,28,28,26,26,36,38,47,51,52,52,54,53,,,,,,,,,,,,,,
81793,0,1.3632,,,,,,,,,,,,,,,,,,,,,,,,,,,,,,,,,,,,44,46,46,46,45,42,43,44,36,41,42,42,43,43,43,44,31,32,32,30,28,28,26,26,36,38,47,51,52,52,54,53,,,,,,,,,,,,,,
81813,0,1.3635,,0.01,-0.01,0.04,0,-0,0,0.04,0.94,4,,,,,,,,,,,,,,,,,,,,,,,,,,44,46,46,46,45,42,43,44,36,41,42,42,43,42,43,44,31,32,32,30,28,28,26,26,36,38,47,51,52,52,54,53,,,,,,,,,,,,,,
81833,0,1.3639,,,,,,,,,,,,,,,,,,,,,,,,,,,,,,,,,,,,44,46,46,46,45,42,43,44,36,41,42,42,43,42,43,44,31,32,32,30,28,28,26,26,36,38,47,51,52,52,54,54,,,,,,,,,,,,,,
81853,0,1.3642,,0.14,0.01,0.13,-0,-1,0,0.19,0.94,20,-2,112.32,26.79,72.63,118.89,13.0,3464,1,22,57.4,0.96,0.85,12.68,0.0,122.0,52,54,0,0,64,0,0,0,0,1,44,46,46,46,45,43,43,44,36,41,42,42,43,42,43,44,31,32,32,30,28,28,26,26,36,38,47,51,52,52,54,54,0.0,0.0,0.0,0.0,0,0,0.0,0,0.0,-1,0.0,0,0.0,1.3642
81873,0,1.3646,,,,,,,,,,,,,,,,,,,,,,,,,,,,,,,,,,,,44,46,46,46,45,43,43,44,36,41,42,43,43,43,43,44,31,32,32,30,28,28,26,26,36,38,47,51,52,52,54,54,,,,,,,,,,,,,,
81893,0,1.3649,,0.03,0.01,0.11,-0,-0,0,0.11,0.94,12,,,,,,,,,,,,,,,,,,,,,,,,,,44,46,46,46,45,43,43,44,36,41,42,43,43,43,43,44,31,32,32,30,28,27,26,26,36,38,47,51,52,52,54,53,,,,,,,,,,,,,,
81913,0,1.3652,,,,,,,,,,,,,,,,,,,,,,,,,,,,,,,,,,,,44,46,46,46,45,42,43,44,36,41,42,43,43,43,43,44,31,32,32,30,28,27,26,26,36,38,47,51,52,52,54,53,,,,,,,,,,,,,,
81933,0,1.3656,,-0.08,0.03,0.03,-0,-0,0,0.09,0.94,9,,,,,,,,,,,,,,,,,,,,,,,,,,44,46,46,46,45,42,43,44,36,41,42,42,43,42,42,44,31,32,32,30,28,27,26,26,36,38,47,51,52,52,54,53,,,,,,,,,,,,,,
81953,0,1.3659,,,,,,,,,,,-3,112.32,26.67,72.84,120.96,13.0,3670,1,22,56.9,0.96,0.86,12.69,0.0,117.0,52,54,0,0,64,0,0,0,0,1,44,46,46,46,45,42,43,44,36,41,42,42,43,42,42,44,30,32,32,30,28,27,26,26,36,37,47,51,52,52,54,53,0.0,0.0,0.0,0.0,0,0,0.0,0,0.0,-1,0.0,0,0.0,1.3659
81973,0,1.3662,,0.19,0.04,0.05,-0,-0,0,0.19,0.94,21,,,,,,,,,,,,,,,,,,,,,,,,,,44,46,46,46,45,43,43,44,36,41,42,42,43,42,42,44,30,32,32,30,28,27,26,26,36,37,47,51,52,52,54,53,,,,,,,,,,,,,,
81993,0,1.3665,,,,,,,,,,,,,,,,,,,,,,,,,,,,,,,,,,,,44,46,46,46,45,43,43,44,36,41,42,42,43,43,43,44,30,32,32,30,28,27,26,26,36,37,47,51,52,52,54,53,,,,,,,,,,,,,,
82013,0,1.3669,,0.14,0.05,0.14,0,0,0,0.2,0.94,22,,,,,,,,,,,,,,,,,,,,,,,,,,44,46,46,46,45,43,43,44,36,41,42,42,43,43,43,44,31,32,32,30,28,28,26,26,36,37,47,51,52,52,54,53,,,,,,,,,,,,,,
82033,0,1.3672,,,,,,,,,,,,,,,,,,,,,,,,,,,,,,,,,,,,44,46,46,46,45,43,43,44,36,41,42,42,43,43,43,44,31,32,32,30,28,28,26,26,36,37,47,51,52,52,54,53,,,,,,,,,,,,,,
82053,0,1.3676,13.23,-0.06,0.03,-0.04,0,1,0,0.08,0.94,8,-2,112.32,26.67,72.63,122.61,13.0,3545,1,22,56.1,0.96,0.87,12.68,0.0,118.0,52,54,0,0,64,0,0,0,0,1,44,46,46,46,45,43,43,44,36,41,42,42,43,42,43,44,31,32,32,30,28,28,26,26,36,37,47,51,52,52,54,53,0.0,0.0,0.0,0.0,0,0,0.0,0,0.0,-1,0.0,0,0.0,1.3676
82073,0,1.3679,,,,,,,,,,,,,,,,,,,,,,,,,,,,,,,,,,,,44,46,46,46,45,43,43,44,36,41,42,42,43,42,43,44,31,32,31,30,28,28,26,26,36,37,47,51,52,52,54,53,,,,,,,,,,,,,,
82093,0,1.3682,,0.12,0.01,-0.03,0,-0,-0,0.12,0.94,13,,,,,,,,,,,,,,,,,,,,,,,,,,44,46,46,46,45,43,43,44,36,41,42,42,43,42,43,44,31,32,31,30,28,28,26,26,36,37,47,51,52,52,54,53,,,,,,,,,,,,,,
82113,0,1.3686,,,,,,,,,,,,,,,,,,,,,,,,,,,,,,,,,,,,44,46,46,46,45,43,43,44,36,41,42,42,43,43,43,44,31,32,31,30,28,28,26,26,36,37,47,51,52,52,54,53,,,,,,,,,,,,,,
82133,0,1.3689,,0.05,0.0,0.06,0,-1,-0,0.08,0.94,8,,,,,,,,,,,,,,,,,,,,,,,,,,44,46,46,46,45,43,43,44,36,41,42,42,43,43,43,44,31,32,31,30,28,28,26,26,36,37,47,51,52,52,54,53,,,,,,,,,,,,,,
82153,0,1.3692,,,,,,,,,,,-2,112.32,26.67,72.63,114.72,12.99,3115,1,22,55.0,0.96,0.86,12.69,0.0,115.0,52,54,0,0,64,0,0,0,0,1,44,46,46,46,45,43,43,44,36,41,42,42,43,43,43,44,31,32,31,30,28,28,26,26,36,38,47,51,52,52,54,52,0.0,0.0,0.0,0.0,0,0,0.0,0,0.0,-1,0.0,0,0.0,1.3692
82173,0,1.3696,,-0.11,-0.02,-0.1,0,-0,-0,0.15,0.94,16,,,,,,,,,,,,,,,,,,,,,,,,,,44,46,46,46,45,42,43,44,36,41,42,42,43,43,43,44,31,32,31,30,28,28,26,26,36,38,47,51,52,52,54,52,,,,,,,,,,,,,,
82193,0,1.3699,,,,,,,,,,,,,,,,,,,,,,,,,,,,,,,,,,,,44,46,46,46,45,42,43,44,36,41,42,43,43,43,43,44,31,32,31,30,28,28,26,26,36,38,47,51,52,52,54,52,,,,,,,,,,,,,,
82213,0,1.3702,,-0.13,0.0,-0.21,0,-1,-1,0.25,0.94,26,,,,,,,,,,,,,,,,,,,,,,,,,,44,46,46,46,45,42,43,44,36,41,42,43,43,43,43,44,31,32,32,30,28,28,26,26,36,37,47,51,52,52,54,53,,,,,,,,,,,,,,
82233,0,1.3706,,,,,,,,,,,,,,,,,,,,,,,,,,,,,,,,,,,,44,46,46,46,45,42,43,44,36,41,42,43,43,43,43,44,31,32,32,30,28,28,26,26,36,37,47,51,52,52,54,53,,,,,,,,,,,,,,
82253,0,1.3709,,0.13,0.04,-0.38,0,-1,-1,0.41,0.94,43,-3,112.32,26.67,72.84,117.57,12.96,3323,1,22,56.8,0.96,0.87,12.69,0.0,117.0,52,54,0,0,65,0,0,0,0,1,44,46,46,46,45,42,43,44,36,41,42,43,43,43,43,44,31,32,32,30,28,28,26,26,36,37,47,51,52,52,54,53,0.0,0.0,0.0,0.0,0,0,0.0,0,0.0,-1,0.0,0,0.0,1.3709
82273,0,1.3712,,,,,,,,,,,,,,,,,,,,,,,,,,,,,,,,,,,,44,46,46,46,45,42,43,44,36,41,42,43,43,43,43,44,31,32,32,30,28,28,26,26,36,37,47,51,52,52,54,52,,,,,,,,,,,,,,
82293,0,1.3715,,0.05,0.02,-0.23,0,-2,-1,0.24,0.94,26,,,,,,,,,,,,,,,,,,,,,,,,,,44,46,46,46,45,43,43,44,36,41,42,43,43,43,43,44,31,32,32,30,28,28,26,26,36,37,47,51,52,52,54,52,,,,,,,,,,,,,,
82313,0,1.3719,,,,,,,,,,,,,,,,,,,,,,,,,,,,,,,,,,,,44,46,46,46,45,43,43,44,36,41,42,43,44,43,43,44,31,32,32,30,28,28,26,26,36,37,47,51,52,52,54,52,,,,,,,,,,,,,,
82333,0,1.3722,,-0.12,0.02,-0.21,-0,-1,-0,0.24,0.94,26,,,,,,,,,,,,,,,,,,,,,,,,,,44,46,46,46,45,43,43,44,36,41,42,43,44,43,43,44,31,32,32,30,28,28,26,26,36,38,47,50,51,52,54,52,,,,,,,,,,,,,,
82353,0,1.3726,,,,,,,,,,,-3,112.32,26.67,72.63,117.57,13.02,3557,1,22,60.8,0.96,0.88,12.69,0.0,124.0,52,54,0,0,65,0,0,0,0,1,44,46,46,46,45,42,43,44,36,41,42,43,44,43,43,44,31,32,32,30,28,28,26,26,36,38,47,50,51,52,54,52,0.0,0.0,0.0,0.0,0,0,0.0,0,0.0,-1,0.0,0,0.0,1.3726
82373,0,1.3729,,0.13,-0.01,-0.22,0,-0,-0,0.26,0.94,27,,,,,,,,,,,,,,,,,,,,,,,,,,44,46,46,46,45,42,43,44,36,41,42,43,44,43,43,44,31,32,32,30,28,28,26,26,36,38,47,50,51,52,54,52,,,,,,,,,,,,,,
82393,0,1.3732,,,,,,,,,,,,,,,,,,,,,,,,,,,,,,,,,,,,44,46,46,46,45,42,43,44,36,41,42,43,44,43,43,44,31,32,32,30,28,28,26,26,36,37,46,50,52,52,54,53,,,,,,,,,,,,,,
82413,0,1.3735,,0.05,0.0,-0.08,0,-0,-0,0.1,0.94,10,,,,,,,,,,,,,,,,,,,,,,,,,,44,46,46,46,45,42,43,44,36,41,42,43,44,43,43,44,31,32,32,30,28,28,26,26,36,37,46,50,52,52,54,53,,,,,,,,,,,,,,
82433,0,1.3739,,,,,,,,,,,,,,,,,,,,,,,,,,,,,,,,,,,,44,46,46,46,45,42,43,44,36,41,42,43,43,43,43,44,31,32,32,30,28,28,26,26,36,37,46,50,52,52,54,53,,,,,,,,,,,,,,
82453,0,1.3742,,0.02,-0.02,-0.15,-0,1,0,0.16,0.94,16,-2,112.32,26.67,72.63,121.29,12.96,3611,1,22,58.5,0.96,0.87,12.69,0.0,123.0,52,54,0,0,65,0,0,0,0,1,44,46,46,46,45,42,43,44,36,41,42,43,43,43,43,44,31,32,32,30,28,27,26,26,36,37,46,50,51,52,54,52,0.0,0.0,0.0,0.0,0,0,0.0,0,0.0,-1,0.0,0,0.0,1.3742
82473,0,1.3745,,,,,,,,,,,,,,,,,,,,,,,,,,,,,,,,,,,,44,46,46,46,45,42,43,44,36,41,42,43,43,43,43,44,31,32,32,30,28,27,26,26,36,37,46,50,51,52,54,52,,,,,,,,,,,,,,
82493,0,1.3749,,0.16,-0.02,-0.09,0,1,0,0.19,0.94,20,,,,,,,,,,,,,,,,,,,,,,,,,,44,46,46,46,45,42,43,44,36,41,42,43,43,43,43,44,31,32,32,30,28,27,26,26,36,37,46,50,51,52,54,52,,,,,,,,,,,,,,
82513,0,1.3752,,,,,,,,,,,,,,,,,,,,,,,,,,,,,,,,,,,,44,46,46,46,45,42,43,44,36,41,42,43,44,43,43,44,31,32,32,30,28,27,26,26,36,37,46,50,51,52,54,52,,,,,,,,,,,,,,
82533,0,1.3756,,-0.01,0.02,-0.34,-0,-0,-0,0.34,0.94,37,,,,,,,,,,,,,,,,,,,,,,,,,,44,46,46,46,45,42,43,44,36,41,42,43,44,43,43,44,31,32,31,30,28,27,26,26,36,38,47,50,51,52,54,53,,,,,,,,,,,,,,
82553,0,1.3759,,,,,,,,,,,-3,112.32,26.79,72.72,117.24,12.95,3519,1,22,58.5,0.96,0.85,12.69,0.0,124.0,52,54,0,0,65,0,0,0,0,1,44,46,46,46,45,42,43,44,36,41,42,43,44,43,43,44,31,32,31,30,28,27,26,26,36,38,47,50,51,52,54,53,0.0,0.0,0.0,0.0,0,0,0.0,0,0.0,-1,0.0,0,0.0,1.3759
82573,0,1.3762,,0.17,0.01,-0.37,0,-0,-0,0.41,0.94,43,,,,,,,,,,,,,,,,,,,,,,,,,,44,46,46,46,45,42,43,44,36,41,42,43,43,43,43,44,31,32,31,30,28,27,26,26,36,38,47,50,51,52,54,53,,,,,,,,,,,,,,
82593,0,1.3765,,,,,,,,,,,,,,,,,,,,,,,,,,,,,,,,,,,,44,46,46,46,45,42,43,44,36,41,42,43,43,43,43,44,31,32,32,30,28,28,26,26,36,37,46,50,51,52,54,52,,,,,,,,,,,,,,
82613,0,1.3769,,0.13,0.03,-0.15,0,-1,-0,0.2,0.94,21,,,,,,,,,,,,,,,,,,,,,,,,,,44,46,46,46,45,42,43,44,36,41,42,43,43,43,43,44,31,32,32,30,28,28,26,26,36,37,46,50,51,52,54,52,,,,,,,,,,,,,,
82633,0,1.3772,,,,,,,,,,,,,,,,,,,,,,,,,,,,,,,,,,,,44,46,46,46,45,42,43,44,36,41,42,42,43,43,43,44,31,32,32,30,28,28,26,26,36,37,46,50,51,52,54,52,,,,,,,,,,,,,,
82653,0,1.3776,,-0.05,0.05,-0.13,0,-0,-0,0.15,0.94,16,-3,112.32,26.67,72.84,116.79,12.94,3450,1,22,57.8,0.96,0.85,12.7,0.0,120.0,52,54,0,0,65,0,0,0,0,1,44,46,46,46,45,42,43,44,36,41,42,42,43,43,43,44,31,32,32,30,28,27,26,26,36,38,47,50,52,52,54,52,0.0,0.0,0.0,0.0,0,0,0.0,0,0.0,-1,0.0,0,0.0,1.3776
82673,0,1.3779,,,,,,,,,,,,,,,,,,,,,,,,,,,,,,,,,,,,44,46,46,46,45,42,43,44,36,41,42,42,43,43,43,44,31,32,32,30,28,27,26,26,36,38,47,50,52,52,54,52,,,,,,,,,,,,,,
82693,0,1.3782,,0.04,0.0,-0.14,-0,-0,-0,0.15,0.94,16,,,,,,,,,,,,,,,,,,,,,,,,,,44,46,46,46,45,42,43,44,36,41,42,42,43,42,43,44,31,32,32,30,28,27,26,26,36,38,47,50,52,52,54,52,,,,,,,,,,,,,,
82713,0,1.3786,,,,,,,,,,,,,,,,,,,,,,,,,,,,,,,,,,,,44,46,46,46,45,42,43,44,36,41,42,42,43,42,43,44,31,32,32,30,28,28,26,26,36,38,47,50,52,52,54,53,,,,,,,,,,,,,,
82733,0,1.3789,,0.1,0.04,0.03,-0,-0,-0,0.11,0.94,12,,,,,,,,,,,,,,,,,,,,,,,,,,44,46,46,46,45,42,43,44,36,41,42,42,43,42,43,44,31,32,32,30,28,28,26,26,36,38,47,50,52,52,54,53,,,,,,,,,,,,,,
82753,0,1.3792,,,,,,,,,,,-3,112.32,26.67,72.51,117.78,13.03,3457,1,22,57.4,0.96,0.9,12.7,0.0,113.0,52,54,0,0,65,0,0,0,0,1,44,46,46,46,45,42,43,44,36,41,42,42,43,42,43,44,31,32,32,30,28,28,26,26,36,38,47,50,52,52,54,53,0.0,0.0,0.0,0.0,0,0,0.0,0,0.0,-1,0.0,0,0.0,1.3792
82773,0,1.3795,,-0.04,0.02,-0.06,0,0,0,0.07,0.94,8,,,,,,,,,,,,,,,,,,,,,,,,,,44,46,46,46,45,42,43,44,36,41,42,42,43,42,43,44,32,32,32,30,29,28,26,26,36,38,47,51,52,52,54,53,,,,,,,,,,,,,,
82793,0,1.3799,,,,,,,,,,,,,,,,,,,,,,,,,,,,,,,,,,,,44,46,46,46,45,42,43,44,36,41,42,42,43,42,43,44,32,32,32,30,29,28,26,26,36,38,47,51,52,52,54,53,,,,,,,,,,,,,,
82813,0,1.3802,,-0.15,0.01,0.08,-0,-0,0,0.17,0.94,18,,,,,,,,,,,,,,,,,,,,,,,,,,44,46,46,46,45,42,43,44,36,41,42,43,43,43,43,44,32,32,32,30,29,28,26,26,36,38,47,51,52,52,54,53,,,,,,,,,,,,,,
82833,0,1.3806,,,,,,,,,,,,,,,,,,,,,,,,,,,,,,,,,,,,44,46,46,46,45,42,43,44,36,41,42,43,43,43,43,44,31,32,32,30,28,28,26,26,36,38,47,51,52,52,54,53,,,,,,,,,,,,,,
82853,0,1.3809,,0.09,0.02,0.06,-0,-1,0,0.11,0.94,12,-3,112.2,26.67,72.96,117.36,13.03,3591,1,22,57.1,0.96,0.88,12.7,0.0,121.0,52,54,0,0,65,0,0,0,0,1,44,46,46,46,45,42,43,44,36,41,42,43,43,43,43,44,31,32,32,30,28,28,26,26,36,37,46,50,52,52,54,53,0.0,0.0,0.0,0.0,0,0,0.0,0,0.0,-1,0.0,0,0.0,1.3809
82873,0,1.3812,,,,,,,,,,,,,,,,,,,,,,,,,,,,,,,,,,,,44,46,46,46,45,42,43,44,36,41,42,43,43,43,43,44,31,32,32,30,28,28,26,26,36,37,46,50,52,52,54,53,,,,,,,,,,,,,,
82893,0,1.3816,,-0.01,0.03,0.16,-0,1,1,0.16,0.94,17,,,,,,,,,,,,,,,,,,,,,,,,,,44,46,46,46,45,42,43,44,36,41,42,43,43,43,43,44,31,32,32,30,28,28,26,26,36,37,46,50,52,52,54,53,,,,,,,,,,,,,,
82913,0,1.3819,,,,,,,,,,,,,,,,,,,,,,,,,,,,,,,,,,,,44,46,46,46,45,42,43,44,36,41,42,43,43,43,43,44,31,32,32,30,28,28,26,26,36,38,47,51,52,52,54,52,,,,,,,,,,,,,,
82933,0,1.3822,,-0.06,0.02,-0.04,-0,1,1,0.07,0.94,8,,,,,,,,,,,,,,,,,,,,,,,,,,44,46,46,46,45,43,44,44,36,41,42,43,43,43,43,44,31,32,32,30,28,28,26,26,36,38,47,51,52,52,54,52,,,,,,,,,,,,,,
82953,0,1.3826,,,,,,,,,,,-2,112.32,26.67,72.72,118.77,12.96,3642,1,22,56.2,0.96,0.86,12.7,0.0,119.0,52,54,0,0,65,0,0,0,0,1,44,46,46,46,45,43,44,44,36,41,42,43,43,43,43,44,31,32,32,30,28,28,26,26,36,38,47,51,52,52,54,52,0.0,0.0,0.0,0.0,0,0,0.0,0,0.0,-1,0.0,0,0.0,1.3826
82973,0,1.3829,,0.17,0.05,-0.09,0,0,1,0.19,0.94,21,,,,,,,,,,,,,,,,,,,,,,,,,,44,46,46,46,45,43,44,44,36,41,42,43,43,43,43,44,31,32,32,30,28,28,26,26,36,37,46,51,52,52,54,52,,,,,,,,,,,,,,
82993,0,1.3832,,,,,,,,,,,,,,,,,,,,,,,,,,,,,,,,,,,,44,46,46,46,45,42,43,44,36,41,42,43,43,43,43,44,31,32,32,30,28,28,26,26,36,37,46,51,52,52,54,52,,,,,,,,,,,,,,
83013,0,1.3835,,0.05,0.03,0.11,0,1,1,0.12,0.94,13,,,,,,,,,,,,,,,,,,,,,,,,,,44,46,46,46,45,42,43,44,36,41,42,42,43,43,43,44,31,32,32,30,28,28,26,26,36,37,46,51,52,52,54,52,,,,,,,,,,,,,,
83033,0,1.3839,,,,,,,,,,,,,,,,,,,,,,,,,,,,,,,,,,,,44,46,46,46,45,42,43,44,36,41,42,42,43,43,43,44,31,32,32,30,28,28,26,26,36,37,47,50,52,52,54,53,,,,,,,,,,,,,,
83053,0,1.3842,13.24,-0.1,0.06,0.05,-0,1,1,0.13,0.94,14,-3,112.32,26.55,72.63,119.76,13.0,3747,1,22,55.6,0.96,0.85,12.69,0.0,116.0,52,54,0,0,65,0,0,0,0,1,44,46,46,46,45,42,43,44,36,41,42,42,43,43,43,44,31,32,32,30,28,28,26,26,36,37,47,50,52,52,54,53,0.0,0.0,0.0,0.0,0,0,0.0,0,0.0,-1,0.0,0,0.0,1.3842
83073,0,1.3845,,,,,,,,,,,,,,,,,,,,,,,,,,,,,,,,,,,,44,46,46,46,45,42,43,44,36,41,42,42,43,43,43,44,31,32,32,30,28,28,26,26,36,37,47,50,52,52,54,53,,,,,,,,,,,,,,
83093,0,1.3849,,0.01,0.04,0.17,-0,0,1,0.17,0.94,18,,,,,,,,,,,,,,,,,,,,,,,,,,44,46,46,46,45,42,43,44,36,41,42,42,43,43,43,44,31,32,32,30,28,28,26,26,35,37,46,50,52,52,54,52,,,,,,,,,,,,,,
83113,0,1.3852,,,,,,,,,,,,,,,,,,,,,,,,,,,,,,,,,,,,44,46,46,46,45,42,43,44,36,41,42,42,43,43,43,44,31,32,32,30,28,28,26,26,35,37,46,50,52,52,54,52,,,,,,,,,,,,,,
83133,0,1.3856,,-0.13,0.04,-0.23,-0,-1,-0,0.27,0.94,28,,,,,,,,,,,,,,,,,,,,,,,,,,44,46,46,46,45,42,43,44,36,41,42,42,43,42,42,44,31,32,32,30,28,28,26,26,35,37,46,50,52,52,54,52,,,,,,,,,,,,,,
83153,0,1.3859,,,,,,,,,,,-2,112.44,26.55,72.63,119.34,13.0,3866,1,22,55.4,0.96,0.87,12.7,0.0,130.0,52,54,0,0,65,0,0,0,0,1,44,46,46,46,45,42,43,44,36,41,42,42,43,42,42,44,31,32,32,30,28,28,26,26,36,38,47,51,52,52,54,52,0.0,0.0,0.0,0.0,0,0,0.0,0,0.0,-1,0.0,0,0.0,1.3859
83173,0,1.3862,,0.07,0.06,-0.28,0,-1,-1,0.29,0.94,31,,,,,,,,,,,,,,,,,,,,,,,,,,44,46,46,46,45,42,43,44,36,41,42,42,43,42,42,44,31,32,32,30,28,28,26,26,36,38,47,51,52,52,54,52,,,,,,,,,,,,,,
83193,0,1.3865,,,,,,,,,,,,,,,,,,,,,,,,,,,,,,,,,,,,44,46,46,46,45,42,43,44,36,41,42,42,43,42,42,44,31,32,32,30,28,28,26,26,36,38,47,51,52,52,54,52,,,,,,,,,,,,,,
83213,0,1.3869,,-0.05,0.06,-0.24,-0,2,2,0.25,0.94,27,,,,,,,,,,,,,,,,,,,,,,,,,,44,46,46,46,45,42,43,44,36,41,42,42,43,42,42,44,31,32,32,30,28,28,26,26,36,38,47,51,52,52,54,52,,,,,,,,,,,,,,
83233,0,1.3872,,,,,,,,,,,,,,,,,,,,,,,,,,,,,,,,,,,,44,46,46,46,45,42,43,44,36,41,42,42,43,42,42,44,31,32,31,30,28,27,26,26,36,37,46,50,51,52,54,52,,,,,,,,,,,,,,
83253,0,1.3876,,0.19,0.06,-0.27,-0,1,1,0.34,0.94,36,-3,112.32,26.55,72.51,120.42,12.97,3607,1,22,55.2,0.96,0.79,12.69,0.0,125.0,52,54,0,0,65,0,0,0,0,1,44,46,46,46,45,42,43,44,36,41,42,42,43,42,42,44,31,32,31,30,28,27,26,26,36,37,46,50,51,52,54,52,0.0,0.0,0.0,0.0,0,0,0.0,0,0.0,-1,0.0,0,0.0,1.3876
83273,0,1.3879,,,,,,,,,,,,,,,,,,,,,,,,,,,,,,,,,,,,44,46,46,46,45,42,43,44,36,41,42,42,43,42,43,44,31,32,31,30,28,27,26,26,36,37,46,50,51,52,54,52,,,,,,,,,,,,,,
83293,0,1.3882,,0.15,0.03,-0.05,-0,2,2,0.16,0.94,17,,,,,,,,,,,,,,,,,,,,,,,,,,44,46,46,46,45,42,43,44,36,41,42,42,43,42,43,44,31,32,32,30,28,28,26,26,36,37,46,50,51,51,54,52,,,,,,,,,,,,,,
83313,0,1.3886,,,,,,,,,,,,,,,,,,,,,,,,,,,,,,,,,,,,44,46,46,46,44,42,42,44,36,41,42,42,43,42,43,44,31,32,32,30,28,28,26,26,36,37,46,50,51,51,54,52,,,,,,,,,,,,,,
83333,0,1.3889,,-0.04,0.02,-0.13,-0,1,1,0.14,0.94,15,,,,,,,,,,,,,,,,,,,,,,,,,,44,46,46,46,44,42,42,44,36,41,42,43,43,42,43,44,31,32,32,30,28,28,26,26,36,37,46,50,51,51,54,52,,,,,,,,,,,,,,
83353,0,1.3892,,,,,,,,,,,-2,112.2,26.67,72.72,116.13,12.97,3534,1,22,55.2,0.96,0.83,12.69,0.0,116.0,52,54,0,0,65,0,0,0,0,1,44,46,46,46,44,42,42,44,36,41,42,43,43,42,43,44,31,32,32,30,28,28,26,26,35,37,46,50,51,51,54,52,0.0,0.0,0.0,0.0,0,0,0.0,0,0.0,-1,0.0,0,0.0,1.3892
83373,0,1.3895,,0.04,-0.02,-0.09,-0,1,1,0.1,0.94,11,,,,,,,,,,,,,,,,,,,,,,,,,,44,46,46,46,44,42,42,44,36,41,42,43,43,42,43,44,31,32,32,30,28,28,26,26,35,37,46,50,51,51,54,52,,,,,,,,,,,,,,
83393,0,1.3899,,,,,,,,,,,,,,,,,,,,,,,,,,,,,,,,,,,,44,46,46,46,44,42,42,44,36,41,42,43,44,43,43,44,31,32,32,30,28,28,26,26,35,37,46,50,51,51,54,52,,,,,,,,,,,,,,
83413,0,1.3902,,0.16,0.03,-0.05,-0,-0,1,0.17,0.94,18,,,,,,,,,,,,,,,,,,,,,,,,,,44,46,46,46,44,42,42,44,36,41,42,43,44,43,43,44,31,32,32,30,28,28,26,26,35,37,46,50,51,51,53,52,,,,,,,,,,,,,,
83433,0,1.3906,,,,,,,,,,,,,,,,,,,,,,,,,,,,,,,,,,,,44,46,46,46,44,42,42,44,36,41,42,43,44,43,43,44,31,32,32,30,28,28,26,26,35,37,46,50,51,51,53,52,,,,,,,,,,,,,,
83453,0,1.3909,,0.08,-0.01,0.08,-0,-1,1,0.11,0.94,12,-3,112.44,26.55,72.63,115.59,12.99,3186,1,22,54.5,0.96,0.84,12.69,0.0,109.0,52,54,0,0,65,0,0,0,0,1,44,46,46,46,44,42,42,44,36,41,42,43,43,42,43,44,31,32,32,30,28,28,26,26,35,37,46,50,51,51,53,52,0.0,0.0,0.0,0.0,0,0,0.0,0,0.0,-1,0.0,0,0.0,1.3909
83473,0,1.3912,,,,,,,,,,,,,,,,,,,,,,,,,,,,,,,,,,,,44,46,46,46,44,42,42,44,36,41,42,43,43,42,43,44,31,32,32,30,28,27,26,26,36,37,46,50,51,51,54,52,,,,,,,,,,,,,,
83493,0,1.3916,,-0.07,-0.01,-0.07,-0,-1,0,0.1,0.94,10,,,,,,,,,,,,,,,,,,,,,,,,,,44,46,46,46,44,42,43,44,36,41,42,43,43,42,43,44,31,32,32,30,28,27,26,26,36,37,46,50,51,51,54,52,,,,,,,,,,,,,,
83513,0,1.3919,,,,,,,,,,,,,,,,,,,,,,,,,,,,,,,,,,,,44,46,46,46,44,42,43,44,36,41,42,42,43,42,43,44,31,32,32,30,28,27,26,26,36,37,46,50,51,51,54,52,,,,,,,,,,,,,,
83533,0,1.3922,,-0.08,-0.03,0.12,-0,0,1,0.15,0.94,15,,,,,,,,,,,,,,,,,,,,,,,,,,44,46,46,46,44,42,43,44,36,41,42,42,43,42,43,44,31,32,31,30,28,28,26,26,35,37,46,50,50,51,53,52,,,,,,,,,,,,,,
83553,0,1.3926,,,,,,,,,,,-3,112.2,26.67,72.84,118.11,12.99,3387,1,22,61.7,0.96,0.85,12.69,0.0,120.0,52,54,0,0,65,0,0,0,0,1,44,46,46,46,45,42,43,44,36,41,42,42,43,42,43,44,31,32,31,30,28,28,26,26,35,37,46,50,50,51,53,52,0.0,0.0,0.0,0.0,0,0,0.0,0,0.0,-1,0.0,0,0.0,1.3926
83573,0,1.3929,,0.15,-0.02,0.09,-0,0,1,0.17,0.94,18,,,,,,,,,,,,,,,,,,,,,,,,,,44,46,46,46,45,42,43,44,36,41,42,42,43,43,43,44,31,32,31,30,28,28,26,26,35,37,46,50,50,51,53,52,,,,,,,,,,,,,,
83593,0,1.3932,,,,,,,,,,,,,,,,,,,,,,,,,,,,,,,,,,,,44,46,46,46,45,42,43,44,36,41,42,42,43,43,43,44,31,32,31,30,28,28,26,26,35,37,46,50,50,51,53,52,,,,,,,,,,,,,,
83613,0,1.3936,,0.06,-0.03,0.2,-0,-1,1,0.21,0.94,23,,,,,,,,,,,,,,,,,,,,,,,,,,44,46,46,46,45,42,43,44,36,41,42,42,43,43,43,44,31,32,32,30,28,28,26,26,35,37,46,50,50,51,53,52,,,,,,,,,,,,,,
83633,0,1.3939,,,,,,,,,,,,,,,,,,,,,,,,,,,,,,,,,,,,44,46,46,46,45,42,43,44,36,41,42,42,43,43,43,44,31,32,32,30,28,28,26,26,35,37,46,50,50,51,53,52,,,,,,,,,,,,,,
83653,0,1.3942,,-0.12,-0.04,0.26,-0,-1,0,0.29,0.94,31,-3,112.32,26.67,72.63,115.14,12.99,3461,1,22,59.1,0.96,0.87,12.7,0.0,118.0,52,54,0,0,65,0,0,0,0,1,44,46,46,46,45,42,43,44,36,41,42,42,43,43,42,44,31,32,32,30,28,28,26,26,35,37,46,50,50,51,53,52,0.0,0.0,0.0,0.0,0,0,0.0,0,0.0,-1,0.0,0,0.0,1.3942
83673,0,1.3945,,,,,,,,,,,,,,,,,,,,,,,,,,,,,,,,,,,,44,46,46,46,45,42,43,44,36,41,42,42,43,43,42,44,31,32,32,30,28,28,26,26,35,37,46,50,51,51,53,52,,,,,,,,,,,,,,
83693,0,1.3949,,0.0,-0.08,0.31,-0,-1,0,0.32,0.94,34,,,,,,,,,,,,,,,,,,,,,,,,,,44,46,46,46,44,42,43,44,36,41,42,42,43,43,42,44,31,32,32,30,28,28,26,26,35,37,46,50,51,51,53,52,,,,,,,,,,,,,,
83713,0,1.3952,,,,,,,,,,,,,,,,,,,,,,,,,,,,,,,,,,,,44,46,46,46,44,42,43,44,36,41,42,43,43,42,43,44,31,32,32,30,28,28,26,26,35,37,46,50,51,51,53,52,,,,,,,,,,,,,,
83733,0,1.3956,,0.02,-0.0,0.32,-0,-1,0,0.32,0.94,34,,,,,,,,,,,,,,,,,,,,,,,,,,44,46,46,46,44,42,43,44,36,41,42,43,43,42,43,44,31,32,32,30,28,28,26,26,35,37,46,50,51,51,53,52,,,,,,,,,,,,,,
