"Interval"|"ms"|0|0|1,"Utc"|"ms"|0|0|1,"ElapsedTime"|"Min"|0.0|0.0|10,"Battery"|"Volts"|0.0|20.0|1,"AccelX"|"G"|-3.0|3.0|25,"AccelY"|"G"|-3.0|3.0|25,"AccelZ"|"G"|-3.0|3.0|25,"Yaw"|"Deg/Sec"|-120|120|25,"Pitch"|"Deg/Sec"|-120|120|25,"Roll"|"Deg/Sec"|-120|120|25,"Gsum"|"G"|0.0|3.0|25,"GsumMax"|"G"|0.0|3.0|25,"GsumPct"|"%"|0|100|25,"StAngle"|"Deg"|-100|100|10,"SuspPosFL"|"mm"|0.0|150.0|10,"SuspPosFR"|"mm"|0.0|150.0|10,"SuspPosRL"|"mm"|0.0|150.0|10,"SuspPosRR"|"mm"|0.0|150.0|10,"ADL_BAT"|"V"|0.0|20.0|10,"RPM"|""|0|20000|10,"TPS"|"%"|0|100|10,"IAT"|"F"|0|300|10,"MAP"|"KPa"|0.0|255.0|10,"LambdaAim"|""|0.0|1.75|10,"Lambda"|""|0.0|1.75|10,"ECU_BAT"|"V"|0.0|20.0|10,"FuelCut"|""|0.0|100.0|10,"InjDuty"|"%"|0.0|100.0|10,"BrakePres-F"|"psi"|0|1200|10,"BrakePres-R"|"psi"|0|1200|10,"AuxUpDuty"|"%"|0|100|10,"AuxDownDuty"|"%"|0|100|10,"EngineTemp"|"F"|0|300|10,"WheelSpdRL"|""|0|100|10,"WheelSpdRR"|""|0|100|10,"WheelSpdFL"|""|0|100|10,"WheelSpdFR"|""|0|100|10,"Gear"|""|0|10|10,"TireTmpLF1"|"C"|20|90|50,"TireTmpLF2"|"C"|20|90|50,"TireTmpLF3"|"C"|20|90|50,"TireTmpLF4"|"C"|20|90|50,"TireTmpLF5"|"C"|20|90|50,"TireTmpLF6"|"C"|20|90|50,"TireTmpLF7"|"C"|20|90|50,"TireTmpLF8"|"C"|20|90|50,"TireTmpRF1"|"C"|20|90|50,"TireTmpRF2"|"C"|20|90|50,"TireTmpRF3"|"C"|20|90|50,"TireTmpRF4"|"C"|20|90|50,"TireTmpRF5"|"C"|20|90|50,"TireTmpRF6"|"C"|20|90|50,"TireTmpRF7"|"C"|20|90|50,"TireTmpRF8"|"C"|20|90|50,"TireTmpLR1"|"C"|20|90|50,"TireTmpLR2"|"C"|20|90|50,"TireTmpLR3"|"C"|20|90|50,"TireTmpLR4"|"C"|20|90|50,"TireTmpLR5"|"C"|20|90|50,"TireTmpLR6"|"C"|20|90|50,"TireTmpLR7"|"C"|20|90|50,"TireTmpLR8"|"C"|20|90|50,"TireTmpRR1"|"C"|20|90|50,"TireTmpRR2"|"C"|20|90|50,"TireTmpRR3"|"C"|20|90|50,"TireTmpRR4"|"C"|20|90|50,"TireTmpRR5"|"C"|20|90|50,"TireTmpRR6"|"C"|20|90|50,"TireTmpRR7"|"C"|20|90|50,"TireTmpRR8"|"C"|20|90|50,"Latitude"|"Degrees"|-180.0|180.0|10,"Longitude"|"Degrees"|-180.0|180.0|10,"Speed"|"kph"|0.0|150.0|10,"Altitude"|"m"|0.0|4000.0|10,"GPSSats"|""|0|20|10,"GPSQual"|""|0|5|10,"GPSDOP"|""|0.0|20.0|10,"LapCount"|""|0|0|10,"LapTime"|"Min"|0.0|0.0|10,"Sector"|""|0|0|10,"SectorTime"|"Min"|0.0|0.0|10,"CurrentLap"|""|0|0|10,"Distance"|"mi"|0.0|0.0|10,"SessionTime"|"Min"|0.0|0.0|10
140233,0,2.3372,,,,,,,,,,,,,,,,,,,,,,,,,,,,,,,,,,,,41,42,42,39,36,34,29,30,32,32,38,40,40,41,41,43,28,28,28,27,26,26,26,28,38,42,42,44,44,44,45,45,,,,,,,,,,,,,,
140073,0,2.3345,,,,,,,,,,,,,,,,,,,,,,,,,,,,,,,,,,,,41,42,42,40,36,34,30,31,32,32,38,40,40,41,42,43,28,28,28,27,26,26,26,29,38,42,42,44,44,44,44,45,,,,,,,,,,,,,,
140093,0,2.3349,,-0.0,0.02,-0.18,-0,-1,-0,0.18,0.81,23,,,,,,,,,,,,,,,,,,,,,,,,,,41,42,42,40,36,34,30,31,32,32,38,40,40,41,41,42,28,28,28,27,26,26,26,29,38,42,42,44,44,44,44,45,,,,,,,,,,,,,,
140113,0,2.3352,,,,,,,,,,,,,,,,,,,,,,,,,,,,,,,,,,,,41,42,42,40,36,34,30,31,32,32,38,40,40,41,41,42,28,28,28,27,26,26,26,29,38,42,42,44,44,44,44,45,,,,,,,,,,,,,,
140133,0,2.3356,,-0.14,0.04,-0.3,-0,-1,-0,0.33,0.81,41,,,,,,,,,,,,,,,,,,,,,,,,,,41,42,42,39,36,34,30,30,32,32,38,40,40,41,41,42,28,28,28,27,26,26,26,28,38,42,42,44,44,44,45,45,,,,,,,,,,,,,,
140153,0,2.3359,,,,,,,,,,,0,116.04,29.4,73.62,110.43,13.09,3174,1,32,59.7,0.96,0.86,12.85,0.0,106.0,60,61,0,0,65,0,0,0,0,1,41,42,42,39,36,34,30,30,32,32,38,40,40,41,41,42,28,28,28,27,26,26,26,28,38,42,42,44,44,44,45,45,0.0,0.0,0.0,0.0,0,0,0.0,0,0.0,-1,0.0,0,0.0,2.3359
140173,0,2.3362,,-0.23,0.05,-0.21,0,-1,-1,0.32,0.81,40,,,,,,,,,,,,,,,,,,,,,,,,,,41,42,42,39,36,34,30,30,32,32,38,40,40,41,41,42,28,28,28,27,26,26,26,28,38,42,42,44,44,44,45,45,,,,,,,,,,,,,,
140213,0,2.3369,,-0.19,0.03,-0.06,0,0,-0,0.2,0.81,25,,,,,,,,,,,,,,,,,,,,,,,,,,41,42,42,39,36,34,29,30,32,32,38,40,40,41,41,42,28,28,28,27,26,26,26,28,38,42,42,44,44,44,45,45,,,,,,,,,,,,,,
140233,0,2.3372,,,,,,,,,,,,,,,,,,,,,,,,,,,,,,,,,,,,41,42,42,39,36,34,29,30,32,32,38,40,40,41,41,43,28,28,28,27,26,26,26,28,38,42,42,44,44,44,45,45,,,,,,,,,,,,,,
140253,0,2.3375,,0.07,-0.03,-0.35,-0,-1,-0,0.36,0.81,44,-0,116.49,29.64,73.71,116.25,13.07,3290,1,32,58.7,0.96,0.9,12.85,0.0,102.0,59,61,0,0,65,0,0,0,0,1,41,42,42,39,36,34,29,31,32,32,38,40,40,41,41,43,28,28,28,27,26,26,26,29,38,42,42,44,44,44,45,45,0.0,0.0,0.0,0.0,0,0,0.0,0,0.0,-1,0.0,0,0.0,2.3375
140273,0,2.3379,,,,,,,,,,,,,,,,,,,,,,,,,,,,,,,,,,,,41,42,42,39,36,34,29,31,32,32,38,40,40,41,41,43,28,28,28,27,26,26,26,29,38,41,42,44,44,44,44,44,,,,,,,,,,,,,,
140293,0,2.3382,,0.24,-0.06,-0.29,-0,0,0,0.38,0.81,47,,,,,,,,,,,,,,,,,,,,,,,,,,41,42,42,39,36,34,29,31,32,32,38,40,40,41,41,43,28,28,28,27,26,26,26,29,38,41,42,44,44,44,44,44,,,,,,,,,,,,,,
140313,0,2.3386,,,,,,,,,,,,,,,,,,,,,,,,,,,,,,,,,,,,42,42,42,39,36,34,30,30,32,32,38,40,40,41,41,43,28,28,28,27,26,26,26,29,38,41,42,44,44,44,44,44,,,,,,,,,,,,,,
140333,0,2.3389,,0.22,-0.02,-0.27,-0,-1,-0,0.35,0.81,44,,,,,,,,,,,,,,,,,,,,,,,,,,42,42,42,39,36,34,30,30,32,32,38,40,40,41,41,43,28,28,28,27,26,26,26,29,38,42,42,44,44,44,44,45,,,,,,,,,,,,,,
140353,0,2.3392,,,,,,,,,,,-0,116.7,29.4,73.38,119.97,13.09,2976,1,32,57.5,0.96,0.87,12.85,0.0,108.0,59,60,0,0,65,0,0,0,0,1,42,42,42,39,36,34,30,30,32,32,38,40,40,41,41,43,28,28,28,27,26,26,26,29,38,42,42,44,44,44,44,45,0.0,0.0,0.0,0.0,0,0,0.0,0,0.0,-1,0.0,0,0.0,2.3392
140373,0,2.3396,,0.17,0.03,-0.05,-0,-2,0,0.18,0.81,22,,,,,,,,,,,,,,,,,,,,,,,,,,41,42,42,39,36,34,29,30,32,32,38,40,40,41,41,43,28,28,28,27,26,26,26,29,38,42,42,44,44,44,44,45,,,,,,,,,,,,,,
140393,0,2.3399,,,,,,,,,,,,,,,,,,,,,,,,,,,,,,,,,,,,41,42,42,39,36,34,29,30,32,32,38,40,40,41,41,43,28,28,28,27,26,26,26,29,38,42,42,44,44,44,45,45,,,,,,,,,,,,,,
140413,0,2.3402,,0.1,0.06,0.08,-0,-2,0,0.14,0.81,18,,,,,,,,,,,,,,,,,,,,,,,,,,41,42,42,39,36,34,29,30,32,32,38,40,40,41,41,42,28,28,28,27,26,26,26,29,38,42,42,44,44,44,45,45,,,,,,,,,,,,,,
140433,0,2.3405,,,,,,,,,,,,,,,,,,,,,,,,,,,,,,,,,,,,41,42,42,39,36,34,29,30,32,32,38,40,40,41,41,42,28,28,28,27,26,26,26,29,38,42,42,44,44,44,45,45,,,,,,,,,,,,,,
140453,0,2.3409,,0.05,0.04,0.25,-0,0,1,0.26,0.81,32,0,116.82,29.52,73.38,114.93,13.08,3142,1,32,62.5,0.96,0.85,12.85,0.0,108.0,60,61,0,0,65,0,0,0,0,1,41,42,42,39,36,34,29,30,32,32,38,40,40,41,41,42,28,28,28,27,26,26,26,28,38,42,42,44,44,44,45,45,0.0,0.0,0.0,0.0,0,0,0.0,0,0.0,-1,0.0,0,0.0,2.3409
140473,0,2.3412,,,,,,,,,,,,,,,,,,,,,,,,,,,,,,,,,,,,41,42,42,39,36,34,29,30,32,32,38,40,40,41,41,42,28,28,28,27,26,26,26,28,38,42,42,44,44,44,45,45,,,,,,,,,,,,,,
140493,0,2.3415,,0.01,0.01,0.25,0,1,1,0.25,0.81,31,,,,,,,,,,,,,,,,,,,,,,,,,,41,42,42,39,36,34,29,30,32,32,38,40,40,41,41,42,28,28,28,27,26,26,26,28,38,42,42,44,44,44,45,45,,,,,,,,,,,,,,
140513,0,2.3419,,,,,,,,,,,,,,,,,,,,,,,,,,,,,,,,,,,,41,42,42,39,36,34,29,30,32,32,38,40,40,41,41,42,28,28,27,27,26,26,26,28,38,42,42,44,44,44,44,45,,,,,,,,,,,,,,
140533,0,2.3422,,-0.12,0.01,0.11,0,1,0,0.16,0.81,20,,,,,,,,,,,,,,,,,,,,,,,,,,41,42,42,39,36,34,29,30,32,32,38,40,40,41,41,42,28,28,27,27,26,26,26,28,38,42,42,44,44,44,44,45,,,,,,,,,,,,,,
140553,0,2.3426,,,,,,,,,,,-0,116.82,29.52,73.29,112.29,13.09,3370,1,32,60.6,0.96,0.87,12.85,0.0,109.0,60,61,0,0,65,0,0,0,0,1,41,42,42,39,36,34,29,30,32,32,38,40,40,41,41,42,28,28,27,27,26,26,26,28,38,42,42,44,44,44,44,45,0.0,0.0,0.0,0.0,0,0,0.0,0,0.0,-1,0.0,0,0.0,2.3426
140573,0,2.3429,,-0.17,-0.0,0.14,0,1,0,0.22,0.81,27,,,,,,,,,,,,,,,,,,,,,,,,,,41,42,42,39,36,34,29,30,32,32,38,40,40,41,41,42,28,28,28,27,26,26,26,28,38,42,42,44,44,44,44,45,,,,,,,,,,,,,,
140593,0,2.3432,,,,,,,,,,,,,,,,,,,,,,,,,,,,,,,,,,,,41,42,42,39,36,34,29,30,32,32,38,40,40,41,41,42,28,28,28,27,26,26,26,28,38,42,42,44,44,44,45,45,,,,,,,,,,,,,,
140613,0,2.3435,,0.05,-0.03,0.11,0,2,1,0.13,0.81,16,,,,,,,,,,,,,,,,,,,,,,,,,,41,42,42,39,36,34,29,30,33,32,38,40,40,42,42,43,28,28,28,27,26,26,26,28,38,42,42,44,44,44,45,45,,,,,,,,,,,,,,
140633,0,2.3439,,,,,,,,,,,,,,,,,,,,,,,,,,,,,,,,,,,,41,42,42,39,36,34,29,30,33,32,38,40,40,42,42,43,28,28,28,27,26,26,26,28,38,42,42,44,44,44,45,45,,,,,,,,,,,,,,
140653,0,2.3442,,0.14,-0.03,0.2,0,2,0,0.24,0.81,30,0,116.16,29.31,73.62,107.58,13.04,3118,1,32,58.5,0.96,0.87,12.85,0.0,112.0,58,60,0,0,65,0,0,0,0,1,41,42,42,39,36,34,29,30,33,32,38,40,40,42,42,43,28,28,28,27,26,26,26,28,38,41,42,44,44,44,45,45,0.0,0.0,0.0,0.0,0,0,0.0,0,0.0,-1,0.0,0,0.0,2.3442
140673,0,2.3446,,,,,,,,,,,,,,,,,,,,,,,,,,,,,,,,,,,,41,42,42,39,36,34,29,30,32,32,39,40,40,42,42,43,28,28,28,27,26,26,26,28,38,41,42,44,44,44,45,45,,,,,,,,,,,,,,
140693,0,2.3449,,0.05,-0.03,0.22,0,1,1,0.23,0.81,28,,,,,,,,,,,,,,,,,,,,,,,,,,41,42,42,39,36,34,30,30,32,32,39,40,40,42,42,43,28,28,28,27,26,26,26,28,38,41,42,44,44,44,45,45,,,,,,,,,,,,,,
140713,0,2.3452,,,,,,,,,,,,,,,,,,,,,,,,,,,,,,,,,,,,41,42,42,39,36,34,30,30,32,32,39,40,40,42,42,43,28,28,28,27,26,26,26,28,38,42,42,44,44,44,45,45,,,,,,,,,,,,,,
140733,0,2.3456,,-0.07,0.02,0.28,0,3,2,0.29,0.81,36,,,,,,,,,,,,,,,,,,,,,,,,,,41,42,42,39,36,34,30,30,32,32,38,40,40,42,42,43,28,28,28,27,26,26,26,28,38,42,42,44,44,44,45,45,,,,,,,,,,,,,,
140753,0,2.3459,,,,,,,,,,,0,116.37,29.73,73.62,117.36,13.06,3415,1,32,61.4,0.96,0.9,12.85,0.0,110.0,60,61,0,0,65,0,0,0,0,1,41,42,42,39,36,34,29,30,32,32,38,40,40,42,42,43,28,28,28,27,26,26,26,28,38,42,42,44,44,44,45,45,0.0,0.0,0.0,0.0,0,0,0.0,0,0.0,-1,0.0,0,0.0,2.3459
140773,0,2.3462,,-0.05,0.01,0.24,0,3,2,0.25,0.81,31,,,,,,,,,,,,,,,,,,,,,,,,,,41,42,42,39,36,34,29,30,32,32,38,40,40,42,42,43,28,28,28,26,26,26,26,28,38,42,42,44,44,44,45,45,,,,,,,,,,,,,,
140793,0,2.3466,,,,,,,,,,,,,,,,,,,,,,,,,,,,,,,,,,,,41,42,42,39,36,34,29,30,32,32,38,40,40,42,42,43,28,28,28,26,26,26,26,28,38,42,42,44,44,44,45,45,,,,,,,,,,,,,,
140813,0,2.3469,,0.16,0.01,0.27,-0,2,2,0.32,0.81,39,,,,,,,,,,,,,,,,,,,,,,,,,,41,42,42,39,36,34,29,30,32,32,38,40,40,42,42,43,28,28,28,26,26,26,26,28,38,42,42,44,44,44,45,45,,,,,,,,,,,,,,
140833,0,2.3472,,,,,,,,,,,,,,,,,,,,,,,,,,,,,,,,,,,,41,42,42,39,36,34,29,30,32,32,38,40,40,42,42,43,28,28,28,27,26,26,26,28,38,41,42,44,44,44,44,45,,,,,,,,,,,,,,
140853,0,2.3475,,0.06,0.03,0.32,-0,1,1,0.33,0.81,40,0,116.16,29.52,73.71,110.85,13.07,3422,1,32,60.0,0.96,0.85,12.85,0.0,116.0,59,60,0,0,65,0,0,0,0,1,41,42,42,39,36,34,29,30,32,32,38,40,40,42,42,43,28,28,28,27,26,26,26,28,38,41,42,44,44,44,44,45,0.0,0.0,0.0,0.0,0,0,0.0,0,0.0,-1,0.0,0,0.0,2.3475
140873,0,2.3479,,,,,,,,,,,,,,,,,,,,,,,,,,,,,,,,,,,,41,42,42,39,36,34,29,30,32,32,38,40,40,42,42,43,28,28,28,27,26,26,26,28,38,41,42,44,44,44,44,45,,,,,,,,,,,,,,
140893,0,2.3482,,-0.04,-0.02,0.27,-0,2,0,0.27,0.81,33,,,,,,,,,,,,,,,,,,,,,,,,,,41,42,41,38,36,34,29,30,32,32,38,40,40,42,42,43,28,28,28,26,26,26,26,28,38,41,42,44,44,44,45,45,,,,,,,,,,,,,,
140913,0,2.3486,,,,,,,,,,,,,,,,,,,,,,,,,,,,,,,,,,,,41,42,41,38,36,34,29,30,32,32,38,40,40,42,42,43,28,28,28,26,26,26,26,28,38,41,42,44,44,44,45,45,,,,,,,,,,,,,,
140933,0,2.3489,,0.11,-0.04,0.32,0,1,1,0.34,0.81,42,,,,,,,,,,,,,,,,,,,,,,,,,,41,42,41,38,36,34,29,30,32,32,38,40,40,42,42,43,28,28,28,26,26,26,26,28,38,41,42,44,44,44,45,45,,,,,,,,,,,,,,
140953,0,2.3492,,,,,,,,,,,0,116.49,29.52,73.38,114.27,13.07,3461,1,32,58.3,0.96,0.87,12.85,0.0,113.0,59,60,0,0,65,0,0,0,0,1,40,42,41,38,36,34,29,30,32,32,38,40,40,42,42,43,28,28,28,27,26,26,26,28,38,41,42,44,44,44,45,45,0.0,0.0,0.0,0.0,0,0,0.0,0,0.0,-1,0.0,0,0.0,2.3492
140973,0,2.3496,,0.18,-0.01,0.36,0,1,0,0.4,0.81,50,,,,,,,,,,,,,,,,,,,,,,,,,,40,42,41,38,36,34,29,30,32,32,38,40,40,42,42,43,28,28,28,27,26,26,26,28,38,42,42,44,44,44,44,45,,,,,,,,,,,,,,
140993,0,2.3499,,,,,,,,,,,,,,,,,,,,,,,,,,,,,,,,,,,,40,42,41,38,36,34,29,30,32,32,38,40,40,41,42,43,28,28,28,27,26,26,26,28,38,42,42,44,44,44,44,45,,,,,,,,,,,,,,
141013,0,2.3502,,-0.0,-0.01,0.26,-0,0,0,0.26,0.81,32,,,,,,,,,,,,,,,,,,,,,,,,,,40,42,41,39,36,34,29,30,32,32,38,40,40,41,42,43,28,28,28,27,26,26,26,28,38,42,42,44,44,44,44,45,,,,,,,,,,,,,,
141033,0,2.3505,,,,,,,,,,,,,,,,,,,,,,,,,,,,,,,,,,,,40,42,41,39,36,34,29,30,32,32,38,40,40,41,42,43,28,28,28,27,26,26,26,28,38,41,42,44,44,44,44,45,,,,,,,,,,,,,,
141053,0,2.3509,13.36,-0.07,-0.03,0.37,-0,0,0,0.38,0.81,47,0,116.28,29.52,73.71,107.46,13.07,3356,1,32,55.7,0.96,0.84,12.86,0.0,114.0,60,61,0,0,65,0,0,0,0,1,40,42,41,39,36,34,29,30,32,32,38,40,40,42,42,42,28,28,28,27,26,26,26,28,38,41,42,44,44,44,44,45,0.0,0.0,0.0,0.0,0,0,0.0,0,0.0,-1,0.0,0,0.0,2.3509
141073,0,2.3512,,,,,,,,,,,,,,,,,,,,,,,,,,,,,,,,,,,,41,42,41,39,36,34,29,30,32,32,38,40,40,42,42,42,28,28,28,27,26,26,26,28,38,41,42,44,44,44,44,45,,,,,,,,,,,,,,
141093,0,2.3516,,0.04,-0.04,0.49,-0,-1,0,0.49,0.81,61,,,,,,,,,,,,,,,,,,,,,,,,,,41,42,41,39,36,34,29,30,32,32,38,40,40,42,42,42,28,28,28,27,26,26,26,28,38,41,42,44,44,44,44,45,,,,,,,,,,,,,,
141113,0,2.3519,,,,,,,,,,,,,,,,,,,,,,,,,,,,,,,,,,,,41,42,41,39,36,34,29,30,32,32,38,40,40,41,41,43,28,28,28,27,26,26,26,28,38,41,42,44,44,44,44,45,,,,,,,,,,,,,,
141133,0,2.3522,,-0.11,-0.03,0.41,-0,-2,-1,0.42,0.81,52,,,,,,,,,,,,,,,,,,,,,,,,,,41,42,42,39,36,34,29,30,32,32,38,40,40,41,41,43,28,28,28,27,26,26,26,28,38,41,42,44,44,44,44,45,,,,,,,,,,,,,,
141153,0,2.3526,,,,,,,,,,,0,116.04,29.4,73.62,112.5,13.05,3826,1,32,56.2,0.96,0.84,12.85,0.0,129.0,60,61,0,0,65,0,0,0,0,1,41,42,42,39,36,34,29,30,32,32,38,40,40,41,41,43,28,28,27,27,26,26,26,28,38,41,42,44,44,44,44,45,0.0,0.0,0.0,0.0,0,0,0.0,0,0.0,-1,0.0,0,0.0,2.3526
141173,0,2.3529,,0.06,-0.02,0.3,-0,-1,-0,0.3,0.81,38,,,,,,,,,,,,,,,,,,,,,,,,,,41,42,42,39,36,34,29,30,32,32,38,40,40,41,41,42,28,28,27,27,26,26,26,28,38,41,42,44,44,44,44,45,,,,,,,,,,,,,,
141193,0,2.3532,,,,,,,,,,,,,,,,,,,,,,,,,,,,,,,,,,,,41,42,42,39,36,34,29,30,32,32,38,40,40,41,41,42,28,28,27,27,26,26,26,28,38,41,42,44,44,44,44,45,,,,,,,,,,,,,,
141213,0,2.3535,,-0.01,-0.02,0.4,-0,3,1,0.4,0.81,49,,,,,,,,,,,,,,,,,,,,,,,,,,42,42,42,39,36,34,30,30,32,32,38,40,40,41,41,42,28,28,28,26,26,26,26,28,38,42,42,44,44,44,45,45,,,,,,,,,,,,,,
141233,0,2.3539,,,,,,,,,,,,,,,,,,,,,,,,,,,,,,,,,,,,42,42,42,39,36,34,30,30,32,32,38,40,40,41,41,42,28,28,28,26,26,26,26,28,38,42,42,44,44,44,45,45,,,,,,,,,,,,,,
141253,0,2.3542,,0.11,-0.05,0.18,-0,-0,-0,0.22,0.81,27,-0,116.16,29.52,73.62,109.23,13.05,3654,1,32,55.5,0.96,0.8,12.85,0.0,121.0,60,61,0,0,65,0,0,0,0,1,42,42,42,39,36,34,30,30,32,32,38,41,40,42,42,43,28,28,28,26,26,26,26,28,38,42,42,44,44,44,45,45,0.0,0.0,0.0,0.0,0,0,0.0,0,0.0,-1,0.0,0,0.0,2.3542
141273,0,2.3545,,,,,,,,,,,,,,,,,,,,,,,,,,,,,,,,,,,,41,42,42,39,36,34,30,31,32,32,38,41,40,42,42,43,28,28,28,27,26,26,26,28,38,42,42,44,44,44,45,45,,,,,,,,,,,,,,
141293,0,2.3549,,-0.02,-0.01,0.07,-0,1,1,0.07,0.81,9,,,,,,,,,,,,,,,,,,,,,,,,,,41,42,42,39,36,34,30,31,32,32,38,41,40,42,42,43,28,28,28,27,26,26,26,28,38,42,42,44,44,44,45,45,,,,,,,,,,,,,,
141313,0,2.3552,,,,,,,,,,,,,,,,,,,,,,,,,,,,,,,,,,,,41,42,42,39,36,34,30,31,32,32,38,40,40,42,42,43,28,28,28,27,26,26,26,28,38,42,42,44,44,44,45,45,,,,,,,,,,,,,,
141333,0,2.3556,,-0.05,0.01,0.11,0,1,1,0.12,0.81,15,,,,,,,,,,,,,,,,,,,,,,,,,,41,42,42,39,36,34,30,30,32,32,38,40,40,42,42,43,28,28,28,27,26,26,26,28,38,42,42,44,44,44,45,45,,,,,,,,,,,,,,
141353,0,2.3559,,,,,,,,,,,-0,116.61,29.4,73.62,115.47,13.06,3611,1,32,55.1,0.96,0.82,12.85,0.0,121.0,60,61,0,0,65,0,0,0,0,1,41,42,42,39,36,34,30,30,32,32,38,40,40,42,42,43,28,28,28,27,26,26,26,28,38,42,42,44,44,44,44,45,0.0,0.0,0.0,0.0,0,0,0.0,0,0.0,-1,0.0,0,0.0,2.3559
141373,0,2.3562,,0.12,0.03,0.2,0,-0,-0,0.23,0.81,28,,,,,,,,,,,,,,,,,,,,,,,,,,41,42,42,39,36,34,30,30,32,32,39,41,40,42,42,43,28,28,28,27,26,26,26,28,38,42,42,44,44,44,44,45,,,,,,,,,,,,,,
141393,0,2.3565,,,,,,,,,,,,,,,,,,,,,,,,,,,,,,,,,,,,42,42,42,40,36,34,30,31,32,32,39,41,40,42,42,43,28,28,28,27,26,26,26,28,38,42,42,44,44,44,44,45,,,,,,,,,,,,,,
141413,0,2.3569,,-0.01,0.02,0.09,0,0,-0,0.09,0.81,12,,,,,,,,,,,,,,,,,,,,,,,,,,42,42,42,40,36,34,30,31,32,32,39,41,40,42,42,43,28,28,28,27,26,26,26,28,38,42,42,44,44,44,44,45,,,,,,,,,,,,,,
141433,0,2.3572,,,,,,,,,,,,,,,,,,,,,,,,,,,,,,,,,,,,42,42,42,40,36,34,30,31,33,32,39,41,40,42,42,43,28,28,28,27,26,26,26,28,38,42,42,44,44,44,44,45,,,,,,,,,,,,,,
141453,0,2.3575,,-0.01,-0.04,0.11,-0,-0,0,0.12,0.81,14,0,116.61,29.4,73.5,116.25,13.08,3646,1,32,55.2,0.96,0.83,12.85,0.0,117.0,60,61,0,0,65,0,0,0,0,1,41,42,42,39,36,34,29,30,33,32,39,41,40,42,42,43,28,28,28,27,26,26,26,28,38,42,42,44,44,44,44,45,0.0,0.0,0.0,0.0,0,0,0.0,0,0.0,-1,0.0,0,0.0,2.3575
141473,0,2.3579,,,,,,,,,,,,,,,,,,,,,,,,,,,,,,,,,,,,41,42,42,39,36,34,29,30,33,32,39,41,40,42,42,43,28,28,28,27,26,26,26,28,39,42,42,44,44,44,45,45,,,,,,,,,,,,,,
141493,0,2.3582,,0.13,-0.04,0.24,-0,-1,0,0.28,0.81,34,,,,,,,,,,,,,,,,,,,,,,,,,,41,42,42,39,36,34,29,30,32,32,39,40,40,42,42,43,28,28,28,27,26,26,26,28,39,42,42,44,44,44,45,45,,,,,,,,,,,,,,
141513,0,2.3586,,,,,,,,,,,,,,,,,,,,,,,,,,,,,,,,,,,,42,42,42,39,36,34,30,30,32,32,39,40,40,42,42,43,28,28,28,27,26,26,26,28,39,42,42,44,44,44,45,45,,,,,,,,,,,,,,
141533,0,2.3589,,-0.01,0.0,0.06,-0,0,0,0.06,0.81,7,,,,,,,,,,,,,,,,,,,,,,,,,,42,42,42,39,36,34,30,30,32,32,39,40,40,42,42,43,28,28,28,27,26,26,26,28,38,42,42,44,44,44,45,45,,,,,,,,,,,,,,
141553,0,2.3592,,,,,,,,,,,0,116.49,29.52,73.62,124.71,13.08,3695,1,32,54.9,0.96,0.83,12.84,0.0,123.0,60,61,0,0,65,0,0,0,0,1,42,42,42,39,36,34,30,30,32,32,39,40,40,42,42,43,28,28,28,27,26,26,26,28,38,42,42,44,44,44,45,45,0.0,0.0,0.0,0.0,0,0,0.0,0,0.0,-1,0.0,0,0.0,2.3592
141573,0,2.3596,,0.02,0.01,0.05,-0,0,1,0.05,0.81,6,,,,,,,,,,,,,,,,,,,,,,,,,,42,42,42,39,36,34,30,30,32,32,39,40,40,42,42,43,28,28,28,27,26,26,26,28,38,42,42,44,44,44,45,45,,,,,,,,,,,,,,
141593,0,2.3599,,,,,,,,,,,,,,,,,,,,,,,,,,,,,,,,,,,,42,42,42,40,36,34,30,30,32,32,39,40,40,42,42,43,28,28,28,26,26,26,26,28,38,42,42,44,44,44,44,45,,,,,,,,,,,,,,
141613,0,2.3602,,0.07,0.0,0.18,-0,-0,1,0.2,0.81,24,,,,,,,,,,,,,,,,,,,,,,,,,,42,42,42,40,36,34,30,30,32,32,39,40,40,42,42,43,28,28,28,26,26,26,26,28,38,42,42,44,44,44,44,45,,,,,,,,,,,,,,
141633,0,2.3605,,,,,,,,,,,,,,,,,,,,,,,,,,,,,,,,,,,,42,42,42,40,36,34,30,30,32,32,39,40,40,42,42,43,28,28,28,26,26,26,26,28,38,42,42,44,44,44,44,45,,,,,,,,,,,,,,
141653,0,2.3609,,-0.09,0.01,-0.12,-0,0,1,0.15,0.81,18,-0,116.37,29.4,73.62,112.5,13.08,3519,1,32,53.9,0.96,0.85,12.85,0.0,119.0,60,61,0,0,65,0,0,0,0,1,41,42,42,39,36,34,30,31,32,32,39,40,40,42,42,43,28,28,28,26,26,26,26,28,38,42,42,44,44,44,44,45,0.0,0.0,0.0,0.0,0,0,0.0,0,0.0,-1,0.0,0,0.0,2.3609
141673,0,2.3612,,,,,,,,,,,,,,,,,,,,,,,,,,,,,,,,,,,,41,42,42,39,36,34,30,31,32,32,39,40,40,42,42,43,28,28,28,26,26,26,26,28,39,42,42,44,44,44,44,45,,,,,,,,,,,,,,
141693,0,2.3616,,0.05,-0.03,-0.06,-0,1,1,0.08,0.81,10,,,,,,,,,,,,,,,,,,,,,,,,,,41,42,42,39,36,34,30,31,32,32,38,40,40,41,41,42,28,28,28,26,26,26,26,28,39,42,42,44,44,44,44,45,,,,,,,,,,,,,,
141713,0,2.3619,,,,,,,,,,,,,,,,,,,,,,,,,,,,,,,,,,,,41,42,42,39,36,34,30,30,32,32,38,40,40,41,41,42,28,28,28,27,26,26,26,28,39,42,42,44,44,44,44,45,,,,,,,,,,,,,,
141733,0,2.3622,,0.17,-0.03,0.02,-0,0,1,0.18,0.81,22,,,,,,,,,,,,,,,,,,,,,,,,,,41,42,42,39,36,34,30,30,32,32,38,40,40,41,41,42,28,28,28,27,26,26,26,28,39,42,42,44,44,44,45,45,,,,,,,,,,,,,,
141753,0,2.3626,,,,,,,,,,,0,116.61,29.4,73.62,111.42,13.06,3267,1,32,53.5,0.96,0.87,12.84,0.0,117.0,59,60,0,0,65,0,0,0,0,1,41,42,42,39,36,34,30,30,32,32,38,40,40,42,42,44,28,28,28,27,26,26,26,28,39,42,42,44,44,44,45,45,0.0,0.0,0.0,0.0,0,0,0.0,0,0.0,-1,0.0,0,0.0,2.3626
141773,0,2.3629,,0.03,-0.02,-0.19,-0,1,1,0.19,0.81,24,,,,,,,,,,,,,,,,,,,,,,,,,,42,42,42,40,36,34,30,30,32,32,38,40,40,42,42,44,28,28,28,27,26,26,26,28,39,42,42,44,44,44,45,45,,,,,,,,,,,,,,
141793,0,2.3632,,,,,,,,,,,,,,,,,,,,,,,,,,,,,,,,,,,,42,42,42,40,36,34,30,30,32,32,38,40,40,42,42,44,28,28,28,27,26,26,26,28,38,42,42,44,44,44,45,45,,,,,,,,,,,,,,
141813,0,2.3635,,-0.11,-0.02,-0.23,-0,0,0,0.25,0.81,32,,,,,,,,,,,,,,,,,,,,,,,,,,42,42,42,40,36,34,30,30,32,32,39,41,40,42,42,43,28,28,28,27,26,26,26,28,38,42,42,44,44,44,45,45,,,,,,,,,,,,,,
141833,0,2.3639,,,,,,,,,,,,,,,,,,,,,,,,,,,,,,,,,,,,42,42,42,39,36,34,30,31,32,32,39,41,40,42,42,43,28,28,28,27,26,26,26,28,38,42,42,44,44,44,45,45,,,,,,,,,,,,,,
141853,0,2.3642,,0.01,-0.02,-0.11,-0,0,1,0.11,0.81,14,-0,116.37,29.52,73.5,113.73,13.05,3429,1,32,56.9,0.96,0.89,12.86,0.0,116.0,60,61,0,0,65,0,0,0,0,1,42,42,42,39,36,34,30,31,32,32,39,41,40,42,42,43,28,28,27,27,26,26,26,28,39,42,42,44,44,44,45,45,0.0,0.0,0.0,0.0,0,0,0.0,0,0.0,-1,0.0,0,0.0,2.3642
141873,0,2.3646,,,,,,,,,,,,,,,,,,,,,,,,,,,,,,,,,,,,42,42,42,39,36,34,30,31,33,32,39,41,40,42,42,43,28,28,27,27,26,26,26,28,39,42,42,44,44,44,45,45,,,,,,,,,,,,,,
141893,0,2.3649,,0.05,-0.01,-0.02,0,0,1,0.05,0.81,7,,,,,,,,,,,,,,,,,,,,,,,,,,42,42,42,39,36,34,30,31,33,32,39,41,40,42,42,43,28,28,27,27,26,26,26,28,39,42,42,44,44,44,45,45,,,,,,,,,,,,,,
141913,0,2.3652,,,,,,,,,,,,,,,,,,,,,,,,,,,,,,,,,,,,41,42,42,40,36,34,30,31,33,32,39,41,40,42,42,43,28,28,27,26,26,26,26,28,38,42,42,44,44,44,44,45,,,,,,,,,,,,,,
141933,0,2.3656,,-0.07,0.0,0.06,-0,2,1,0.09,0.81,11,,,,,,,,,,,,,,,,,,,,,,,,,,41,42,42,40,36,34,30,31,33,32,39,41,40,42,42,43,28,28,27,26,26,26,26,28,38,42,42,44,44,44,44,45,,,,,,,,,,,,,,
141953,0,2.3659,,,,,,,,,,,0,116.16,29.4,73.71,117.36,13.05,3377,1,32,58.3,0.96,0.85,12.84,0.0,113.0,60,61,0,0,65,0,0,0,0,1,41,42,42,40,36,34,30,31,32,32,39,41,40,42,42,43,28,28,27,26,26,26,26,28,38,42,42,44,44,44,44,45,0.0,0.0,0.0,0.0,0,0,0.0,0,0.0,-1,0.0,0,0.0,2.3659
141973,0,2.3662,,-0.13,-0.01,0.16,-0,2,1,0.2,0.81,25,,,,,,,,,,,,,,,,,,,,,,,,,,42,42,42,40,36,34,30,31,32,32,39,41,40,42,42,43,28,28,28,26,26,26,26,28,39,42,42,44,44,44,44,45,,,,,,,,,,,,,,
141993,0,2.3665,,,,,,,,,,,,,,,,,,,,,,,,,,,,,,,,,,,,42,42,42,40,36,34,30,31,32,32,39,41,40,42,42,43,28,28,28,26,26,26,26,28,39,42,42,44,44,44,44,45,,,,,,,,,,,,,,
142013,0,2.3669,,0.15,-0.02,0.03,-0,1,1,0.15,0.81,19,,,,,,,,,,,,,,,,,,,,,,,,,,42,42,42,40,36,34,30,31,32,32,39,41,40,42,42,43,28,28,28,26,26,26,26,28,39,42,42,44,44,44,44,45,,,,,,,,,,,,,,
142033,0,2.3672,,,,,,,,,,,,,,,,,,,,,,,,,,,,,,,,,,,,41,42,42,40,36,34,30,30,32,32,39,41,40,42,42,43,28,28,28,26,26,26,26,28,39,42,42,44,44,44,44,45,,,,,,,,,,,,,,
142053,0,2.3675,13.38,0.18,0.0,0.02,-0,0,0,0.18,0.81,22,-0,116.37,29.64,73.62,113.28,13.09,3271,1,32,57.6,0.96,0.85,12.85,0.0,110.0,59,60,0,0,65,0,0,0,0,1,41,42,42,40,36,34,30,30,32,32,39,41,40,42,42,43,28,28,28,26,26,26,26,28,38,42,42,44,44,44,45,45,0.0,0.0,0.0,0.0,0,0,0.0,0,0.0,-1,0.0,0,0.0,2.3675
142073,0,2.3679,,,,,,,,,,,,,,,,,,,,,,,,,,,,,,,,,,,,41,42,42,40,36,34,30,30,32,32,39,41,40,42,42,43,28,28,28,26,26,26,26,28,38,42,42,44,44,44,45,45,,,,,,,,,,,,,,
142093,0,2.3682,,0.08,0.0,0.15,-0,1,1,0.17,0.81,21,,,,,,,,,,,,,,,,,,,,,,,,,,41,42,42,39,36,34,30,31,32,32,39,41,40,42,42,43,28,28,28,27,26,26,26,28,38,42,42,44,44,44,45,45,,,,,,,,,,,,,,
142113,0,2.3686,,,,,,,,,,,,,,,,,,,,,,,,,,,,,,,,,,,,41,42,42,39,36,34,30,31,32,32,39,41,40,42,42,43,28,28,28,27,26,26,26,28,39,42,42,44,44,44,45,45,,,,,,,,,,,,,,
142133,0,2.3689,,-0.07,0.02,0.02,0,0,0,0.07,0.81,9,,,,,,,,,,,,,,,,,,,,,,,,,,41,42,42,39,36,34,30,31,33,32,39,41,40,42,42,43,28,28,28,27,26,26,26,28,39,42,42,44,44,44,45,45,,,,,,,,,,,,,,
142153,0,2.3692,,,,,,,,,,,-0,116.7,29.4,73.5,114.27,13.09,3429,1,32,56.8,0.96,0.89,12.85,0.0,114.0,60,61,0,0,65,0,0,0,0,1,41,42,42,39,36,34,29,30,33,32,39,41,40,42,42,43,28,28,27,26,26,26,26,28,39,42,42,44,44,44,45,45,0.0,0.0,0.0,0.0,0,0,0.0,0,0.0,-1,0.0,0,0.0,2.3692
142173,0,2.3696,,-0.12,0.05,0.08,0,1,0,0.16,0.81,19,,,,,,,,,,,,,,,,,,,,,,,,,,41,42,42,39,36,34,29,30,33,32,39,41,40,42,42,43,28,28,27,26,26,26,26,28,39,42,42,44,44,44,44,45,,,,,,,,,,,,,,
142193,0,2.3699,,,,,,,,,,,,,,,,,,,,,,,,,,,,,,,,,,,,41,42,42,39,36,34,29,30,33,32,39,41,40,42,42,43,28,28,27,26,26,26,26,28,39,42,42,44,44,44,44,45,,,,,,,,,,,,,,
142213,0,2.3702,,0.12,0.02,-0.02,0,0,-0,0.12,0.81,15,,,,,,,,,,,,,,,,,,,,,,,,,,41,42,42,39,36,34,30,30,33,32,39,41,40,42,42,43,28,28,27,26,26,26,26,28,39,42,42,44,44,44,44,45,,,,,,,,,,,,,,
142233,0,2.3705,,,,,,,,,,,,,,,,,,,,,,,,,,,,,,,,,,,,41,42,42,39,36,34,30,30,33,32,39,41,40,42,42,43,28,28,28,27,26,26,26,28,39,42,42,44,44,44,45,45,,,,,,,,,,,,,,
142253,0,2.3709,,0.15,0.01,0.02,0,-1,-0,0.15,0.81,19,-0,116.16,29.52,73.71,113.61,13.08,3356,1,32,59.8,0.96,0.84,12.85,0.0,110.0,59,60,0,0,65,0,0,0,0,1,41,42,42,39,36,34,30,30,32,32,38,40,40,42,42,43,28,28,28,27,26,26,26,28,39,42,42,44,44,44,45,45,0.0,0.0,0.0,0.0,0,0,0.0,0,0.0,-1,0.0,0,0.0,2.3709
142273,0,2.3712,,,,,,,,,,,,,,,,,,,,,,,,,,,,,,,,,,,,41,42,42,39,36,34,30,30,32,32,38,40,40,42,42,43,28,28,28,27,26,26,26,28,39,42,42,44,44,44,45,45,,,,,,,,,,,,,,
142293,0,2.3716,,0.0,-0.01,-0.06,-0,-0,-0,0.06,0.81,8,,,,,,,,,,,,,,,,,,,,,,,,,,41,42,42,39,36,34,29,31,32,32,38,40,40,42,42,43,28,28,28,27,26,26,26,28,38,42,42,44,44,44,44,45,,,,,,,,,,,,,,
142313,0,2.3719,,,,,,,,,,,,,,,,,,,,,,,,,,,,,,,,,,,,41,42,42,39,36,34,29,31,32,32,38,40,40,42,42,43,28,28,28,27,26,26,26,28,38,42,42,44,44,44,44,45,,,,,,,,,,,,,,
142333,0,2.3722,,-0.16,0.03,-0.01,0,-2,-1,0.17,0.81,21,,,,,,,,,,,,,,,,,,,,,,,,,,41,42,42,39,36,34,29,31,32,32,38,41,40,42,42,43,28,28,28,27,26,26,26,28,38,42,42,44,44,44,44,45,,,,,,,,,,,,,,
142353,0,2.3726,,,,,,,,,,,-0,116.49,29.73,73.71,112.95,13.06,3527,1,32,59.2,0.96,0.85,12.85,0.0,111.0,60,61,0,0,66,0,0,0,0,1,41,42,42,39,36,34,30,30,32,32,38,41,40,42,42,43,28,28,28,26,26,26,26,28,38,42,42,44,44,44,44,45,0.0,0.0,0.0,0.0,0,0,0.0,0,0.0,-1,0.0,0,0.0,2.3726
142373,0,2.3729,,0.03,0.04,0.05,0,-3,-1,0.07,0.81,8,,,,,,,,,,,,,,,,,,,,,,,,,,41,42,42,39,36,34,30,30,32,32,38,41,40,42,42,43,28,28,28,26,26,26,26,28,39,42,42,44,44,44,44,45,,,,,,,,,,,,,,
142393,0,2.3732,,,,,,,,,,,,,,,,,,,,,,,,,,,,,,,,,,,,41,42,42,39,36,34,30,30,32,32,38,40,40,42,42,43,28,28,28,26,26,26,26,28,39,42,42,44,44,44,44,45,,,,,,,,,,,,,,
142413,0,2.3735,,-0.1,0.06,-0.14,0,-2,-1,0.19,0.81,23,,,,,,,,,,,,,,,,,,,,,,,,,,41,42,42,39,36,34,30,30,32,32,38,40,40,42,42,43,28,28,28,27,26,26,26,28,39,42,42,44,44,44,44,45,,,,,,,,,,,,,,
142433,0,2.3739,,,,,,,,,,,,,,,,,,,,,,,,,,,,,,,,,,,,41,42,42,39,36,34,30,30,32,32,38,40,40,42,42,43,28,28,28,27,26,26,26,28,39,42,42,44,44,44,45,45,,,,,,,,,,,,,,
142453,0,2.3742,,-0.04,0.03,-0.26,0,-3,-1,0.26,0.81,32,0,116.7,29.4,73.5,118.11,13.09,3591,1,32,60.1,0.96,0.83,12.85,0.0,124.0,60,61,0,0,66,0,0,0,0,1,41,42,42,39,36,34,30,30,32,32,38,40,40,42,42,43,28,28,28,27,26,26,26,28,39,42,42,44,44,44,45,45,0.0,0.0,0.0,0.0,0,0,0.0,0,0.0,-1,0.0,0,0.0,2.3742
142473,0,2.3746,,,,,,,,,,,,,,,,,,,,,,,,,,,,,,,,,,,,41,42,42,39,36,34,30,30,32,32,38,40,40,42,42,43,28,28,28,27,26,26,26,28,39,42,42,44,44,44,45,45,,,,,,,,,,,,,,
142493,0,2.3749,,-0.04,0.01,-0.07,-0,-3,-1,0.08,0.81,10,,,,,,,,,,,,,,,,,,,,,,,,,,41,42,42,39,36,34,30,30,32,32,38,40,40,42,42,43,28,28,28,27,26,26,26,28,39,42,42,44,44,44,45,46,,,,,,,,,,,,,,
142513,0,2.3752,,,,,,,,,,,,,,,,,,,,,,,,,,,,,,,,,,,,41,42,42,39,36,34,30,30,32,32,38,40,40,42,42,43,28,28,28,27,26,26,26,28,39,42,42,44,44,44,45,46,,,,,,,,,,,,,,
142533,0,2.3756,,-0.22,0.04,-0.41,0,-4,-2,0.46,0.81,57,,,,,,,,,,,,,,,,,,,,,,,,,,41,42,42,39,36,34,29,30,32,32,38,40,40,42,42,43,28,28,28,27,26,26,26,28,39,42,42,44,44,44,45,46,,,,,,,,,,,,,,
142553,0,2.3759,,,,,,,,,,,0,116.37,29.4,73.5,113.73,13.1,3538,1,32,60.0,0.96,0.88,12.85,0.0,114.0,60,61,0,0,66,0,0,0,0,1,41,42,42,39,36,34,29,30,32,32,38,40,40,42,42,43,28,28,27,27,26,26,26,28,39,42,42,44,44,44,45,45,0.0,0.0,0.0,0.0,0,0,0.0,0,0.0,-1,0.0,0,0.0,2.3759
142573,0,2.3762,,0.03,0.04,-0.43,0,-3,-1,0.44,0.81,54,,,,,,,,,,,,,,,,,,,,,,,,,,41,42,42,39,36,34,29,30,32,32,38,41,40,42,41,43,28,28,27,27,26,26,26,28,39,42,42,44,44,44,45,45,,,,,,,,,,,,,,
142593,0,2.3765,,,,,,,,,,,,,,,,,,,,,,,,,,,,,,,,,,,,40,42,42,39,36,34,29,31,32,32,38,41,40,42,41,43,28,28,27,27,26,26,26,28,39,42,42,44,44,44,45,45,,,,,,,,,,,,,,
142613,0,2.3769,,-0.04,0.04,-0.28,0,-2,-1,0.28,0.81,35,,,,,,,,,,,,,,,,,,,,,,,,,,40,42,42,39,36,34,29,31,32,32,38,41,40,42,41,43,28,28,28,26,26,26,26,28,39,42,42,44,44,44,45,45,,,,,,,,,,,,,,
142633,0,2.3772,,,,,,,,,,,,,,,,,,,,,,,,,,,,,,,,,,,,40,42,42,39,36,34,29,31,32,32,38,41,40,42,41,43,28,28,28,26,26,26,26,28,39,42,42,44,44,44,45,45,,,,,,,,,,,,,,
142653,0,2.3776,,-0.18,0.02,-0.31,0,-2,-1,0.36,0.81,44,0,116.04,29.52,73.83,116.7,13.06,3313,1,32,57.5,0.96,0.86,12.86,0.0,121.0,60,61,0,0,66,0,0,0,0,1,40,42,42,39,36,34,29,31,32,32,38,40,40,42,42,43,28,28,28,26,26,26,26,28,39,42,42,44,44,44,45,45,0.0,0.0,0.0,0.0,0,0,0.0,0,0.0,-1,0.0,0,0.0,2.3776
142673,0,2.3779,,,,,,,,,,,,,,,,,,,,,,,,,,,,,,,,,,,,41,42,42,39,36,34,29,30,32,32,38,40,40,42,42,43,28,28,28,27,26,26,26,28,39,42,42,44,44,44,44,45,,,,,,,,,,,,,,
142693,0,2.3782,,-0.16,0.03,-0.35,0,-2,-1,0.38,0.81,47,,,,,,,,,,,,,,,,,,,,,,,,,,41,42,42,39,36,34,29,30,32,32,38,40,40,42,42,43,28,28,28,27,26,26,26,28,39,42,42,44,44,44,44,45,,,,,,,,,,,,,,
142713,0,2.3786,,,,,,,,,,,,,,,,,,,,,,,,,,,,,,,,,,,,41,42,42,39,36,34,29,30,32,32,39,41,40,42,42,43,28,28,28,27,26,26,26,28,39,42,42,44,44,44,44,45,,,,,,,,,,,,,,
142733,0,2.3789,,0.07,0.03,-0.35,0,-2,-1,0.36,0.81,44,,,,,,,,,,,,,,,,,,,,,,,,,,41,42,42,39,36,34,29,30,32,32,39,41,40,42,42,43,28,28,28,27,26,26,26,28,39,42,42,44,44,44,44,45,,,,,,,,,,,,,,
142753,0,2.3792,,,,,,,,,,,0,116.61,29.64,73.5,113.94,13.09,3450,1,32,57.2,0.96,0.87,12.85,0.0,112.0,59,60,0,0,66,0,0,0,0,1,41,42,42,39,36,34,29,30,32,32,39,41,40,42,42,43,28,28,28,27,26,26,26,28,39,42,42,44,44,44,44,45,0.0,0.0,0.0,0.0,0,0,0.0,0,0.0,-1,0.0,0,0.0,2.3792
142773,0,2.3795,,0.01,0.02,-0.13,-0,-1,-0,0.13,0.81,16,,,,,,,,,,,,,,,,,,,,,,,,,,41,42,42,39,36,34,29,30,33,32,39,41,40,42,42,43,28,28,28,27,26,26,26,28,39,42,42,44,44,44,44,45,,,,,,,,,,,,,,
142793,0,2.3799,,,,,,,,,,,,,,,,,,,,,,,,,,,,,,,,,,,,41,42,42,39,36,34,29,30,33,32,39,41,40,42,42,43,28,28,28,27,26,26,26,28,39,42,42,44,44,44,44,45,,,,,,,,,,,,,,
142813,0,2.3802,,-0.16,0.01,-0.28,-0,-2,-1,0.32,0.81,39,,,,,,,,,,,,,,,,,,,,,,,,,,41,42,42,39,36,34,29,30,33,32,39,41,40,42,42,43,28,28,28,27,26,26,26,28,39,42,42,44,44,44,44,45,,,,,,,,,,,,,,
142833,0,2.3805,,,,,,,,,,,,,,,,,,,,,,,,,,,,,,,,,,,,41,42,42,39,36,34,29,30,33,32,39,41,40,42,42,44,28,28,28,27,26,26,26,28,39,42,42,44,44,44,44,45,,,,,,,,,,,,,,
142853,0,2.3809,,0.04,-0.01,-0.26,-0,0,-0,0.26,0.81,32,0,116.16,29.64,73.71,110.97,13.05,3556,1,32,56.3,0.96,0.87,12.86,0.0,108.0,60,61,0,0,66,0,0,0,0,1,42,42,42,39,36,34,30,30,33,32,39,41,40,42,42,44,28,28,28,27,26,26,26,28,39,42,42,44,44,44,44,45,0.0,0.0,0.0,0.0,0,0,0.0,0,0.0,-1,0.0,0,0.0,2.3809
142873,0,2.3812,,,,,,,,,,,,,,,,,,,,,,,,,,,,,,,,,,,,42,42,42,39,36,34,30,30,33,32,39,41,40,42,42,44,28,28,28,27,26,26,26,28,39,42,42,44,44,44,45,45,,,,,,,,,,,,,,
142893,0,2.3816,,0.13,-0.01,-0.14,0,-0,-0,0.19,0.81,24,,,,,,,,,,,,,,,,,,,,,,,,,,42,42,42,39,36,34,30,30,32,32,39,41,40,42,42,43,28,28,28,27,26,26,26,28,39,42,42,44,44,44,45,45,,,,,,,,,,,,,,
142913,0,2.3819,,,,,,,,,,,,,,,,,,,,,,,,,,,,,,,,,,,,42,42,42,40,36,34,30,30,32,32,39,41,40,42,42,43,28,28,28,27,26,26,26,28,39,42,42,44,44,44,45,45,,,,,,,,,,,,,,
142933,0,2.3822,,-0.01,0.01,-0.42,0,1,-0,0.42,0.81,52,,,,,,,,,,,,,,,,,,,,,,,,,,42,42,42,40,36,34,30,30,32,32,39,41,40,42,42,43,28,28,28,27,26,26,26,28,39,42,42,44,44,44,45,45,,,,,,,,,,,,,,
142953,0,2.3826,,,,,,,,,,,0,116.7,29.64,73.5,118.89,13.06,3436,1,32,55.8,0.96,0.84,12.86,0.0,119.0,59,61,0,0,66,0,0,0,0,1,42,42,42,40,36,34,30,30,32,32,39,41,40,42,42,43,28,28,28,27,26,26,26,28,39,42,42,44,44,44,45,45,0.0,0.0,0.0,0.0,0,0,0.0,0,0.0,-1,0.0,0,0.0,2.3826
142973,0,2.3829,,-0.1,0.02,-0.31,-0,1,0,0.33,0.81,40,,,,,,,,,,,,,,,,,,,,,,,,,,42,42,42,40,36,34,30,30,32,32,39,41,40,42,42,43,28,28,28,27,26,26,26,28,39,42,42,44,44,44,45,45,,,,,,,,,,,,,,
142993,0,2.3832,,,,,,,,,,,,,,,,,,,,,,,,,,,,,,,,,,,,41,42,42,39,36,34,29,30,32,32,39,41,40,42,42,43,28,28,28,27,26,26,26,28,39,42,42,44,44,44,45,45,,,,,,,,,,,,,,
143013,0,2.3835,,0.14,0.01,-0.26,-0,2,1,0.29,0.81,36,,,,,,,,,,,,,,,,,,,,,,,,,,41,42,42,39,36,34,29,30,32,32,39,41,40,42,42,43,28,28,28,27,26,26,26,28,39,42,42,44,44,44,45,45,,,,,,,,,,,,,,
143033,0,2.3839,,,,,,,,,,,,,,,,,,,,,,,,,,,,,,,,,,,,41,42,42,39,36,34,29,30,32,32,39,41,40,42,42,43,28,28,28,27,26,26,26,28,39,42,42,44,44,44,45,45,,,,,,,,,,,,,,
143053,0,2.3842,13.38,0.14,0.02,-0.14,-0,1,0,0.2,0.81,25,0,116.16,29.4,73.71,111.18,13.06,3217,1,32,54.9,0.96,0.84,12.86,0.0,112.0,59,60,0,0,66,0,0,0,0,1,41,42,42,39,36,34,29,30,32,32,39,41,40,42,42,43,28,28,28,27,26,26,26,28,39,42,42,44,44,44,45,45,0.0,0.0,0.0,0.0,0,0,0.0,0,0.0,-1,0.0,0,0.0,2.3842
143073,0,2.3846,,,,,,,,,,,,,,,,,,,,,,,,,,,,,,,,,,,,41,42,42,39,36,34,29,30,32,32,39,41,40,42,42,43,28,28,28,27,26,26,26,28,39,42,42,44,44,44,44,45,,,,,,,,,,,,,,
143093,0,2.3849,,0.0,-0.01,-0.06,-0,1,1,0.07,0.81,8,,,,,,,,,,,,,,,,,,,,,,,,,,41,42,42,39,36,34,29,30,33,32,39,41,40,42,42,43,28,28,28,27,26,26,26,28,39,42,42,44,44,44,44,45,,,,,,,,,,,,,,
143113,0,2.3852,,,,,,,,,,,,,,,,,,,,,,,,,,,,,,,,,,,,42,42,42,40,36,34,30,30,33,32,39,41,40,42,42,43,28,28,27,27,26,26,26,28,39,42,42,44,44,44,44,45,,,,,,,,,,,,,,
143133,0,2.3856,,-0.16,0.04,-0.05,-0,0,1,0.17,0.81,22,,,,,,,,,,,,,,,,,,,,,,,,,,42,42,42,40,36,34,30,30,33,32,39,41,40,42,42,43,28,28,27,27,26,26,26,28,39,42,42,44,44,44,44,45,,,,,,,,,,,,,,
143153,0,2.3859,,,,,,,,,,,0,116.7,29.73,73.5,118.56,13.08,3370,1,32,60.9,0.96,0.87,12.86,0.0,105.0,60,61,0,0,66,0,0,0,0,1,42,42,42,40,36,34,30,30,32,32,39,40,40,42,42,43,28,28,27,27,26,26,26,28,39,42,42,44,44,44,44,45,0.0,0.0,0.0,0.0,0,0,0.0,0,0.0,-1,0.0,0,0.0,2.3859
143173,0,2.3862,,0.03,0.05,-0.19,-0,1,0,0.2,0.81,25,,,,,,,,,,,,,,,,,,,,,,,,,,41,42,42,39,36,34,30,30,32,32,39,40,40,42,42,43,28,28,28,27,26,26,26,28,39,42,42,44,44,44,44,45,,,,,,,,,,,,,,
143193,0,2.3865,,,,,,,,,,,,,,,,,,,,,,,,,,,,,,,,,,,,41,42,42,39,36,34,30,30,32,32,39,40,40,42,42,43,28,28,28,27,26,26,26,28,39,42,42,44,44,44,44,45,,,,,,,,,,,,,,
143213,0,2.3869,,0.18,0.04,-0.15,-0,0,0,0.24,0.81,30,,,,,,,,,,,,,,,,,,,,,,,,,,41,42,42,39,36,34,30,30,32,32,38,41,40,42,42,43,28,28,28,27,26,26,26,28,39,42,42,44,44,44,44,45,,,,,,,,,,,,,,
143233,0,2.3872,,,,,,,,,,,,,,,,,,,,,,,,,,,,,,,,,,,,41,42,42,39,36,34,29,30,32,32,38,41,40,42,42,43,28,28,28,27,26,26,26,28,39,42,42,44,44,44,44,45,,,,,,,,,,,,,,
143253,0,2.3875,,0.06,0.04,0.03,-0,1,1,0.08,0.81,10,0,116.16,29.52,73.71,110.31,13.08,3475,1,32,58.6,0.96,0.9,12.87,0.0,113.0,59,60,0,0,66,0,0,0,0,1,41,42,42,39,36,34,29,30,32,32,38,41,40,42,42,43,28,28,28,27,26,26,26,28,39,42,42,44,44,44,45,45,0.0,0.0,0.0,0.0,0,0,0.0,0,0.0,-1,0.0,0,0.0,2.3875
143273,0,2.3879,,,,,,,,,,,,,,,,,,,,,,,,,,,,,,,,,,,,41,42,42,39,36,34,29,30,33,32,39,40,40,42,42,43,28,28,28,27,26,26,26,28,39,42,42,44,44,44,45,45,,,,,,,,,,,,,,
143293,0,2.3882,,-0.11,0.04,-0.09,0,-0,1,0.15,0.81,19,,,,,,,,,,,,,,,,,,,,,,,,,,41,42,42,39,36,34,30,30,33,32,39,40,40,42,42,43,28,28,28,27,26,26,26,28,39,42,42,44,44,44,45,45,,,,,,,,,,,,,,
143313,0,2.3886,,,,,,,,,,,,,,,,,,,,,,,,,,,,,,,,,,,,41,42,42,39,36,34,30,30,33,32,39,40,40,42,42,43,28,28,28,26,26,26,26,28,39,42,42,44,44,44,44,45,,,,,,,,,,,,,,
143333,0,2.3889,,-0.06,0.06,-0.04,0,-1,0,0.09,0.81,11,,,,,,,,,,,,,,,,,,,,,,,,,,41,42,42,39,36,34,30,30,33,32,39,41,40,42,42,44,28,28,28,26,26,26,26,28,39,42,42,44,44,44,44,45,,,,,,,,,,,,,,
143353,0,2.3892,,,,,,,,,,,0,116.7,29.73,73.62,117.12,13.09,3580,1,32,57.5,0.96,0.87,12.86,0.0,112.0,59,60,0,0,66,0,0,0,0,1,41,42,42,39,36,34,30,30,33,32,39,41,40,42,42,44,28,28,28,26,26,26,26,28,39,42,42,44,44,44,44,45,0.0,0.0,0.0,0.0,0,0,0.0,0,0.0,-1,0.0,0,0.0,2.3892
143373,0,2.3895,,0.11,0.04,0.02,0,-2,-0,0.12,0.81,15,,,,,,,,,,,,,,,,,,,,,,,,,,41,42,42,39,36,34,30,30,33,32,39,41,40,42,42,44,28,28,28,26,26,26,26,28,39,42,42,44,44,44,44,45,,,,,,,,,,,,,,
143393,0,2.3899,,,,,,,,,,,,,,,,,,,,,,,,,,,,,,,,,,,,41,42,42,39,36,34,30,30,33,32,39,41,40,42,42,44,28,28,28,26,26,26,26,28,39,42,42,44,44,44,44,45,,,,,,,,,,,,,,
143413,0,2.3902,,0.01,0.05,0.03,0,-2,-0,0.06,0.81,8,,,,,,,,,,,,,,,,,,,,,,,,,,41,42,42,39,36,34,30,30,32,32,39,41,40,42,42,43,28,28,28,26,26,26,26,28,39,42,42,44,44,44,44,45,,,,,,,,,,,,,,
143433,0,2.3905,,,,,,,,,,,,,,,,,,,,,,,,,,,,,,,,,,,,42,42,42,39,36,34,30,30,32,32,39,41,40,42,42,43,28,28,28,27,26,26,26,28,39,42,42,44,44,44,44,45,,,,,,,,,,,,,,
143453,0,2.3909,,-0.15,0.07,0.03,-0,-2,-1,0.17,0.81,21,0,116.28,29.64,73.71,113.73,13.07,3360,1,32,55.4,0.96,0.86,12.86,0.0,115.0,60,60,0,0,66,0,0,0,0,1,42,42,42,39,36,34,30,30,32,32,39,41,40,42,42,43,28,28,28,27,26,26,26,28,39,42,42,44,44,44,44,44,0.0,0.0,0.0,0.0,0,0,0.0,0,0.0,-1,0.0,0,0.0,2.3909
143473,0,2.3912,,,,,,,,,,,,,,,,,,,,,,,,,,,,,,,,,,,,42,42,42,39,36,34,30,30,33,32,39,41,40,42,42,43,28,28,28,27,26,26,26,28,39,42,42,44,44,44,44,44,,,,,,,,,,,,,,
143493,0,2.3916,,0.1,0.04,-0.06,-0,-2,-1,0.12,0.81,15,,,,,,,,,,,,,,,,,,,,,,,,,,41,42,42,39,36,34,29,30,33,32,39,41,40,42,42,43,28,28,28,27,26,26,26,28,39,42,42,44,44,44,44,44,,,,,,,,,,,,,,
143513,0,2.3919,,,,,,,,,,,,,,,,,,,,,,,,,,,,,,,,,,,,41,42,42,39,36,34,29,30,33,32,39,41,40,42,42,43,28,28,28,27,26,26,26,28,39,42,42,44,44,44,44,45,,,,,,,,,,,,,,
143533,0,2.3922,,0.08,0.06,0.05,0,-2,-0,0.11,0.81,14,,,,,,,,,,,,,,,,,,,,,,,,,,41,42,42,39,36,34,29,30,32,32,39,41,40,42,42,44,28,28,28,27,26,26,26,28,39,42,42,44,44,44,44,45,,,,,,,,,,,,,,
143553,0,2.3926,,,,,,,,,,,0,116.49,29.64,73.71,118.89,13.06,3353,1,32,55.4,0.96,0.86,12.85,0.0,121.0,59,60,0,0,66,0,0,0,0,1,41,42,42,39,36,34,29,30,32,32,39,41,40,42,42,44,28,28,28,27,26,26,26,28,39,42,42,44,44,44,44,45,0.0,0.0,0.0,0.0,0,0,0.0,0,0.0,-1,0.0,0,0.0,2.3926
143573,0,2.3929,,-0.09,0.07,-0.07,-0,-2,-0,0.13,0.81,16,,,,,,,,,,,,,,,,,,,,,,,,,,41,42,42,39,36,34,29,30,32,32,39,41,40,42,42,44,28,28,28,27,26,26,26,28,39,42,42,44,44,44,45,45,,,,,,,,,,,,,,
143593,0,2.3932,,,,,,,,,,,,,,,,,,,,,,,,,,,,,,,,,,,,41,42,42,39,36,34,29,30,33,32,39,40,40,42,42,43,28,28,28,27,26,26,26,28,39,42,42,44,44,44,45,45,,,,,,,,,,,,,,
143613,0,2.3935,,-0.04,0.05,-0.04,-0,-3,-1,0.07,0.81,9,,,,,,,,,,,,,,,,,,,,,,,,,,42,42,42,40,36,34,30,30,33,32,39,40,40,42,42,43,28,28,28,27,26,26,26,28,39,42,42,44,44,44,45,45,,,,,,,,,,,,,,
143633,0,2.3939,,,,,,,,,,,,,,,,,,,,,,,,,,,,,,,,,,,,42,42,42,40,36,34,30,30,33,32,39,40,40,42,42,43,28,28,28,26,26,26,26,28,40,42,42,44,44,44,44,45,,,,,,,,,,,,,,
143653,0,2.3942,,0.11,0.03,-0.06,-0,-3,-0,0.12,0.81,15,-0,116.28,29.52,73.5,112.83,13.06,3258,1,32,55.5,0.96,0.84,12.86,0.0,114.0,59,60,0,0,66,0,0,0,0,1,42,42,42,40,36,34,30,30,32,32,39,41,40,42,42,43,28,28,28,26,26,26,26,28,40,42,42,44,44,44,44,45,0.0,0.0,0.0,0.0,0,0,0.0,0,0.0,-1,0.0,0,0.0,2.3942
143673,0,2.3946,,,,,,,,,,,,,,,,,,,,,,,,,,,,,,,,,,,,41,42,42,40,36,34,29,30,32,32,39,41,40,42,42,43,28,28,28,26,26,26,26,28,40,42,42,44,44,44,44,45,,,,,,,,,,,,,,
143693,0,2.3949,,-0.01,0.03,-0.05,-0,-2,-0,0.06,0.81,7,,,,,,,,,,,,,,,,,,,,,,,,,,41,42,42,40,36,34,29,30,32,32,39,41,40,42,42,43,28,28,28,26,26,26,26,28,39,42,42,44,44,44,44,45,,,,,,,,,,,,,,
143713,0,2.3952,,,,,,,,,,,,,,,,,,,,,,,,,,,,,,,,,,,,41,42,42,40,36,34,29,30,32,32,39,41,40,42,42,43,28,28,28,26,26,26,26,28,39,42,42,44,44,44,44,45,,,,,,,,,,,,,,
143733,0,2.3956,,-0.19,0.05,-0.16,-0,-4,-1,0.26,0.81,32,,,,,,,,,,,,,,,,,,,,,,,,,,41,42,42,40,36,34,29,30,32,32,39,40,40,42,42,43,28,28,28,26,26,26,26,28,39,42,42,44,44,44,44,45,,,,,,,,,,,,,,
143753,0,2.3959,,,,,,,,,,,0,116.04,29.73,73.83,111.75,13.06,3461,1,32,60.2,0.96,0.86,12.85,0.0,111.0,60,60,0,0,66,0,0,0,0,1,41,42,42,39,36,34,29,30,32,32,39,40,40,42,42,43,28,28,28,26,26,26,26,28,39,42,42,44,44,44,44,45,0.0,0.0,0.0,0.0,0,0,0.0,0,0.0,-1,0.0,0,0.0,2.3959
143773,0,2.3962,,0.07,0.04,-0.15,-0,-4,-0,0.17,0.81,22,,,,,,,,,,,,,,,,,,,,,,,,,,41,42,42,39,36,34,29,30,32,32,39,40,40,42,42,43,28,28,28,26,26,26,26,28,40,42,42,44,44,44,44,45,,,,,,,,,,,,,,
143793,0,2.3965,,,,,,,,,,,,,,,,,,,,,,,,,,,,,,,,,,,,41,42,42,39,36,34,29,30,33,32,39,41,40,42,42,44,28,28,28,26,26,26,26,28,40,42,42,44,44,44,44,45,,,,,,,,,,,,,,
143813,0,2.3969,,0.04,0.04,0.02,-0,-3,-0,0.06,0.81,7,,,,,,,,,,,,,,,,,,,,,,,,,,42,42,42,39,36,34,30,30,33,32,39,41,40,42,42,44,28,28,28,27,26,26,26,28,40,42,42,44,44,44,44,45,,,,,,,,,,,,,,
143833,0,2.3972,,,,,,,,,,,,,,,,,,,,,,,,,,,,,,,,,,,,42,42,42,39,36,34,30,30,33,32,39,41,40,42,42,44,28,28,28,27,26,26,26,28,39,42,42,44,44,44,44,45,,,,,,,,,,,,,,
143853,0,2.3976,,-0.1,0.02,-0.24,-0,-4,-0,0.27,0.81,33,0,116.61,29.64,73.5,115.92,13.08,3363,1,32,58.5,0.96,0.88,12.86,0.0,117.0,60,61,0,0,66,0,0,0,0,1,42,42,42,39,36,34,30,30,32,32,39,41,40,42,42,43,28,28,28,27,26,26,26,28,39,42,42,44,44,44,44,45,0.0,0.0,0.0,0.0,0,0,0.0,0,0.0,-1,0.0,0,0.0,2.3976
143873,0,2.3979,,,,,,,,,,,,,,,,,,,,,,,,,,,,,,,,,,,,41,42,42,39,36,34,30,30,32,32,39,41,40,42,42,43,28,28,28,27,26,26,26,28,39,42,42,44,44,44,44,45,,,,,,,,,,,,,,
143893,0,2.3982,,-0.11,0.03,-0.16,-0,-2,0,0.2,0.81,24,,,,,,,,,,,,,,,,,,,,,,,,,,41,42,42,39,36,34,30,30,32,32,39,41,40,42,42,43,28,28,28,27,26,26,26,28,39,42,42,44,44,44,44,45,,,,,,,,,,,,,,
143913,0,2.3986,,,,,,,,,,,,,,,,,,,,,,,,,,,,,,,,,,,,41,42,42,39,36,34,30,30,33,32,39,41,40,42,42,44,28,28,28,27,26,26,26,28,39,42,42,44,44,44,44,45,,,,,,,,,,,,,,
143933,0,2.3989,,0.07,0.04,-0.2,-0,-3,-0,0.22,0.81,27,,,,,,,,,,,,,,,,,,,,,,,,,,41,42,42,40,36,34,30,31,33,32,39,41,40,42,42,44,28,28,28,27,26,26,26,28,39,42,42,44,44,44,44,45,,,,,,,,,,,,,,
143953,0,2.3992,,,,,,,,,,,0,116.04,29.64,73.71,112.17,13.09,3353,1,32,57.5,0.96,0.88,12.85,0.0,112.0,62,63,0,0,66,0,0,0,0,1,41,42,42,40,36,34,30,31,33,32,39,41,40,42,42,44,28,28,28,27,26,26,26,28,39,42,42,44,44,44,44,45,0.0,0.0,0.0,0.0,0,0,0.0,0,0.0,-1,0.0,0,0.0,2.3992
143973,0,2.3995,,0.03,0.05,-0.14,-0,-3,-0,0.15,0.81,18,,,,,,,,,,,,,,,,,,,,,,,,,,41,42,42,40,36,34,30,31,32,32,39,41,40,42,42,44,28,28,28,27,26,26,26,28,39,42,42,44,44,44,44,45,,,,,,,,,,,,,,
143993,0,2.3999,,,,,,,,,,,,,,,,,,,,,,,,,,,,,,,,,,,,42,42,42,40,36,34,30,31,32,32,39,41,40,42,42,44,28,28,28,27,26,26,26,28,39,42,42,44,44,44,44,45,,,,,,,,,,,,,,
144013,0,2.4002,,-0.12,0.03,-0.35,0,-3,-0,0.37,0.81,46,,,,,,,,,,,,,,,,,,,,,,,,,,42,42,42,40,36,34,30,31,32,32,39,41,40,42,42,44,28,28,28,27,26,26,26,28,39,42,42,44,44,44,44,45,,,,,,,,,,,,,,
144033,0,2.4005,,,,,,,,,,,,,,,,,,,,,,,,,,,,,,,,,,,,42,42,42,40,36,34,30,31,33,32,39,41,40,42,42,44,28,28,28,27,26,26,26,28,39,42,42,44,44,44,44,45,,,,,,,,,,,,,,
144053,0,2.4009,13.38,-0.15,0.03,-0.11,0,-2,-0,0.19,0.81,24,0,116.61,29.73,73.5,113.82,13.08,3646,1,32,57.0,0.96,0.88,12.85,0.0,110.0,65,65,0,0,66,0,0,0,0,1,42,42,42,40,36,34,30,31,33,32,39,41,40,42,42,44,28,28,28,27,26,26,26,28,39,42,42,44,44,44,44,45,0.0,0.0,0.0,0.0,0,0,0.0,0,0.0,-1,0.0,0,0.0,2.4009
144073,0,2.4012,,,,,,,,,,,,,,,,,,,,,,,,,,,,,,,,,,,,41,42,42,39,36,34,30,30,33,32,39,41,40,42,42,44,28,28,28,27,26,26,26,28,39,42,42,44,44,44,44,45,,,,,,,,,,,,,,
144093,0,2.4016,,0.07,0.01,-0.16,0,-2,-0,0.17,0.81,21,,,,,,,,,,,,,,,,,,,,,,,,,,41,42,42,39,36,34,30,30,33,32,39,41,40,42,42,44,28,28,28,27,26,26,26,28,39,42,42,44,44,44,44,45,,,,,,,,,,,,,,
144113,0,2.4019,,,,,,,,,,,,,,,,,,,,,,,,,,,,,,,,,,,,41,42,42,39,36,34,30,30,32,32,39,41,40,42,42,43,28,28,28,27,26,26,26,28,39,42,42,44,44,44,44,45,,,,,,,,,,,,,,
144133,0,2.4022,,-0.02,0.03,0.01,0,-1,0,0.04,0.81,5,,,,,,,,,,,,,,,,,,,,,,,,,,41,42,42,39,36,34,30,30,32,32,39,41,40,42,42,43,28,28,28,27,26,26,26,28,39,42,42,44,44,44,44,45,,,,,,,,,,,,,,
144153,0,2.4025,,,,,,,,,,,0,116.04,29.52,73.71,112.74,13.07,3432,1,32,55.5,0.96,0.86,12.85,0.0,121.0,65,64,0,0,66,0,0,0,0,1,41,42,42,39,36,34,30,30,32,32,39,41,40,42,42,43,28,28,28,27,26,26,26,28,39,42,42,44,44,44,44,45,0.0,0.0,0.0,0.0,0,0,0.0,0,0.0,-1,0.0,0,0.0,2.4025
144173,0,2.4029,,-0.09,-0.0,0.03,0,0,1,0.1,0.81,12,,,,,,,,,,,,,,,,,,,,,,,,,,41,42,42,39,36,34,30,30,32,32,39,41,40,42,42,43,28,28,28,27,26,26,26,28,39,42,42,44,44,44,44,45,,,,,,,,,,,,,,
144193,0,2.4032,,,,,,,,,,,,,,,,,,,,,,,,,,,,,,,,,,,,42,42,42,40,36,34,30,31,32,32,39,41,40,42,42,43,28,28,28,27,26,26,26,28,39,42,42,44,44,44,44,45,,,,,,,,,,,,,,
144213,0,2.4035,,0.15,-0.01,0.04,-0,1,1,0.15,0.81,19,,,,,,,,,,,,,,,,,,,,,,,,,,42,42,42,40,36,34,30,31,32,32,39,41,40,42,42,43,28,28,28,27,26,26,26,28,39,42,42,44,44,44,45,45,,,,,,,,,,,,,,
144233,0,2.4039,,,,,,,,,,,,,,,,,,,,,,,,,,,,,,,,,,,,42,42,42,40,36,34,30,31,32,32,39,41,40,42,42,43,28,28,28,27,26,26,26,28,39,42,42,44,44,44,45,45,,,,,,,,,,,,,,
144253,0,2.4042,,0.08,0.01,0.04,0,1,1,0.09,0.81,12,0,116.28,29.64,73.71,116.04,13.07,3213,1,32,54.3,0.96,0.83,12.85,0.0,116.0,62,61,0,0,66,0,0,0,0,1,42,42,42,39,36,34,30,30,32,32,39,41,40,42,42,43,28,28,27,26,26,26,26,28,39,42,42,44,44,44,45,45,0.0,0.0,0.0,0.0,0,0,0.0,0,0.0,-1,0.0,0,0.0,2.4042
144273,0,2.4046,,,,,,,,,,,,,,,,,,,,,,,,,,,,,,,,,,,,42,42,42,39,36,34,30,30,32,32,39,41,40,42,42,43,28,28,27,26,26,26,26,28,39,42,42,44,44,44,44,45,,,,,,,,,,,,,,
144293,0,2.4049,,-0.11,0.04,-0.0,-0,0,0,0.12,0.81,14,,,,,,,,,,,,,,,,,,,,,,,,,,42,42,42,39,36,34,30,30,33,32,39,41,40,42,42,44,28,28,27,26,26,26,26,28,39,42,42,44,44,44,44,45,,,,,,,,,,,,,,
144313,0,2.4052,,,,,,,,,,,,,,,,,,,,,,,,,,,,,,,,,,,,42,42,42,40,36,34,29,31,33,32,39,41,40,42,42,44,28,28,27,26,26,26,26,28,39,42,42,44,44,44,44,45,,,,,,,,,,,,,,
144333,0,2.4056,,0.13,0.05,-0.16,-0,0,0,0.21,0.81,25,,,,,,,,,,,,,,,,,,,,,,,,,,42,42,42,40,36,34,29,31,33,32,39,41,40,42,42,44,28,28,27,26,26,26,26,28,38,42,42,44,44,44,44,45,,,,,,,,,,,,,,
144353,0,2.4059,,,,,,,,,,,0,116.49,29.73,73.71,120.63,13.08,3397,1,32,54.9,0.96,0.87,12.85,0.0,113.0,55,56,0,0,66,0,0,0,0,1,42,42,42,40,36,34,29,31,33,32,39,41,40,42,42,44,28,28,27,26,26,26,26,28,38,42,42,44,44,44,44,45,0.0,0.0,0.0,0.0,0,0,0.0,0,0.0,-1,0.0,0,0.0,2.4059
144373,0,2.4062,,0.08,0.06,-0.03,0,1,0,0.1,0.81,13,,,,,,,,,,,,,,,,,,,,,,,,,,41,42,42,40,36,34,30,30,33,32,39,41,40,42,42,44,28,28,27,26,26,26,26,28,38,42,42,44,44,44,44,45,,,,,,,,,,,,,,
144393,0,2.4065,,,,,,,,,,,,,,,,,,,,,,,,,,,,,,,,,,,,41,42,42,40,36,34,30,30,33,32,39,41,40,42,42,44,28,28,28,27,26,26,26,28,39,42,42,44,44,44,44,45,,,,,,,,,,,,,,
144413,0,2.4069,,-0.08,0.08,-0.18,0,0,-0,0.21,0.81,26,,,,,,,,,,,,,,,,,,,,,,,,,,41,42,42,40,36,34,30,30,33,32,39,41,40,42,42,44,28,28,28,27,26,26,26,28,39,42,42,44,44,44,44,45,,,,,,,,,,,,,,
144433,0,2.4072,,,,,,,,,,,,,,,,,,,,,,,,,,,,,,,,,,,,41,42,42,40,36,34,30,30,33,32,39,41,40,42,42,44,28,28,28,27,26,26,26,28,39,42,42,44,44,44,44,45,,,,,,,,,,,,,,
144453,0,2.4076,,-0.06,0.08,-0.25,0,-1,-1,0.27,0.81,34,0,116.16,29.64,73.71,110.97,13.06,3408,1,32,60.9,0.96,0.87,12.86,0.0,115.0,50,50,0,0,66,0,0,0,0,1,41,42,42,39,36,34,29,30,33,32,39,41,40,42,42,44,28,28,27,27,26,26,26,28,39,42,42,44,44,44,44,45,0.0,0.0,0.0,0.0,0,0,0.0,0,0.0,-1,0.0,0,0.0,2.4076
144473,0,2.4079,,,,,,,,,,,,,,,,,,,,,,,,,,,,,,,,,,,,41,42,42,39,36,34,29,30,33,32,39,41,40,42,42,44,28,28,27,27,26,26,26,28,40,42,42,44,44,44,45,46,,,,,,,,,,,,,,
144493,0,2.4082,,0.13,0.05,-0.19,0,-2,-1,0.24,0.81,29,,,,,,,,,,,,,,,,,,,,,,,,,,41,42,42,39,36,34,29,30,33,32,39,41,40,42,42,44,28,28,27,27,26,26,26,28,40,42,42,44,44,44,45,46,,,,,,,,,,,,,,
144513,0,2.4086,,,,,,,,,,,,,,,,,,,,,,,,,,,,,,,,,,,,41,42,42,39,36,34,29,30,33,32,39,41,40,42,42,44,28,28,27,26,26,26,26,28,40,42,42,44,44,44,45,46,,,,,,,,,,,,,,
144533,0,2.4089,,0.05,0.05,-0.12,0,-1,-0,0.14,0.81,18,,,,,,,,,,,,,,,,,,,,,,,,,,41,42,42,39,36,34,29,30,33,32,39,41,40,42,42,44,28,28,27,26,26,26,26,28,40,42,42,44,44,44,45,45,,,,,,,,,,,,,,
144553,0,2.4092,,,,,,,,,,,0,116.7,29.97,73.62,115.92,13.1,3439,1,32,58.1,0.96,0.85,12.85,0.0,113.0,50,49,0,0,66,0,0,0,0,1,41,42,42,39,36,34,29,30,33,32,39,41,40,42,42,44,28,28,27,26,26,26,26,28,40,42,42,44,44,44,45,45,0.0,0.0,0.0,0.0,0,0,0.0,0,0.0,-1,0.0,0,0.0,2.4092
144573,0,2.4095,,-0.13,0.03,-0.15,-0,-1,-0,0.21,0.81,25,,,,,,,,,,,,,,,,,,,,,,,,,,41,42,42,39,36,34,29,30,33,32,39,41,40,42,42,44,28,28,28,26,26,26,26,28,40,42,42,44,44,44,45,45,,,,,,,,,,,,,,
144593,0,2.4099,,,,,,,,,,,,,,,,,,,,,,,,,,,,,,,,,,,,41,42,42,39,36,34,29,30,33,32,39,41,40,42,42,44,28,28,28,26,26,26,26,28,39,42,42,44,44,44,45,45,,,,,,,,,,,,,,
144613,0,2.4102,,0.11,0.03,-0.25,-0,0,-0,0.27,0.81,34,,,,,,,,,,,,,,,,,,,,,,,,,,41,42,42,39,36,34,29,30,33,32,39,41,40,42,42,44,28,28,28,26,26,26,26,28,39,42,42,44,44,44,45,45,,,,,,,,,,,,,,
144633,0,2.4106,,,,,,,,,,,,,,,,,,,,,,,,,,,,,,,,,,,,40,41,41,38,36,34,29,30,33,32,39,41,40,42,42,44,28,28,27,26,26,26,26,28,39,42,42,44,44,44,45,45,,,,,,,,,,,,,,
144653,0,2.4109,,0.08,0.04,-0.03,0,-0,-0,0.09,0.81,11,0,116.28,29.4,73.62,116.7,13.1,3543,1,32,55.7,0.96,0.87,12.86,0.0,114.0,50,49,0,0,66,0,0,0,0,1,40,41,41,38,36,34,29,30,33,32,39,41,40,42,42,44,28,28,27,26,26,26,26,28,40,42,42,44,44,44,45,45,0.0,0.0,0.0,0.0,0,0,0.0,0,0.0,-1,0.0,0,0.0,2.4109
144673,0,2.4112,,,,,,,,,,,,,,,,,,,,,,,,,,,,,,,,,,,,40,41,41,38,36,34,29,30,32,32,38,41,40,42,42,44,28,28,27,26,26,26,26,28,40,42,42,44,44,44,45,45,,,,,,,,,,,,,,
144693,0,2.4116,,-0.09,0.04,-0.26,0,-0,-0,0.28,0.81,34,,,,,,,,,,,,,,,,,,,,,,,,,,40,41,40,38,35,33,29,30,32,32,38,41,40,42,42,44,28,28,27,26,26,26,26,28,40,42,42,44,44,44,45,45,,,,,,,,,,,,,,
144713,0,2.4119,,,,,,,,,,,,,,,,,,,,,,,,,,,,,,,,,,,,40,41,40,38,35,33,29,30,32,32,38,41,40,42,42,44,28,28,27,26,26,26,26,28,39,42,42,44,44,44,44,45,,,,,,,,,,,,,,
144733,0,2.4122,,-0.03,0.04,-0.22,0,-0,-1,0.22,0.81,28,,,,,,,,,,,,,,,,,,,,,,,,,,40,41,40,38,35,33,29,30,32,32,38,40,40,42,42,43,28,28,27,26,26,26,26,28,39,42,42,44,44,44,44,45,,,,,,,,,,,,,,
144753,0,2.4125,,,,,,,,,,,0,116.16,29.97,73.95,113.82,13.09,3607,1,32,56.8,0.96,0.86,12.85,0.0,113.0,50,49,0,0,66,0,0,0,0,1,40,40,40,38,34,32,28,30,32,32,38,40,40,42,42,43,28,28,27,26,26,26,26,28,39,42,42,44,44,44,44,45,0.0,0.0,0.0,0.0,0,0,0.0,0,0.0,-1,0.0,0,0.0,2.4125
144773,0,2.4129,,0.14,0.01,-0.16,-0,-1,-0,0.22,0.81,27,,,,,,,,,,,,,,,,,,,,,,,,,,40,40,40,38,34,32,28,30,32,32,38,40,40,42,42,43,28,28,27,26,26,26,26,28,39,42,42,44,44,44,44,45,,,,,,,,,,,,,,
144793,0,2.4132,,,,,,,,,,,,,,,,,,,,,,,,,,,,,,,,,,,,40,40,40,38,34,32,28,30,32,32,38,40,40,42,42,43,28,28,27,26,26,26,26,28,39,42,42,44,44,44,44,45,,,,,,,,,,,,,,
144813,0,2.4135,,0.0,0.02,-0.12,-0,-2,-1,0.12,0.81,15,,,,,,,,,,,,,,,,,,,,,,,,,,40,40,40,38,34,32,28,30,32,32,38,40,40,42,42,43,28,28,27,26,26,26,26,28,39,42,42,44,44,44,44,45,,,,,,,,,,,,,,
144833,0,2.4139,,,,,,,,,,,,,,,,,,,,,,,,,,,,,,,,,,,,40,40,40,37,34,32,28,30,32,32,38,40,40,42,42,43,28,28,27,26,26,26,26,28,39,42,42,44,44,44,44,45,,,,,,,,,,,,,,
144853,0,2.4142,,-0.1,0.02,-0.18,-0,-3,-2,0.2,0.81,25,0,116.61,29.64,73.5,113.16,13.09,3626,1,32,55.9,0.96,0.88,12.85,0.0,117.0,53,56,0,0,66,0,0,0,0,1,40,40,40,37,34,32,28,30,32,32,38,40,40,42,42,43,28,28,27,26,26,26,26,28,39,42,42,44,44,44,44,45,0.0,0.0,0.0,0.0,0,0,0.0,0,0.0,-1,0.0,0,0.0,2.4142
144873,0,2.4146,,,,,,,,,,,,,,,,,,,,,,,,,,,,,,,,,,,,40,40,40,37,34,32,28,30,32,32,38,40,40,42,42,43,28,28,27,26,26,26,26,28,39,42,42,44,44,44,44,45,,,,,,,,,,,,,,
144893,0,2.4149,,0.11,0.0,-0.12,-0,-3,-1,0.16,0.81,20,,,,,,,,,,,,,,,,,,,,,,,,,,40,40,40,37,34,32,28,30,32,32,38,40,40,42,42,43,28,28,28,27,26,26,26,28,39,42,42,44,44,44,44,45,,,,,,,,,,,,,,
144913,0,2.4152,,,,,,,,,,,,,,,,,,,,,,,,,,,,,,,,,,,,40,40,40,37,34,32,28,30,32,32,38,40,40,42,42,43,28,28,28,27,26,26,26,28,39,42,42,44,44,44,44,45,,,,,,,,,,,,,,
144933,0,2.4156,,-0.03,-0.01,-0.11,-0,-3,-1,0.12,0.81,15,,,,,,,,,,,,,,,,,,,,,,,,,,40,40,40,37,34,32,28,30,32,32,38,40,40,42,42,44,28,28,28,27,26,26,26,28,39,42,42,44,44,44,44,45,,,,,,,,,,,,,,
144953,0,2.4159,,,,,,,,,,,0,116.04,29.4,73.62,112.74,13.07,3454,1,32,54.9,0.96,0.87,12.85,0.0,121.0,55,58,0,0,66,0,0,0,0,1,40,40,40,36,34,32,28,30,32,32,38,40,40,42,42,44,28,28,28,26,26,26,26,28,39,42,42,44,44,44,44,45,0.0,0.0,0.0,0.0,0,0,0.0,0,0.0,-1,0.0,0,0.0,2.4159
144973,0,2.4162,,-0.11,-0.02,-0.07,-0,-3,-1,0.13,0.81,16,,,,,,,,,,,,,,,,,,,,,,,,,,40,40,40,36,34,32,28,30,32,32,38,40,40,42,42,44,28,28,28,26,26,26,26,28,39,42,42,44,44,44,44,44,,,,,,,,,,,,,,
144993,0,2.4165,,,,,,,,,,,,,,,,,,,,,,,,,,,,,,,,,,,,40,40,40,36,34,32,28,30,32,32,38,40,40,42,42,44,28,28,28,26,26,26,26,28,39,42,42,44,44,44,44,44,,,,,,,,,,,,,,
145013,0,2.4169,,0.09,-0.03,-0.04,-0,-2,-0,0.11,0.81,13,,,,,,,,,,,,,,,,,,,,,,,,,,40,40,40,37,34,32,28,30,32,32,38,40,40,42,42,44,28,28,28,26,26,26,26,28,39,42,42,44,44,44,44,44,,,,,,,,,,,,,,
145033,0,2.4172,,,,,,,,,,,,,,,,,,,,,,,,,,,,,,,,,,,,40,40,40,37,34,32,28,30,32,32,38,40,40,42,42,44,28,28,28,27,26,26,26,28,39,42,42,44,44,44,44,45,,,,,,,,,,,,,,
145053,0,2.4176,13.38,0.05,-0.03,0.06,-0,-2,0,0.08,0.81,10,0,116.28,29.64,73.71,114.6,13.09,3329,1,32,54.0,0.96,0.85,12.85,0.0,117.0,58,61,0,0,66,0,0,0,0,1,40,40,40,37,34,32,28,30,32,32,38,40,40,42,42,44,28,28,28,27,26,26,26,28,39,42,42,44,44,44,44,45,0.0,0.0,0.0,0.0,0,0,0.0,0,0.0,-1,0.0,0,0.0,2.4176
145073,0,2.4179,,,,,,,,,,,,,,,,,,,,,,,,,,,,,,,,,,,,40,40,40,37,34,32,28,30,32,32,38,40,40,42,42,44,28,28,28,27,26,26,26,28,39,42,42,44,44,44,44,45,,,,,,,,,,,,,,
145093,0,2.4182,,-0.14,0.01,-0.13,-0,-3,-1,0.19,0.81,24,,,,,,,,,,,,,,,,,,,,,,,,,,40,40,40,37,34,32,28,30,32,32,38,40,40,42,42,44,28,28,27,26,26,26,26,28,39,42,42,44,44,44,45,45,,,,,,,,,,,,,,
145113,0,2.4186,,,,,,,,,,,,,,,,,,,,,,,,,,,,,,,,,,,,40,40,40,37,34,32,28,30,32,32,38,40,40,42,42,44,28,28,27,26,26,26,26,28,39,42,42,44,44,44,45,45,,,,,,,,,,,,,,
145133,0,2.4189,,0.05,0.0,-0.32,-0,-4,-1,0.32,0.81,40,,,,,,,,,,,,,,,,,,,,,,,,,,40,40,40,37,34,32,28,30,32,32,38,40,40,42,42,43,28,28,27,26,26,26,26,28,39,42,42,44,44,44,45,45,,,,,,,,,,,,,,
145153,0,2.4192,,,,,,,,,,,0,116.49,29.4,73.5,114.39,13.1,3293,1,32,53.5,0.96,0.85,12.85,0.0,120.0,60,62,0,0,66,0,0,0,0,1,39,40,40,36,34,32,28,29,32,32,38,40,40,42,42,43,28,28,27,26,26,26,26,28,39,42,42,44,44,44,45,45,0.0,0.0,0.0,0.0,0,0,0.0,0,0.0,-1,0.0,0,0.0,2.4192
145173,0,2.4195,,-0.04,0.01,-0.22,-0,-1,-1,0.22,0.81,27,,,,,,,,,,,,,,,,,,,,,,,,,,39,40,40,36,34,32,28,29,32,32,38,40,40,42,42,43,28,28,27,26,26,26,26,28,39,42,42,44,44,44,44,45,,,,,,,,,,,,,,
145193,0,2.4199,,,,,,,,,,,,,,,,,,,,,,,,,,,,,,,,,,,,39,40,40,36,34,32,28,29,32,32,38,40,40,42,42,44,28,28,27,26,26,26,26,28,39,42,42,44,44,44,44,45,,,,,,,,,,,,,,
145213,0,2.4202,,-0.11,-0.0,-0.11,-0,1,-0,0.16,0.81,20,,,,,,,,,,,,,,,,,,,,,,,,,,40,40,40,37,34,32,28,29,32,32,38,40,40,42,42,44,28,28,27,26,26,26,26,28,39,42,42,44,44,44,44,45,,,,,,,,,,,,,,
145233,0,2.4205,,,,,,,,,,,,,,,,,,,,,,,,,,,,,,,,,,,,40,40,40,37,34,32,28,29,32,32,38,40,40,42,42,44,28,28,27,26,26,26,26,28,39,42,42,44,44,44,44,46,,,,,,,,,,,,,,
145253,0,2.4209,,0.11,0.01,-0.06,-0,1,-0,0.12,0.81,15,-0,116.04,29.4,73.62,113.61,13.06,3353,1,32,56.3,0.96,0.86,12.85,0.0,115.0,60,62,0,0,66,0,0,0,0,1,40,40,40,37,34,32,28,29,32,32,38,40,40,42,42,44,28,28,27,26,26,26,26,28,39,42,42,44,44,44,44,46,0.0,0.0,0.0,0.0,0,0,0.0,0,0.0,-1,0.0,0,0.0,2.4209
145273,0,2.4212,,,,,,,,,,,,,,,,,,,,,,,,,,,,,,,,,,,,40,40,40,37,34,32,28,30,32,32,38,40,40,42,42,44,28,28,27,26,26,26,26,28,39,42,42,44,44,44,44,46,,,,,,,,,,,,,,
145293,0,2.4216,,0.11,0.0,0.05,-0,1,-0,0.12,0.81,15,,,,,,,,,,,,,,,,,,,,,,,,,,40,40,40,37,34,32,28,30,32,32,38,40,40,42,42,44,28,28,27,26,26,26,26,28,39,42,42,44,44,44,45,45,,,,,,,,,,,,,,
145313,0,2.4219,,,,,,,,,,,,,,,,,,,,,,,,,,,,,,,,,,,,40,40,40,37,34,32,28,30,32,32,38,40,40,42,42,43,28,28,27,26,26,26,26,28,39,42,42,44,44,44,45,45,,,,,,,,,,,,,,
145333,0,2.4222,,-0.04,0.01,0.05,-0,2,0,0.06,0.81,8,,,,,,,,,,,,,,,,,,,,,,,,,,40,40,40,37,34,32,29,30,32,32,38,40,40,42,42,43,28,28,28,26,26,26,26,28,39,42,42,44,44,44,45,45,,,,,,,,,,,,,,
145353,0,2.4225,,,,,,,,,,,-0,116.49,29.4,73.62,112.08,13.1,3475,1,32,58.3,0.96,0.84,12.85,0.0,111.0,60,62,0,0,67,0,0,0,0,1,40,40,40,37,34,32,29,30,32,32,38,40,40,42,42,43,28,28,28,26,26,26,26,28,40,42,42,44,44,44,45,45,0.0,0.0,0.0,0.0,0,0,0.0,0,0.0,-1,0.0,0,0.0,2.4225
145373,0,2.4229,,-0.03,-0.02,0.22,-0,2,1,0.22,0.81,27,,,,,,,,,,,,,,,,,,,,,,,,,,40,40,40,37,34,32,29,30,32,32,38,40,40,42,42,44,28,28,28,26,26,26,26,28,40,42,42,44,44,44,45,45,,,,,,,,,,,,,,
145393,0,2.4232,,,,,,,,,,,,,,,,,,,,,,,,,,,,,,,,,,,,40,40,40,37,34,32,28,30,32,32,38,40,40,42,42,44,28,28,28,26,26,26,26,28,40,42,42,44,44,44,45,45,,,,,,,,,,,,,,
145413,0,2.4236,,0.17,-0.01,0.15,-0,2,0,0.23,0.81,28,,,,,,,,,,,,,,,,,,,,,,,,,,40,40,40,37,34,32,28,30,32,32,38,40,40,42,42,44,28,28,27,26,26,26,26,28,39,42,42,44,44,44,44,45,,,,,,,,,,,,,,
145433,0,2.4239,,,,,,,,,,,,,,,,,,,,,,,,,,,,,,,,,,,,40,40,40,37,34,32,28,30,32,31,38,40,40,42,42,44,28,28,27,26,26,26,26,28,39,42,42,44,44,44,44,45,,,,,,,,,,,,,,
145453,0,2.4242,,0.06,0.0,0.19,-0,3,1,0.2,0.81,25,0,116.37,29.64,73.5,114.81,13.07,3464,1,32,57.6,0.96,0.86,12.85,0.0,115.0,59,61,0,0,67,0,0,0,0,1,40,40,40,37,34,32,28,29,32,31,38,40,40,42,42,44,28,28,27,26,26,26,26,28,39,42,42,44,44,44,44,45,0.0,0.0,0.0,0.0,0,0,0.0,0,0.0,-1,0.0,0,0.0,2.4242
145473,0,2.4246,,,,,,,,,,,,,,,,,,,,,,,,,,,,,,,,,,,,40,40,40,37,34,32,28,29,32,31,38,40,40,42,42,44,28,28,27,26,26,26,26,28,39,42,42,44,44,44,44,45,,,,,,,,,,,,,,
145493,0,2.4249,,-0.06,0.0,0.15,-0,2,1,0.17,0.81,21,,,,,,,,,,,,,,,,,,,,,,,,,,40,40,40,37,34,32,28,29,32,31,38,40,40,42,42,44,28,28,27,26,26,26,26,28,39,42,42,44,44,44,44,45,,,,,,,,,,,,,,
145513,0,2.4252,,,,,,,,,,,,,,,,,,,,,,,,,,,,,,,,,,,,40,40,40,37,34,32,28,29,32,32,38,40,40,42,42,44,28,28,27,26,26,26,26,28,39,42,42,44,44,44,44,45,,,,,,,,,,,,,,
145533,0,2.4256,,0.07,0.01,0.26,-0,2,1,0.27,0.81,34,,,,,,,,,,,,,,,,,,,,,,,,,,40,40,40,36,34,32,28,29,32,32,38,40,40,42,42,44,28,28,27,26,26,26,26,28,39,42,42,44,44,44,44,45,,,,,,,,,,,,,,
145553,0,2.4259,,,,,,,,,,,0,115.95,29.52,73.71,107.34,13.09,3454,1,32,56.8,0.96,0.86,12.85,0.0,115.0,60,61,0,0,67,0,0,0,0,1,40,40,40,36,34,32,28,29,32,32,38,40,40,42,42,44,28,28,27,26,26,26,26,28,39,42,42,44,44,44,44,45,0.0,0.0,0.0,0.0,0,0,0.0,0,0.0,-1,0.0,0,0.0,2.4259
145573,0,2.4262,,0.09,0.02,0.24,-0,1,1,0.26,0.81,32,,,,,,,,,,,,,,,,,,,,,,,,,,40,40,40,36,34,32,28,29,32,32,38,40,40,42,42,44,28,28,27,26,26,26,26,28,39,42,42,44,44,44,44,45,,,,,,,,,,,,,,
145593,0,2.4265,,,,,,,,,,,,,,,,,,,,,,,,,,,,,,,,,,,,40,40,40,37,34,32,28,29,32,32,38,40,40,42,42,44,28,28,27,26,26,26,26,28,39,42,42,44,44,44,44,45,,,,,,,,,,,,,,
145613,0,2.4269,,-0.08,0.02,0.05,-0,0,1,0.09,0.81,12,,,,,,,,,,,,,,,,,,,,,,,,,,40,40,40,37,34,32,28,29,32,32,38,40,40,42,42,44,28,28,27,26,26,26,26,28,39,42,42,44,44,44,45,45,,,,,,,,,,,,,,
145633,0,2.4272,,,,,,,,,,,,,,,,,,,,,,,,,,,,,,,,,,,,40,40,40,37,34,32,28,29,32,32,38,40,40,42,42,44,28,28,27,26,26,26,26,28,39,42,42,44,44,44,45,45,,,,,,,,,,,,,,
145653,0,2.4276,,-0.09,-0.01,0.19,-0,1,1,0.21,0.81,26,0,116.61,29.64,73.62,116.13,13.09,3580,1,32,56.2,0.96,0.84,12.85,0.0,113.0,61,63,0,0,67,0,0,0,0,1,40,40,40,36,34,32,28,29,32,32,38,40,40,42,42,44,28,28,27,27,26,26,26,28,39,42,42,44,44,44,45,45,0.0,0.0,0.0,0.0,0,0,0.0,0,0.0,-1,0.0,0,0.0,2.4276
145673,0,2.4279,,,,,,,,,,,,,,,,,,,,,,,,,,,,,,,,,,,,40,40,40,36,34,32,28,29,32,32,38,40,40,42,42,44,28,28,27,27,26,26,26,28,39,42,42,44,44,44,44,45,,,,,,,,,,,,,,
145693,0,2.4282,,0.14,-0.01,0.19,-0,1,1,0.23,0.81,29,,,,,,,,,,,,,,,,,,,,,,,,,,40,40,40,36,34,32,28,29,32,32,38,40,40,42,42,44,28,28,27,27,26,26,26,28,39,42,42,44,44,44,44,45,,,,,,,,,,,,,,
145713,0,2.4286,,,,,,,,,,,,,,,,,,,,,,,,,,,,,,,,,,,,40,40,40,37,34,32,28,30,32,32,38,40,40,42,42,44,28,28,27,27,26,26,26,28,39,42,42,44,44,44,44,45,,,,,,,,,,,,,,
145733,0,2.4289,,0.04,-0.01,0.3,-0,2,1,0.31,0.81,38,,,,,,,,,,,,,,,,,,,,,,,,,,40,40,40,37,34,32,28,30,32,32,38,40,40,42,42,44,28,28,27,27,26,26,26,28,39,42,42,44,44,44,45,45,,,,,,,,,,,,,,
145753,0,2.4292,,,,,,,,,,,0,116.16,29.64,73.71,113.61,13.08,3242,1,32,55.5,0.96,0.84,12.85,0.0,117.0,62,65,0,0,67,0,0,0,0,1,40,40,40,37,34,32,28,30,32,32,38,40,40,42,42,44,28,28,27,27,26,26,26,28,39,42,42,44,44,44,45,45,0.0,0.0,0.0,0.0,0,0,0.0,0,0.0,-1,0.0,0,0.0,2.4292
145773,0,2.4295,,-0.12,0.02,0.13,-0,1,1,0.17,0.81,22,,,,,,,,,,,,,,,,,,,,,,,,,,40,40,40,37,34,32,28,29,32,32,38,40,40,42,42,44,28,28,27,27,26,26,26,28,39,42,42,44,44,44,45,45,,,,,,,,,,,,,,
145793,0,2.4299,,,,,,,,,,,,,,,,,,,,,,,,,,,,,,,,,,,,40,40,40,37,34,32,28,29,32,32,38,40,40,42,42,44,28,28,27,26,26,26,26,28,40,42,42,44,44,44,45,45,,,,,,,,,,,,,,
145813,0,2.4302,,-0.06,0.03,0.14,0,0,1,0.16,0.81,20,,,,,,,,,,,,,,,,,,,,,,,,,,40,40,40,37,34,32,28,29,32,32,38,40,40,42,42,44,28,28,27,26,26,26,26,28,40,42,42,44,44,44,45,45,,,,,,,,,,,,,,
145833,0,2.4306,,,,,,,,,,,,,,,,,,,,,,,,,,,,,,,,,,,,40,40,40,37,34,32,28,30,32,32,38,40,40,42,42,44,28,28,27,26,26,26,26,28,40,42,42,44,44,44,45,45,,,,,,,,,,,,,,
145853,0,2.4309,,0.09,0.01,0.1,-0,-1,1,0.14,0.81,17,0,116.7,29.73,73.71,114.48,13.1,3300,1,32,55.2,0.96,0.9,12.85,0.0,115.0,63,65,0,0,67,0,0,0,0,1,40,40,40,37,34,32,28,30,32,32,38,40,40,42,42,44,28,28,27,26,26,26,26,28,40,42,42,44,44,44,45,45,0.0,0.0,0.0,0.0,0,0,0.0,0,0.0,-1,0.0,0,0.0,2.4309
145873,0,2.4312,,,,,,,,,,,,,,,,,,,,,,,,,,,,,,,,,,,,40,40,40,37,34,32,28,30,32,32,38,40,40,42,42,44,28,28,27,26,26,26,26,28,40,42,42,44,44,44,45,45,,,,,,,,,,,,,,
145893,0,2.4316,,-0.03,0.04,0.2,0,1,1,0.21,0.81,25,,,,,,,,,,,,,,,,,,,,,,,,,,40,40,40,37,34,32,28,30,32,32,38,40,40,42,42,44,28,28,27,26,26,26,26,28,40,42,42,44,44,44,45,45,,,,,,,,,,,,,,
145913,0,2.4319,,,,,,,,,,,,,,,,,,,,,,,,,,,,,,,,,,,,40,40,40,37,34,32,28,30,32,32,38,40,40,42,42,44,28,28,27,26,26,26,26,28,40,42,42,44,44,44,45,45,,,,,,,,,,,,,,
145933,0,2.4322,,-0.21,0.03,0.15,0,-1,1,0.26,0.81,32,,,,,,,,,,,,,,,,,,,,,,,,,,40,40,40,37,34,32,28,30,32,32,38,40,40,42,42,44,28,28,27,26,26,26,26,28,40,42,42,44,44,44,45,45,,,,,,,,,,,,,,
