"Interval"|"ms"|0|0|1,"Utc"|"ms"|0|0|1,"ElapsedTime"|"Min"|0.0|0.0|10,"Battery"|"Volts"|0.0|20.0|1,"AccelX"|"G"|-3.0|3.0|25,"AccelY"|"G"|-3.0|3.0|25,"AccelZ"|"G"|-3.0|3.0|25,"Yaw"|"Deg/Sec"|-120|120|25,"Pitch"|"Deg/Sec"|-120|120|25,"Roll"|"Deg/Sec"|-120|120|25,"Gsum"|"G"|0.0|3.0|25,"GsumMax"|"G"|0.0|3.0|25,"GsumPct"|"%"|0|100|25,"StAngle"|"Deg"|-100|100|10,"SuspPosFL"|"mm"|0.0|150.0|10,"SuspPosFR"|"mm"|0.0|150.0|10,"SuspPosRL"|"mm"|0.0|150.0|10,"SuspPosRR"|"mm"|0.0|150.0|10,"ADL_BAT"|"V"|0.0|20.0|10,"RPM"|""|0|20000|10,"TPS"|"%"|0|100|10,"IAT"|"F"|0|300|10,"MAP"|"KPa"|0.0|255.0|10,"LambdaAim"|""|0.0|1.75|10,"Lambda"|""|0.0|1.75|10,"ECU_BAT"|"V"|0.0|20.0|10,"FuelCut"|""|0.0|100.0|10,"InjDuty"|"%"|0.0|100.0|10,"BrakePres-F"|"psi"|0|1200|10,"BrakePres-R"|"psi"|0|1200|10,"AuxUpDuty"|"%"|0|100|10,"AuxDownDuty"|"%"|0|100|10,"EngineTemp"|"F"|0|300|10,"WheelSpdRL"|""|0|100|10,"WheelSpdRR"|""|0|100|10,"WheelSpdFL"|""|0|100|10,"WheelSpdFR"|""|0|100|10,"Gear"|""|0|10|10,"TireTmpLF1"|"C"|-40|200|50,"TireTmpLF2"|"C"|-40|200|50,"TireTmpLF3"|"C"|-40|200|50,"TireTmpLF4"|"C"|-40|200|50,"TireTmpLF5"|"C"|-40|200|50,"TireTmpLF6"|"C"|-40|200|50,"TireTmpLF7"|"C"|-40|200|50,"TireTmpLF8"|"C"|-40|200|50,"TireTmpRF1"|"C"|-40|200|50,"TireTmpRF2"|"C"|-40|200|50,"TireTmpRF3"|"C"|-40|200|50,"TireTmpRF4"|"C"|-40|200|50,"TireTmpRF5"|"C"|-40|200|50,"TireTmpRF6"|"C"|-40|200|50,"TireTmpRF7"|"C"|-40|200|50,"TireTmpRF8"|"C"|-40|200|50,"TireTmpLR1"|"C"|-40|200|50,"TireTmpLR2"|"C"|-40|200|50,"TireTmpLR3"|"C"|-40|200|50,"TireTmpLR4"|"C"|-40|200|50,"TireTmpLR5"|"C"|-40|200|50,"TireTmpLR6"|"C"|-40|200|50,"TireTmpLR7"|"C"|-40|200|50,"TireTmpLR8"|"C"|-40|200|50,"TireTmpRR1"|"C"|-40|200|50,"TireTmpRR2"|"C"|-40|200|50,"TireTmpRR3"|"C"|-40|200|50,"TireTmpRR4"|"C"|-40|200|50,"TireTmpRR5"|"C"|-40|200|50,"TireTmpRR6"|"C"|-40|200|50,"TireTmpRR7"|"C"|-40|200|50,"TireTmpRR8"|"C"|-40|200|50,"Latitude"|"Degrees"|-180.0|180.0|10,"Longitude"|"Degrees"|-180.0|180.0|10,"Speed"|"kph"|0.0|150.0|10,"Altitude"|"m"|0.0|4000.0|10,"GPSSats"|""|0|20|10,"GPSQual"|""|0|5|10,"GPSDOP"|""|0.0|20.0|10,"LapCount"|""|0|0|10,"LapTime"|"Min"|0.0|0.0|10,"Sector"|""|0|0|10,"SectorTime"|"Min"|0.0|0.0|10,"CurrentLap"|""|0|0|10,"Distance"|"mi"|0.0|0.0|10,"SessionTime"|"Min"|0.0|0.0|10
271260,0,4.521,,-0.06,-0.03,-0.12,-0,-1,1,0.14,1.02,13,,,,,,,,,,,,,,,,,,,,,,,,,,29,30,31,32,32,32,32,31,32,36,38,38,38,38,38,38,26,26,26,26,26,25,24,22,26,29,32,32,32,32,34,34,,,,,,,,,,,,,,
271280,0,4.5213,,,,,,,,,,,,,,,,,,,,,,,,,,,,,,,,,,,,29,30,31,32,32,32,32,31,32,36,38,38,38,38,38,38,26,26,26,26,26,25,24,22,25,29,32,32,32,32,34,34,,,,,,,,,,,,,,
271300,0,4.5217,,0.11,0.02,-0.03,0,-0,1,0.11,1.02,11,,,,,,,,,,,,,,,,,,,,,,,,,,29,30,31,32,32,32,32,31,32,36,38,38,38,38,38,39,26,26,26,26,26,25,24,22,25,29,32,32,32,32,34,34,,,,,,,,,,,,,,
271320,0,4.522,,,,,,,,,,,,,,,,,,,,,,,,,,,,,,,,,,,,28,30,31,32,32,32,32,31,32,36,38,38,38,38,38,39,26,26,26,26,26,25,24,22,25,29,32,32,32,32,34,34,,,,,,,,,,,,,,
271340,0,4.5223,13.16,-0.09,-0.0,-0.2,0,-0,1,0.22,1.02,21,-1,109.56,27.33,67.35,111.42,12.94,3516,1,18,100.0,0.96,0.85,12.7,0.0,120.0,63,63,0,0,80,0,0,0,0,0,28,30,31,32,32,32,32,31,32,36,38,38,38,38,38,39,26,26,26,26,26,25,24,22,25,29,32,32,32,32,34,34,0.0,0.0,0.0,0.0,0,0,0.0,0,0.0,-1,0.0,0,0.0,4.5223
271360,0,4.5227,,,,,,,,,,,,,,,,,,,,,,,,,,,,,,,,,,,,28,30,31,32,32,32,32,31,32,36,38,38,38,38,38,39,26,26,26,26,26,25,24,22,25,29,32,32,32,32,34,34,,,,,,,,,,,,,,
271380,0,4.523,,0.09,-0.02,-0.23,0,-1,0,0.25,1.02,24,,,,,,,,,,,,,,,,,,,,,,,,,,28,30,31,32,32,32,32,31,32,36,37,38,38,38,38,38,26,26,26,26,26,25,24,22,25,29,32,32,32,32,34,34,,,,,,,,,,,,,,
271400,0,4.5233,,,,,,,,,,,,,,,,,,,,,,,,,,,,,,,,,,,,28,30,31,32,32,32,32,31,32,36,37,38,38,38,38,38,26,26,26,26,26,25,24,22,25,29,32,32,32,32,34,34,,,,,,,,,,,,,,
271420,0,4.5237,,-0.01,0.01,-0.13,0,-1,0,0.13,1.02,13,,,,,,,,,,,,,,,,,,,,,,,,,,28,30,31,32,32,32,32,31,32,36,37,38,38,38,38,38,26,26,26,26,26,25,24,22,25,29,32,32,32,32,34,34,,,,,,,,,,,,,,
271440,0,4.524,,,,,,,,,,,-1,109.68,27.45,67.26,110.1,13.01,3446,1,18,100.0,0.96,0.83,12.71,0.0,122.0,63,63,0,0,80,0,0,0,0,0,28,30,31,32,32,32,31,31,32,36,37,38,38,38,38,38,26,26,26,26,26,25,24,22,25,29,32,32,32,32,34,34,0.0,0.0,0.0,0.0,0,0,0.0,0,0.0,-1,0.0,0,0.0,4.524
271460,0,4.5243,,-0.09,-0.01,-0.32,0,-1,-0,0.34,1.02,33,,,,,,,,,,,,,,,,,,,,,,,,,,28,30,31,32,32,32,31,31,32,36,37,38,38,38,38,38,26,26,26,26,26,25,24,22,25,29,32,32,32,32,34,34,,,,,,,,,,,,,,
271480,0,4.5247,,,,,,,,,,,,,,,,,,,,,,,,,,,,,,,,,,,,28,30,31,32,32,32,31,31,32,36,37,38,38,38,38,38,26,26,26,26,26,25,24,22,26,29,32,32,32,32,34,34,,,,,,,,,,,,,,
271500,0,4.525,,0.13,0.01,-0.47,0,-2,-1,0.49,1.02,48,,,,,,,,,,,,,,,,,,,,,,,,,,29,30,31,32,32,32,32,31,32,36,38,38,38,38,38,38,26,26,26,26,26,25,24,22,26,29,32,32,32,32,34,34,,,,,,,,,,,,,,
271520,0,4.5253,,,,,,,,,,,,,,,,,,,,,,,,,,,,,,,,,,,,29,30,31,32,32,32,32,31,32,36,38,38,38,38,38,38,26,26,26,26,26,25,24,22,26,29,32,32,32,32,34,34,,,,,,,,,,,,,,
271540,0,4.5257,,-0.02,0.01,-0.51,0,-1,-1,0.51,1.02,50,-1,109.56,27.33,67.35,111.84,12.96,3422,1,18,100.0,0.96,0.86,12.73,0.0,119.0,64,64,0,0,81,0,0,0,0,0,29,30,31,32,32,32,32,31,32,36,38,38,38,38,38,38,26,26,26,26,26,25,24,22,26,29,32,32,32,32,34,34,0.0,0.0,0.0,0.0,0,0,0.0,0,0.0,-1,0.0,0,0.0,4.5257
271560,0,4.526,,,,,,,,,,,,,,,,,,,,,,,,,,,,,,,,,,,,29,30,31,32,32,32,32,31,32,36,37,38,38,38,38,38,26,26,26,26,26,25,24,22,26,29,32,32,32,32,34,34,,,,,,,,,,,,,,
271580,0,4.5263,,0.06,-0.03,-0.37,0,-1,-0,0.38,1.02,37,,,,,,,,,,,,,,,,,,,,,,,,,,29,30,31,32,32,32,32,31,32,36,37,38,38,38,38,38,26,26,26,26,26,25,24,22,26,29,32,32,32,32,34,34,,,,,,,,,,,,,,
271600,0,4.5267,,,,,,,,,,,,,,,,,,,,,,,,,,,,,,,,,,,,29,30,31,32,32,32,32,31,32,36,37,38,38,38,38,38,26,26,26,26,26,25,24,22,25,29,32,32,32,32,34,34,,,,,,,,,,,,,,
271620,0,4.527,,0.12,0.07,-0.3,0,-1,-1,0.34,1.02,33,,,,,,,,,,,,,,,,,,,,,,,,,,29,30,31,32,32,32,32,31,32,36,37,38,38,38,38,38,26,26,26,26,26,25,24,22,25,29,32,32,32,32,34,34,,,,,,,,,,,,,,
271640,0,4.5273,,,,,,,,,,,-1,109.47,27.21,67.47,111.75,13.04,3344,1,18,100.0,0.96,0.89,12.74,0.0,122.0,64,64,0,0,81,0,0,0,0,0,29,30,31,32,32,32,31,31,32,36,37,38,38,38,38,38,26,26,26,26,26,25,24,22,25,29,32,32,32,32,34,34,0.0,0.0,0.0,0.0,0,0,0.0,0,0.0,-1,0.0,0,0.0,4.5273
271660,0,4.5277,,-0.06,0.04,-0.38,0,-2,-1,0.39,1.02,38,,,,,,,,,,,,,,,,,,,,,,,,,,29,30,31,32,32,32,31,31,32,36,37,38,38,38,38,38,26,26,26,26,26,25,24,22,25,29,31,32,32,32,34,34,,,,,,,,,,,,,,
271680,0,4.528,,,,,,,,,,,,,,,,,,,,,,,,,,,,,,,,,,,,29,30,31,32,32,32,31,31,32,36,37,38,38,38,38,38,26,26,26,26,26,25,24,22,25,29,31,32,32,32,34,34,,,,,,,,,,,,,,
271700,0,4.5283,,0.05,0.02,-0.18,0,-1,-0,0.18,1.02,18,,,,,,,,,,,,,,,,,,,,,,,,,,29,30,31,32,32,32,32,31,32,36,37,38,38,38,38,38,26,26,26,26,26,25,24,22,25,29,31,32,32,32,34,34,,,,,,,,,,,,,,
271720,0,4.5287,,,,,,,,,,,,,,,,,,,,,,,,,,,,,,,,,,,,29,30,31,32,32,32,32,31,32,36,37,38,38,38,38,38,26,26,26,26,26,25,24,22,25,29,31,32,32,32,34,34,,,,,,,,,,,,,,
271740,0,4.529,,0.04,0.03,-0.22,0,-1,-1,0.22,1.02,22,-1,109.47,27.21,67.47,112.95,13.04,3429,1,18,100.0,0.96,0.89,12.76,0.0,121.0,64,64,0,0,81,0,0,0,0,0,29,30,31,32,32,32,32,31,32,36,37,38,38,38,38,38,26,26,26,26,26,25,24,22,25,29,32,32,32,32,34,34,0.0,0.0,0.0,0.0,0,0,0.0,0,0.0,-1,0.0,0,0.0,4.529
271760,0,4.5293,,,,,,,,,,,,,,,,,,,,,,,,,,,,,,,,,,,,28,30,31,32,32,32,31,31,32,36,38,38,38,38,38,38,26,26,26,26,26,25,24,22,25,29,32,32,32,32,34,34,,,,,,,,,,,,,,
271780,0,4.5297,,-0.11,0.02,-0.26,-0,-0,-0,0.29,1.02,28,,,,,,,,,,,,,,,,,,,,,,,,,,28,30,31,32,32,32,31,31,32,36,38,38,38,38,38,38,25,26,26,26,26,24,24,22,25,29,32,32,32,32,34,34,,,,,,,,,,,,,,
271800,0,4.53,,,,,,,,,,,,,,,,,,,,,,,,,,,,,,,,,,,,28,30,31,32,32,32,31,31,32,36,38,38,38,38,38,38,25,26,26,26,26,24,24,22,25,29,32,32,32,32,34,34,,,,,,,,,,,,,,
271820,0,4.5303,,0.11,0.03,-0.17,-0,-0,0,0.21,1.02,20,,,,,,,,,,,,,,,,,,,,,,,,,,28,30,31,32,32,32,31,31,32,36,38,38,38,38,38,38,25,26,26,26,26,24,24,22,25,29,32,32,32,32,34,34,,,,,,,,,,,,,,
271840,0,4.5307,,,,,,,,,,,-1,109.56,27.21,67.35,116.46,12.99,3404,1,18,100.0,0.96,0.86,12.77,0.0,119.0,64,64,0,0,81,0,0,0,0,0,28,30,31,32,32,32,31,31,32,36,38,38,38,38,38,38,25,26,26,26,26,24,24,22,25,29,32,32,32,32,34,34,0.0,0.0,0.0,0.0,0,0,0.0,0,0.0,-1,0.0,0,0.0,4.5307
271860,0,4.531,,-0.04,0.01,-0.13,-0,0,1,0.14,1.02,14,,,,,,,,,,,,,,,,,,,,,,,,,,28,30,31,32,32,32,31,31,32,36,38,38,38,38,38,38,26,26,26,26,26,25,24,22,25,29,32,32,32,32,34,34,,,,,,,,,,,,,,
271880,0,4.5313,,,,,,,,,,,,,,,,,,,,,,,,,,,,,,,,,,,,29,30,31,32,32,32,32,31,32,36,37,38,38,38,38,38,26,26,26,26,26,25,24,22,25,29,32,32,32,32,34,34,,,,,,,,,,,,,,
271900,0,4.5317,,-0.08,0.0,-0.31,-0,-0,-0,0.32,1.02,31,,,,,,,,,,,,,,,,,,,,,,,,,,29,30,31,32,32,32,32,31,32,36,37,38,38,38,38,38,26,26,26,26,26,25,24,22,25,29,32,32,32,32,34,34,,,,,,,,,,,,,,
271920,0,4.532,,,,,,,,,,,,,,,,,,,,,,,,,,,,,,,,,,,,29,30,31,32,32,32,32,31,32,36,37,38,38,38,38,38,26,26,26,26,26,25,24,22,25,29,32,32,32,32,34,34,,,,,,,,,,,,,,
271940,0,4.5323,,0.05,0.02,-0.22,0,0,0,0.22,1.02,22,-1,109.68,27.21,67.35,116.79,12.96,3584,1,18,100.0,0.96,0.9,12.77,0.0,124.0,65,64,0,0,81,0,0,0,0,0,29,30,31,32,32,32,32,31,32,36,38,38,38,38,38,38,26,26,26,26,26,25,24,22,25,29,32,32,32,32,34,34,0.0,0.0,0.0,0.0,0,0,0.0,0,0.0,-1,0.0,0,0.0,4.5323
271960,0,4.5327,,,,,,,,,,,,,,,,,,,,,,,,,,,,,,,,,,,,28,30,31,32,32,32,32,31,32,36,38,38,38,38,38,38,26,26,26,26,26,25,24,22,25,29,32,32,32,32,34,34,,,,,,,,,,,,,,
271980,0,4.533,,-0.11,0.02,-0.31,-0,2,1,0.33,1.02,32,,,,,,,,,,,,,,,,,,,,,,,,,,28,30,31,32,32,32,32,31,32,36,38,38,38,38,38,38,26,26,26,26,25,24,24,22,25,29,32,32,32,33,34,34,,,,,,,,,,,,,,
272000,0,4.5333,,,,,,,,,,,,,,,,,,,,,,,,,,,,,,,,,,,,28,30,31,32,32,32,32,31,32,36,38,38,38,38,38,38,26,26,26,26,25,24,24,22,25,29,32,32,32,33,34,34,,,,,,,,,,,,,,
272020,0,4.5337,,0.06,-0.01,-0.25,0,2,1,0.26,1.02,25,,,,,,,,,,,,,,,,,,,,,,,,,,29,30,31,32,32,32,32,31,32,36,38,38,38,38,38,38,26,26,26,26,25,24,24,22,25,29,32,32,32,33,34,34,,,,,,,,,,,,,,
272040,0,4.534,,,,,,,,,,,-1,109.47,27.21,67.26,114.15,13.03,3484,1,18,100.0,0.96,0.82,12.78,0.0,127.0,64,64,0,0,81,0,0,0,0,0,29,30,31,32,32,32,32,31,32,36,38,38,38,38,38,38,26,26,26,26,26,25,24,22,25,29,32,32,32,32,34,34,0.0,0.0,0.0,0.0,0,0,0.0,0,0.0,-1,0.0,0,0.0,4.534
272060,0,4.5343,,-0.09,-0.02,-0.05,-0,3,2,0.11,1.02,10,,,,,,,,,,,,,,,,,,,,,,,,,,29,30,31,32,32,32,32,31,32,36,37,38,38,38,38,38,26,26,26,26,26,25,24,22,25,29,32,32,32,32,34,34,,,,,,,,,,,,,,
272080,0,4.5347,,,,,,,,,,,,,,,,,,,,,,,,,,,,,,,,,,,,28,30,31,32,32,32,31,31,32,36,37,38,38,38,38,38,26,26,26,26,26,25,24,22,25,29,32,32,32,32,34,34,,,,,,,,,,,,,,
272100,0,4.535,,0.09,-0.02,-0.01,-0,2,2,0.09,1.02,9,,,,,,,,,,,,,,,,,,,,,,,,,,28,30,31,32,32,32,31,31,32,36,37,38,38,38,38,38,26,26,26,26,26,25,24,22,25,29,32,32,32,32,34,34,,,,,,,,,,,,,,
272120,0,4.5353,,,,,,,,,,,,,,,,,,,,,,,,,,,,,,,,,,,,28,30,31,32,32,32,31,31,32,36,37,38,38,38,38,38,26,26,26,26,26,25,24,22,26,30,32,32,32,32,34,34,,,,,,,,,,,,,,
272140,0,4.5357,,-0.06,0.01,-0.21,0,1,1,0.22,1.02,22,-1,109.35,27.21,67.14,115.26,12.98,3382,1,18,100.0,0.96,0.83,12.78,0.0,124.0,64,64,0,0,81,0,0,0,0,0,28,30,31,32,32,32,31,30,32,36,38,38,38,38,38,38,26,26,26,26,26,25,24,22,26,30,32,32,32,32,34,34,0.0,0.0,0.0,0.0,0,0,0.0,0,0.0,-1,0.0,0,0.0,4.5357
272160,0,4.536,,,,,,,,,,,,,,,,,,,,,,,,,,,,,,,,,,,,28,30,31,32,32,32,31,30,32,36,38,38,38,38,38,38,26,26,26,26,26,25,24,22,26,30,32,32,32,32,34,34,,,,,,,,,,,,,,
272180,0,4.5363,,0.05,-0.04,-0.0,-0,2,2,0.06,1.02,6,,,,,,,,,,,,,,,,,,,,,,,,,,28,30,31,32,32,32,31,30,32,36,38,38,38,38,38,38,26,26,26,26,26,25,24,22,25,29,32,32,32,32,34,34,,,,,,,,,,,,,,
272200,0,4.5367,,,,,,,,,,,,,,,,,,,,,,,,,,,,,,,,,,,,29,30,31,32,32,32,32,31,32,36,38,38,38,38,38,38,26,26,26,26,26,25,24,22,25,29,32,32,32,32,34,34,,,,,,,,,,,,,,
272220,0,4.537,,0.11,0.03,-0.01,-0,1,1,0.11,1.02,11,,,,,,,,,,,,,,,,,,,,,,,,,,29,30,31,32,32,32,32,31,32,36,38,38,38,38,38,38,26,26,26,26,26,25,24,22,25,29,32,32,32,32,34,34,,,,,,,,,,,,,,
272240,0,4.5373,,,,,,,,,,,-1,109.47,27.21,67.26,112.41,12.99,3408,1,18,100.0,0.96,0.81,12.79,0.0,122.0,63,63,0,0,81,0,0,0,0,0,29,30,31,32,32,32,32,31,32,36,38,38,38,38,38,38,26,26,26,26,26,25,24,22,25,29,32,32,32,32,34,34,0.0,0.0,0.0,0.0,0,0,0.0,0,0.0,-1,0.0,0,0.0,4.5373
272260,0,4.5377,,-0.07,-0.02,-0.2,0,-1,1,0.21,1.02,21,,,,,,,,,,,,,,,,,,,,,,,,,,29,30,31,32,32,32,32,31,32,36,38,38,38,38,38,38,26,26,26,26,26,25,24,22,25,29,32,32,32,32,34,34,,,,,,,,,,,,,,
272280,0,4.538,,,,,,,,,,,,,,,,,,,,,,,,,,,,,,,,,,,,29,30,31,32,32,32,32,31,32,36,38,38,38,38,38,38,26,26,26,26,26,25,24,22,25,29,32,32,32,32,34,34,,,,,,,,,,,,,,
272300,0,4.5383,,0.06,-0.04,-0.16,-0,0,1,0.18,1.02,17,,,,,,,,,,,,,,,,,,,,,,,,,,29,30,31,32,32,32,32,31,32,36,38,38,38,38,38,38,26,26,26,26,26,24,24,22,25,29,32,32,32,32,34,34,,,,,,,,,,,,,,
272320,0,4.5387,,,,,,,,,,,,,,,,,,,,,,,,,,,,,,,,,,,,28,30,31,32,32,32,32,31,32,36,37,38,38,38,38,38,26,26,26,26,26,24,24,22,25,29,32,32,32,32,34,34,,,,,,,,,,,,,,
272340,0,4.539,13.27,0.01,-0.05,-0.02,-0,0,1,0.06,1.02,5,-1,109.35,27.33,67.47,113.07,12.96,3450,1,18,100.0,0.96,0.84,12.79,0.0,120.0,64,64,0,0,81,0,0,0,0,0,28,30,31,32,32,32,32,31,32,36,37,38,38,38,38,38,26,26,26,26,26,24,24,22,25,29,32,32,32,32,34,34,0.0,0.0,0.0,0.0,0,0,0.0,0,0.0,-1,0.0,0,0.0,4.539
272360,0,4.5393,,,,,,,,,,,,,,,,,,,,,,,,,,,,,,,,,,,,28,30,31,32,32,32,32,31,32,36,37,38,38,38,38,38,26,26,26,26,26,24,24,22,25,29,31,32,32,32,34,34,,,,,,,,,,,,,,
272380,0,4.5397,,-0.1,-0.06,-0.09,-0,0,1,0.15,1.02,15,,,,,,,,,,,,,,,,,,,,,,,,,,28,30,31,32,32,32,32,31,32,36,38,38,38,38,38,38,26,26,26,26,26,24,24,22,25,29,31,32,32,32,34,34,,,,,,,,,,,,,,
272400,0,4.54,,,,,,,,,,,,,,,,,,,,,,,,,,,,,,,,,,,,29,30,31,32,32,32,32,31,32,36,38,38,38,38,38,38,26,26,26,26,26,24,24,22,25,29,31,32,32,32,34,34,,,,,,,,,,,,,,
272420,0,4.5403,,0.07,-0.05,-0.0,-0,-1,0,0.09,1.02,9,,,,,,,,,,,,,,,,,,,,,,,,,,29,30,31,32,32,32,32,31,32,36,38,38,38,38,38,38,26,26,26,26,26,25,24,22,25,29,31,31,32,32,34,34,,,,,,,,,,,,,,
272440,0,4.5407,,,,,,,,,,,-1,109.35,27.21,67.47,110.19,13.02,3464,1,18,100.0,0.96,0.86,12.79,0.0,122.0,64,64,0,0,81,0,0,0,0,0,29,30,31,32,32,32,32,31,32,36,38,38,38,38,38,38,26,26,26,26,26,25,24,22,25,29,31,31,32,32,34,34,0.0,0.0,0.0,0.0,0,0,0.0,0,0.0,-1,0.0,0,0.0,4.5407
272460,0,4.541,,-0.07,-0.06,-0.23,-0,-0,0,0.25,1.02,25,,,,,,,,,,,,,,,,,,,,,,,,,,28,30,31,32,32,32,32,31,32,36,38,38,38,38,38,38,26,26,26,26,26,25,24,22,25,29,31,31,32,32,34,34,,,,,,,,,,,,,,
272480,0,4.5413,,,,,,,,,,,,,,,,,,,,,,,,,,,,,,,,,,,,28,30,31,32,32,32,32,31,32,36,38,38,38,38,38,38,26,26,26,26,26,25,24,22,25,29,31,31,32,32,34,34,,,,,,,,,,,,,,
272500,0,4.5417,,0.04,-0.08,-0.03,-0,-0,1,0.09,1.02,9,,,,,,,,,,,,,,,,,,,,,,,,,,28,30,31,32,32,32,32,31,32,36,38,38,38,38,38,38,26,26,26,26,26,25,24,22,25,29,31,32,32,32,34,34,,,,,,,,,,,,,,
272520,0,4.542,,,,,,,,,,,,,,,,,,,,,,,,,,,,,,,,,,,,28,30,31,32,32,32,32,31,32,36,37,38,38,38,38,38,26,26,26,26,26,25,24,22,25,29,31,32,32,32,34,34,,,,,,,,,,,,,,
272540,0,4.5423,,0.03,-0.04,0.04,-0,-1,0,0.07,1.02,6,-1,109.35,27.21,67.47,114.39,12.98,3493,1,18,100.0,0.96,0.86,12.79,0.0,122.0,64,64,0,0,81,0,0,0,0,0,28,30,31,32,32,32,32,31,32,36,37,38,38,38,38,38,26,26,26,26,26,24,24,22,25,29,31,32,32,32,34,34,0.0,0.0,0.0,0.0,0,0,0.0,0,0.0,-1,0.0,0,0.0,4.5423
272560,0,4.5427,,,,,,,,,,,,,,,,,,,,,,,,,,,,,,,,,,,,28,30,31,32,32,32,32,31,32,36,37,38,38,38,38,38,26,26,26,26,26,24,24,22,25,29,32,32,32,32,34,34,,,,,,,,,,,,,,
272580,0,4.543,,-0.09,-0.05,-0.2,-0,-1,-0,0.23,1.02,22,,,,,,,,,,,,,,,,,,,,,,,,,,29,30,31,32,32,32,32,31,32,36,38,38,38,38,38,38,26,26,26,26,26,24,24,22,25,29,32,32,32,32,34,34,,,,,,,,,,,,,,
272600,0,4.5433,,,,,,,,,,,,,,,,,,,,,,,,,,,,,,,,,,,,29,30,31,32,32,32,32,31,32,36,38,38,38,38,38,38,26,26,26,26,26,24,24,22,25,29,32,32,32,32,34,34,,,,,,,,,,,,,,
272620,0,4.5437,,0.09,-0.03,-0.02,-0,-1,-0,0.1,1.02,9,,,,,,,,,,,,,,,,,,,,,,,,,,29,30,31,32,32,32,32,31,32,36,38,38,38,38,38,38,26,26,26,26,26,25,24,22,26,29,32,32,32,32,34,34,,,,,,,,,,,,,,
272640,0,4.544,,,,,,,,,,,-1,109.56,27.21,67.47,113.28,13.04,3501,1,18,100.0,0.96,0.89,12.8,0.0,123.0,64,64,0,0,81,0,0,0,0,0,29,30,31,32,32,32,32,31,32,36,37,38,38,38,38,38,26,26,26,26,26,25,24,22,26,29,32,32,32,32,34,34,0.0,0.0,0.0,0.0,0,0,0.0,0,0.0,-1,0.0,0,0.0,4.544
272660,0,4.5443,,-0.05,-0.03,-0.26,-0,-1,-0,0.27,1.02,26,,,,,,,,,,,,,,,,,,,,,,,,,,29,30,31,32,32,32,32,31,32,36,37,38,38,38,38,38,26,26,26,26,26,25,24,22,26,29,32,32,32,32,34,34,,,,,,,,,,,,,,
272680,0,4.5447,,,,,,,,,,,,,,,,,,,,,,,,,,,,,,,,,,,,29,30,31,32,32,32,32,31,32,36,37,38,38,38,38,38,26,26,26,26,26,25,24,22,25,29,31,32,32,32,34,34,,,,,,,,,,,,,,
272700,0,4.545,,0.05,-0.03,-0.06,-0,-0,0,0.08,1.02,8,,,,,,,,,,,,,,,,,,,,,,,,,,28,30,30,32,32,32,32,31,32,36,38,38,38,38,38,38,26,26,26,26,26,25,24,22,25,29,31,32,32,32,34,34,,,,,,,,,,,,,,
272720,0,4.5453,,,,,,,,,,,,,,,,,,,,,,,,,,,,,,,,,,,,28,30,30,32,32,32,32,31,32,36,38,38,38,38,38,38,26,26,26,26,26,25,24,22,25,29,31,32,32,32,34,34,,,,,,,,,,,,,,
272740,0,4.5457,,0.08,0.02,0.06,-0,-1,0,0.1,1.02,10,-1,109.8,27.33,67.35,113.16,13.02,3366,1,18,100.0,0.96,0.87,12.8,0.0,115.0,64,64,0,0,81,0,0,0,0,0,28,30,30,32,32,32,32,31,32,36,38,38,38,38,38,38,26,26,26,26,26,25,24,22,25,29,32,32,32,32,34,34,0.0,0.0,0.0,0.0,0,0,0.0,0,0.0,-1,0.0,0,0.0,4.5457
272760,0,4.546,,,,,,,,,,,,,,,,,,,,,,,,,,,,,,,,,,,,28,30,30,32,32,32,32,31,32,36,37,38,38,38,38,38,26,26,26,26,26,25,24,22,25,29,32,32,32,32,34,34,,,,,,,,,,,,,,
272780,0,4.5463,,-0.1,-0.01,-0.18,-0,-1,0,0.21,1.02,20,,,,,,,,,,,,,,,,,,,,,,,,,,28,30,30,32,32,32,32,31,32,36,37,38,38,38,38,38,26,26,26,26,26,25,24,22,25,29,32,32,32,32,34,34,,,,,,,,,,,,,,
272800,0,4.5467,,,,,,,,,,,,,,,,,,,,,,,,,,,,,,,,,,,,28,30,30,32,32,32,32,31,32,36,37,38,38,38,38,38,26,26,26,26,26,25,24,22,25,29,32,32,32,32,34,34,,,,,,,,,,,,,,
272820,0,4.547,,0.06,-0.01,-0.12,-0,-0,1,0.14,1.02,13,,,,,,,,,,,,,,,,,,,,,,,,,,28,30,30,32,32,32,32,31,32,36,37,38,38,38,38,38,26,26,26,26,26,25,24,22,25,29,32,32,32,32,34,34,,,,,,,,,,,,,,
272840,0,4.5473,,,,,,,,,,,-1,109.68,27.45,67.35,116.58,12.99,3493,1,18,100.0,0.96,0.88,12.8,0.0,114.0,64,64,0,0,81,0,0,0,0,0,28,30,31,32,32,32,32,32,32,36,37,38,38,38,38,38,26,26,26,26,26,25,24,22,25,29,32,32,32,32,34,34,0.0,0.0,0.0,0.0,0,0,0.0,0,0.0,-1,0.0,0,0.0,4.5473
272860,0,4.5477,,0.17,-0.01,-0.13,-0,-1,1,0.21,1.02,21,,,,,,,,,,,,,,,,,,,,,,,,,,28,30,31,32,32,32,32,32,32,36,37,38,38,38,38,38,26,26,26,26,26,25,24,22,25,29,32,32,32,32,34,34,,,,,,,,,,,,,,
272880,0,4.548,,,,,,,,,,,,,,,,,,,,,,,,,,,,,,,,,,,,28,30,31,32,32,32,32,32,32,36,37,38,38,38,38,38,26,26,26,26,26,25,24,22,25,29,32,32,32,32,34,34,,,,,,,,,,,,,,
272900,0,4.5483,,0.03,-0.03,-0.32,-0,-1,0,0.32,1.02,31,,,,,,,,,,,,,,,,,,,,,,,,,,28,30,31,32,32,32,32,31,32,36,37,38,38,38,38,38,26,26,26,26,26,25,24,22,25,29,32,32,32,32,34,34,,,,,,,,,,,,,,
272920,0,4.5487,,,,,,,,,,,,,,,,,,,,,,,,,,,,,,,,,,,,28,30,31,32,32,32,32,31,32,36,37,38,38,38,38,38,26,26,26,26,26,25,24,22,25,29,32,32,32,32,34,34,,,,,,,,,,,,,,
272940,0,4.549,,0.08,-0.03,-0.13,-0,-1,1,0.16,1.02,15,-1,109.68,27.45,67.59,115.14,13.05,3572,1,18,100.0,0.96,0.87,12.79,0.0,120.0,64,63,0,0,81,0,0,0,0,0,28,30,31,32,32,32,32,31,32,36,37,38,38,38,38,38,26,26,26,26,26,25,24,22,25,29,32,32,32,32,34,34,0.0,0.0,0.0,0.0,0,0,0.0,0,0.0,-1,0.0,0,0.0,4.549
272960,0,4.5493,,,,,,,,,,,,,,,,,,,,,,,,,,,,,,,,,,,,28,30,31,32,32,32,32,31,32,36,37,38,38,38,38,38,26,26,26,26,26,25,24,22,25,29,32,32,32,32,34,34,,,,,,,,,,,,,,
272980,0,4.5497,,0.1,0.02,0.05,-0,-1,0,0.11,1.02,11,,,,,,,,,,,,,,,,,,,,,,,,,,28,30,31,32,32,32,32,31,32,36,37,38,38,38,38,38,26,26,26,26,26,25,24,22,25,29,32,32,32,32,34,34,,,,,,,,,,,,,,
273000,0,4.55,,,,,,,,,,,,,,,,,,,,,,,,,,,,,,,,,,,,28,30,31,32,32,32,32,31,32,36,37,38,38,38,38,38,26,26,26,26,26,25,24,22,25,29,32,32,32,32,34,34,,,,,,,,,,,,,,
273020,0,4.5503,,-0.08,0.02,-0.08,-0,0,0,0.12,1.02,11,,,,,,,,,,,,,,,,,,,,,,,,,,28,30,30,32,32,32,32,31,32,36,37,38,38,38,38,38,26,26,26,26,26,25,24,22,25,29,32,32,32,32,34,34,,,,,,,,,,,,,,
273040,0,4.5507,,,,,,,,,,,-1,109.56,27.21,67.47,120.3,13.01,3568,1,18,100.0,0.96,0.89,12.8,0.0,117.0,63,63,0,0,81,0,0,0,0,0,28,30,30,32,32,32,32,31,32,36,37,38,38,38,38,38,26,26,26,26,26,25,24,22,25,29,32,32,32,32,34,34,0.0,0.0,0.0,0.0,0,0,0.0,0,0.0,-1,0.0,0,0.0,4.5507
273060,0,4.551,,0.14,0.02,-0.11,-0,-0,1,0.18,1.02,17,,,,,,,,,,,,,,,,,,,,,,,,,,28,30,30,32,32,32,32,31,32,36,37,38,38,38,38,38,26,26,26,26,26,25,24,22,26,29,32,32,32,32,34,34,,,,,,,,,,,,,,
273080,0,4.5513,,,,,,,,,,,,,,,,,,,,,,,,,,,,,,,,,,,,28,30,30,32,32,32,31,31,32,36,37,38,38,38,38,38,26,26,26,26,26,25,24,22,26,29,32,32,32,32,34,34,,,,,,,,,,,,,,
273100,0,4.5517,,0.01,0.0,-0.0,-0,0,1,0.01,1.02,1,,,,,,,,,,,,,,,,,,,,,,,,,,28,30,30,32,32,32,31,31,32,36,37,38,38,38,38,38,26,26,26,26,26,25,24,22,26,29,32,32,32,32,34,34,,,,,,,,,,,,,,
273120,0,4.552,,,,,,,,,,,,,,,,,,,,,,,,,,,,,,,,,,,,28,30,30,32,32,32,31,31,32,36,37,38,38,38,38,38,26,26,26,26,26,25,24,22,26,30,32,32,32,32,34,34,,,,,,,,,,,,,,
273140,0,4.5523,,-0.08,-0.01,-0.1,-0,1,1,0.12,1.02,12,-1,109.8,27.33,67.35,113.82,12.97,3464,1,18,100.0,0.96,0.9,12.79,0.0,119.0,62,62,0,0,81,0,0,0,0,0,28,30,30,32,32,32,31,31,32,36,37,38,38,38,38,38,26,26,26,26,26,25,24,22,26,30,32,32,32,32,34,34,0.0,0.0,0.0,0.0,0,0,0.0,0,0.0,-1,0.0,0,0.0,4.5523
273160,0,4.5527,,,,,,,,,,,,,,,,,,,,,,,,,,,,,,,,,,,,28,30,30,32,32,32,31,30,32,36,37,38,38,38,38,38,26,26,26,26,26,25,24,22,26,30,32,32,32,32,34,34,,,,,,,,,,,,,,
273180,0,4.553,,0.15,0.01,-0.16,-0,-0,1,0.22,1.02,21,,,,,,,,,,,,,,,,,,,,,,,,,,28,30,30,32,32,32,31,30,32,36,37,38,38,38,38,38,26,26,26,26,26,25,24,22,25,29,31,32,32,32,34,34,,,,,,,,,,,,,,
273200,0,4.5533,,,,,,,,,,,,,,,,,,,,,,,,,,,,,,,,,,,,28,30,30,32,32,32,31,30,32,36,37,38,38,38,38,38,26,26,26,26,26,25,24,22,25,29,31,32,32,32,34,34,,,,,,,,,,,,,,
273220,0,4.5537,,0.05,0.01,-0.04,-0,1,1,0.06,1.02,6,,,,,,,,,,,,,,,,,,,,,,,,,,28,30,30,32,32,32,31,31,32,36,37,38,38,38,38,38,26,26,26,26,26,25,24,22,25,29,31,32,32,32,34,34,,,,,,,,,,,,,,
273240,0,4.554,,,,,,,,,,,-1,109.8,27.45,67.47,116.7,12.98,3553,1,18,100.0,0.96,0.88,12.8,0.0,120.0,62,61,0,0,81,0,0,0,0,0,28,30,30,32,32,32,31,31,32,36,37,38,38,38,38,38,26,26,26,26,26,25,24,22,25,29,31,32,32,32,34,34,0.0,0.0,0.0,0.0,0,0,0.0,0,0.0,-1,0.0,0,0.0,4.554
273260,0,4.5543,,-0.03,-0.02,-0.12,-0,-1,1,0.13,1.02,12,,,,,,,,,,,,,,,,,,,,,,,,,,28,30,30,32,32,32,31,31,32,36,37,38,38,38,38,38,26,26,26,26,26,25,24,22,26,29,32,32,32,32,34,34,,,,,,,,,,,,,,
273280,0,4.5547,,,,,,,,,,,,,,,,,,,,,,,,,,,,,,,,,,,,28,30,30,32,32,32,31,31,32,36,37,38,38,38,38,38,26,26,26,26,26,25,24,22,26,29,32,32,32,32,34,34,,,,,,,,,,,,,,
273300,0,4.555,,0.11,-0.02,-0.09,0,-1,1,0.14,1.02,14,,,,,,,,,,,,,,,,,,,,,,,,,,28,30,30,32,32,32,31,31,32,36,37,38,38,38,38,38,26,26,26,26,26,25,24,22,26,29,32,32,32,32,34,34,,,,,,,,,,,,,,
273320,0,4.5553,,,,,,,,,,,,,,,,,,,,,,,,,,,,,,,,,,,,28,30,30,32,32,32,31,31,32,36,37,38,38,38,38,38,26,26,26,26,26,25,24,22,25,29,31,31,32,32,34,34,,,,,,,,,,,,,,
273340,0,4.5557,13.29,-0.02,-0.04,-0.27,-0,-0,1,0.27,1.02,26,-1,109.68,27.45,67.59,112.5,13.01,3561,1,18,100.0,0.96,0.86,12.79,0.0,121.0,61,61,0,0,81,0,0,0,0,0,28,30,30,32,32,32,31,31,32,36,37,38,38,38,38,38,26,26,26,26,26,25,24,22,25,29,31,31,32,32,34,34,0.0,0.0,0.0,0.0,0,0,0.0,0,0.0,-1,0.0,0,0.0,4.5557
273360,0,4.556,,,,,,,,,,,,,,,,,,,,,,,,,,,,,,,,,,,,28,30,30,32,32,32,31,31,32,36,37,38,38,38,38,38,26,26,26,26,26,25,24,22,25,29,31,31,32,32,34,34,,,,,,,,,,,,,,
273380,0,4.5563,,0.04,-0.03,-0.07,0,-0,1,0.09,1.02,9,,,,,,,,,,,,,,,,,,,,,,,,,,28,30,30,32,32,32,31,31,32,36,37,38,38,38,38,38,26,26,26,26,26,24,24,22,25,28,31,31,32,32,34,34,,,,,,,,,,,,,,
273400,0,4.5567,,,,,,,,,,,,,,,,,,,,,,,,,,,,,,,,,,,,28,30,30,32,32,32,31,31,32,36,37,38,38,38,38,38,26,26,26,26,26,24,24,22,25,28,31,31,32,32,34,34,,,,,,,,,,,,,,
273420,0,4.557,,0.06,0.01,-0.0,0,-0,0,0.06,1.02,6,,,,,,,,,,,,,,,,,,,,,,,,,,28,30,30,32,32,32,31,31,32,36,37,38,38,38,38,38,26,26,26,26,26,24,24,22,25,28,31,31,32,32,34,34,,,,,,,,,,,,,,
273440,0,4.5573,,,,,,,,,,,-1,109.68,27.45,67.68,115.92,12.99,3607,1,18,100.0,0.96,0.91,12.8,0.0,121.0,61,60,0,0,81,0,0,0,0,0,28,30,30,32,32,32,31,31,32,36,37,38,38,38,38,38,25,26,26,26,26,24,24,22,25,28,31,31,32,32,33,34,0.0,0.0,0.0,0.0,0,0,0.0,0,0.0,-1,0.0,0,0.0,4.5573
273460,0,4.5577,,-0.11,0.01,-0.18,0,-0,0,0.21,1.02,21,,,,,,,,,,,,,,,,,,,,,,,,,,28,30,30,32,32,32,32,31,32,36,37,38,38,38,38,38,25,26,26,26,26,24,24,22,25,28,31,31,32,32,33,34,,,,,,,,,,,,,,
273480,0,4.558,,,,,,,,,,,,,,,,,,,,,,,,,,,,,,,,,,,,28,30,30,32,32,32,32,31,32,36,37,38,38,38,38,38,25,26,26,26,26,24,24,22,25,28,31,31,32,32,33,34,,,,,,,,,,,,,,
273500,0,4.5583,,0.11,0.0,-0.29,0,-1,-0,0.31,1.02,30,,,,,,,,,,,,,,,,,,,,,,,,,,28,30,30,32,32,32,32,31,32,36,37,38,38,38,38,38,26,26,26,26,26,24,24,22,26,29,31,31,32,32,34,34,,,,,,,,,,,,,,
273520,0,4.5587,,,,,,,,,,,,,,,,,,,,,,,,,,,,,,,,,,,,28,30,30,32,32,32,31,31,31,36,37,38,38,38,38,38,26,26,26,26,26,24,24,22,26,29,31,31,32,32,34,34,,,,,,,,,,,,,,
273540,0,4.559,,0.03,0.01,-0.09,0,-0,0,0.09,1.02,9,-1,109.8,27.33,67.59,117.24,13.04,3576,1,18,100.0,0.96,0.89,12.8,0.0,121.0,61,61,0,0,81,0,0,0,0,0,28,30,30,32,32,32,31,31,31,36,37,38,38,38,38,38,26,26,26,26,26,24,24,22,26,29,31,31,32,32,34,34,0.0,0.0,0.0,0.0,0,0,0.0,0,0.0,-1,0.0,0,0.0,4.559
273560,0,4.5593,,,,,,,,,,,,,,,,,,,,,,,,,,,,,,,,,,,,28,30,30,32,32,32,31,31,31,36,37,38,38,38,38,38,25,26,26,26,26,24,24,22,25,29,31,31,32,32,34,34,,,,,,,,,,,,,,
273580,0,4.5597,,-0.04,-0.01,-0.15,-0,1,1,0.16,1.02,15,,,,,,,,,,,,,,,,,,,,,,,,,,28,30,30,32,32,32,31,31,31,36,37,38,38,38,38,38,25,26,26,26,26,24,24,22,25,29,31,31,32,32,34,34,,,,,,,,,,,,,,
273600,0,4.56,,,,,,,,,,,,,,,,,,,,,,,,,,,,,,,,,,,,28,30,30,32,32,32,31,30,32,36,37,38,38,38,38,38,25,26,26,26,26,24,24,22,25,29,31,31,32,32,34,34,,,,,,,,,,,,,,
273620,0,4.5603,,0.15,0.01,-0.13,0,-0,0,0.2,1.02,20,,,,,,,,,,,,,,,,,,,,,,,,,,28,30,30,32,32,32,31,30,32,36,37,38,38,38,38,38,26,26,26,26,26,25,24,22,25,29,31,31,32,32,34,34,,,,,,,,,,,,,,
273640,0,4.5607,,,,,,,,,,,-1,109.8,27.33,67.47,112.5,13.03,3715,1,18,100.0,0.96,0.9,12.8,0.0,122.0,60,60,0,0,81,0,0,0,0,0,28,30,30,32,32,32,31,30,32,36,37,38,38,38,38,38,26,26,26,26,26,25,24,22,25,28,31,31,32,32,34,34,0.0,0.0,0.0,0.0,0,0,0.0,0,0.0,-1,0.0,0,0.0,4.5607
273660,0,4.561,,-0.04,0.01,-0.28,-0,-0,0,0.28,1.02,28,,,,,,,,,,,,,,,,,,,,,,,,,,28,30,30,32,32,32,31,31,32,36,37,38,38,38,38,38,26,26,26,26,26,25,24,22,25,28,31,31,32,32,34,34,,,,,,,,,,,,,,
273680,0,4.5613,,,,,,,,,,,,,,,,,,,,,,,,,,,,,,,,,,,,28,30,30,32,32,32,31,31,32,36,37,38,38,38,38,38,26,26,26,26,26,25,24,22,25,28,31,31,32,32,34,34,,,,,,,,,,,,,,
273700,0,4.5617,,0.15,0.01,-0.42,0,-1,-0,0.44,1.02,43,,,,,,,,,,,,,,,,,,,,,,,,,,28,30,30,32,32,32,31,31,32,36,37,38,38,38,38,38,26,26,26,26,26,25,24,22,25,28,31,31,32,32,33,34,,,,,,,,,,,,,,
273720,0,4.562,,,,,,,,,,,,,,,,,,,,,,,,,,,,,,,,,,,,28,30,30,32,32,32,31,31,32,36,37,37,38,38,38,38,26,26,26,26,26,25,24,22,25,28,31,31,32,32,33,34,,,,,,,,,,,,,,
273740,0,4.5623,,0.04,-0.01,-0.23,0,1,1,0.23,1.02,23,-1,109.68,27.33,67.35,114.72,13.05,3642,1,18,100.0,0.96,0.87,12.79,0.0,124.0,60,59,0,0,81,0,0,0,0,0,28,30,30,32,32,32,31,31,32,36,37,37,38,38,38,38,26,26,26,26,26,25,24,22,25,28,31,31,32,32,33,34,0.0,0.0,0.0,0.0,0,0,0.0,0,0.0,-1,0.0,0,0.0,4.5623
273760,0,4.5627,,,,,,,,,,,,,,,,,,,,,,,,,,,,,,,,,,,,28,30,30,32,32,32,31,31,32,36,37,37,38,38,38,38,26,26,26,26,26,25,24,22,24,28,30,31,31,32,33,33,,,,,,,,,,,,,,
273780,0,4.563,,-0.04,-0.04,-0.34,0,-0,0,0.35,1.02,34,,,,,,,,,,,,,,,,,,,,,,,,,,28,30,30,32,32,32,31,31,32,36,37,37,38,38,38,38,26,26,26,26,26,25,24,22,24,28,30,31,31,32,33,33,,,,,,,,,,,,,,
273800,0,4.5633,,,,,,,,,,,,,,,,,,,,,,,,,,,,,,,,,,,,28,30,30,32,32,32,31,31,32,36,37,37,38,38,38,38,26,26,26,26,26,25,24,22,24,28,30,31,31,32,33,33,,,,,,,,,,,,,,
273820,0,4.5637,,0.11,0.01,-0.32,0,-0,-0,0.34,1.02,33,,,,,,,,,,,,,,,,,,,,,,,,,,28,30,30,32,32,32,31,31,32,36,37,37,38,38,38,38,25,26,26,26,26,25,24,22,25,28,31,31,32,32,34,34,,,,,,,,,,,,,,
273840,0,4.564,,,,,,,,,,,-1,109.56,27.33,67.35,114.27,13.02,3698,1,18,100.0,0.96,0.86,12.8,0.0,124.0,59,59,0,0,81,0,0,0,0,0,28,30,30,32,32,32,31,31,31,36,36,37,38,38,38,38,25,26,26,26,26,25,24,22,25,28,31,31,32,32,34,34,0.0,0.0,0.0,0.0,0,0,0.0,0,0.0,-1,0.0,0,0.0,4.564
273860,0,4.5643,,-0.08,0.01,-0.29,0,1,1,0.31,1.02,30,,,,,,,,,,,,,,,,,,,,,,,,,,28,30,30,32,32,32,31,31,31,36,36,37,38,38,38,38,25,26,26,26,26,25,24,22,25,28,31,31,32,32,34,34,,,,,,,,,,,,,,
273880,0,4.5647,,,,,,,,,,,,,,,,,,,,,,,,,,,,,,,,,,,,28,30,30,32,32,32,31,31,31,36,36,37,38,38,38,38,26,26,26,26,26,25,24,22,25,29,31,32,32,32,34,34,,,,,,,,,,,,,,
273900,0,4.565,,0.13,0.0,-0.31,0,-1,-1,0.33,1.02,33,,,,,,,,,,,,,,,,,,,,,,,,,,28,30,30,32,32,32,31,31,32,36,36,38,38,38,38,38,26,26,26,26,26,25,24,22,25,29,31,32,32,32,34,34,,,,,,,,,,,,,,
273920,0,4.5653,,,,,,,,,,,,,,,,,,,,,,,,,,,,,,,,,,,,28,30,30,32,32,32,31,31,32,36,36,38,38,38,38,38,26,26,26,26,26,25,24,22,25,29,31,32,32,32,34,34,,,,,,,,,,,,,,
273940,0,4.5657,,0.02,-0.01,-0.13,0,-0,-0,0.13,1.02,13,-1,109.47,27.21,67.35,114.15,13.01,3538,1,18,100.0,0.96,0.82,12.8,0.0,122.0,58,59,0,0,81,0,0,0,0,0,28,30,30,32,32,32,31,31,32,36,36,38,38,38,38,38,26,26,26,26,26,24,24,22,25,28,31,32,32,32,34,34,0.0,0.0,0.0,0.0,0,0,0.0,0,0.0,-1,0.0,0,0.0,4.5657
273960,0,4.566,,,,,,,,,,,,,,,,,,,,,,,,,,,,,,,,,,,,28,30,30,32,32,32,31,31,32,36,36,38,38,38,38,38,26,26,26,26,26,24,24,22,25,28,31,32,32,32,34,34,,,,,,,,,,,,,,
273980,0,4.5663,,-0.11,-0.01,-0.16,0,0,0,0.19,1.02,19,,,,,,,,,,,,,,,,,,,,,,,,,,28,30,30,32,32,32,31,31,31,36,36,38,38,37,38,38,26,26,26,26,26,24,24,22,25,28,31,32,32,32,34,34,,,,,,,,,,,,,,
274000,0,4.5667,,,,,,,,,,,,,,,,,,,,,,,,,,,,,,,,,,,,28,30,30,32,32,32,31,31,31,36,36,38,38,37,38,38,26,26,26,26,26,25,24,22,25,28,31,32,32,32,34,34,,,,,,,,,,,,,,
274020,0,4.567,,0.1,-0.03,-0.25,-0,0,1,0.27,1.02,27,,,,,,,,,,,,,,,,,,,,,,,,,,28,30,30,32,32,32,31,31,31,36,36,38,38,37,38,38,26,26,26,26,26,25,24,22,25,29,31,31,32,32,34,34,,,,,,,,,,,,,,
274040,0,4.5673,,,,,,,,,,,-1,109.23,27.33,67.35,115.92,13.02,3519,1,18,100.0,0.96,0.88,12.8,0.0,117.0,58,58,0,0,81,0,0,0,0,0,28,30,30,32,32,32,31,31,32,36,36,37,38,37,38,38,26,26,26,26,26,25,24,22,25,29,31,31,32,32,34,34,0.0,0.0,0.0,0.0,0,0,0.0,0,0.0,-1,0.0,0,0.0,4.5673
274060,0,4.5677,,0.05,-0.03,-0.11,-0,-0,0,0.13,1.02,13,,,,,,,,,,,,,,,,,,,,,,,,,,28,30,30,32,32,32,31,31,32,36,36,37,38,37,38,38,26,26,26,26,26,25,24,22,25,29,31,31,32,32,34,34,,,,,,,,,,,,,,
274080,0,4.568,,,,,,,,,,,,,,,,,,,,,,,,,,,,,,,,,,,,28,30,30,32,32,32,31,31,32,36,36,37,38,37,38,38,26,26,26,26,26,25,24,22,25,28,31,31,32,32,34,34,,,,,,,,,,,,,,
274100,0,4.5683,,-0.1,-0.01,-0.13,-0,1,0,0.16,1.02,16,,,,,,,,,,,,,,,,,,,,,,,,,,28,30,30,32,32,32,32,31,31,36,36,37,37,37,37,38,26,26,26,26,26,25,24,22,25,28,31,31,32,32,34,34,,,,,,,,,,,,,,
274120,0,4.5687,,,,,,,,,,,,,,,,,,,,,,,,,,,,,,,,,,,,28,30,30,32,32,32,32,31,31,36,36,37,37,37,37,38,26,26,26,26,26,25,24,22,25,28,31,31,32,32,34,34,,,,,,,,,,,,,,
274140,0,4.569,,0.12,-0.04,-0.29,0,-0,-1,0.32,1.02,31,-1,109.47,27.21,67.26,114.81,13.02,3699,1,18,100.0,0.96,0.89,12.8,0.0,115.0,57,58,0,0,81,0,0,0,0,0,28,30,30,32,32,32,32,31,31,36,36,37,37,37,37,38,26,26,26,26,26,25,24,22,25,29,32,32,32,32,34,34,0.0,0.0,0.0,0.0,0,0,0.0,0,0.0,-1,0.0,0,0.0,4.569
274160,0,4.5693,,,,,,,,,,,,,,,,,,,,,,,,,,,,,,,,,,,,28,30,30,32,32,32,32,31,32,36,36,37,38,37,38,38,26,26,26,26,26,25,24,22,25,29,32,32,32,32,34,34,,,,,,,,,,,,,,
274180,0,4.5697,,0.06,0.01,-0.11,0,-0,-1,0.12,1.02,12,,,,,,,,,,,,,,,,,,,,,,,,,,28,30,30,32,32,32,32,31,32,36,36,37,38,37,38,38,26,26,26,26,26,25,24,22,25,29,32,32,32,32,34,34,,,,,,,,,,,,,,
274200,0,4.57,,,,,,,,,,,,,,,,,,,,,,,,,,,,,,,,,,,,28,30,30,32,32,32,32,31,32,36,36,37,38,37,38,38,26,26,26,26,26,25,24,22,25,28,31,31,32,32,34,34,,,,,,,,,,,,,,
274220,0,4.5703,,-0.1,-0.0,-0.1,0,-0,-1,0.14,1.02,14,,,,,,,,,,,,,,,,,,,,,,,,,,28,30,30,32,32,32,31,30,32,36,36,37,38,37,38,38,26,26,26,26,26,25,24,22,25,28,31,31,32,32,34,34,,,,,,,,,,,,,,
274240,0,4.5707,,,,,,,,,,,-1,109.35,27.33,67.26,112.95,13.06,3650,1,18,100.0,0.96,0.9,12.81,0.0,118.0,57,58,0,0,82,0,0,0,0,0,28,30,30,32,32,32,31,30,32,36,36,37,38,37,38,38,26,26,26,26,26,25,24,22,25,28,31,31,32,32,34,34,0.0,0.0,0.0,0.0,0,0,0.0,0,0.0,-1,0.0,0,0.0,4.5707
274260,0,4.571,,0.01,-0.03,-0.01,0,-0,-0,0.03,1.02,3,,,,,,,,,,,,,,,,,,,,,,,,,,28,30,30,32,32,32,31,30,32,36,36,37,38,37,38,38,26,26,26,26,26,25,24,22,25,28,31,32,32,32,34,34,,,,,,,,,,,,,,
274280,0,4.5713,,,,,,,,,,,,,,,,,,,,,,,,,,,,,,,,,,,,28,30,30,32,32,32,31,31,32,36,36,37,37,37,37,38,26,26,26,26,26,25,24,22,25,28,31,32,32,32,34,34,,,,,,,,,,,,,,
274300,0,4.5717,,0.02,0.02,0.03,0,-0,-0,0.04,1.02,4,,,,,,,,,,,,,,,,,,,,,,,,,,28,30,30,32,32,32,31,31,32,36,36,37,37,37,37,38,26,26,26,26,26,25,24,22,25,28,31,32,32,32,34,34,,,,,,,,,,,,,,
274320,0,4.572,,,,,,,,,,,,,,,,,,,,,,,,,,,,,,,,,,,,28,30,30,32,32,32,31,31,32,36,36,37,37,37,37,38,26,26,26,26,26,25,24,22,25,29,31,32,32,32,34,34,,,,,,,,,,,,,,
274340,0,4.5723,13.28,-0.15,-0.02,-0.12,-0,-0,0,0.19,1.02,19,-1,109.14,27.21,67.35,112.41,13.0,3382,1,18,100.0,0.96,0.88,12.8,0.0,116.0,58,58,0,0,82,0,0,0,0,0,28,30,30,32,32,32,31,31,32,36,36,37,37,37,37,38,26,26,26,26,26,25,24,22,25,29,31,32,32,32,34,34,0.0,0.0,0.0,0.0,0,0,0.0,0,0.0,-1,0.0,0,0.0,4.5723
274360,0,4.5727,,,,,,,,,,,,,,,,,,,,,,,,,,,,,,,,,,,,28,30,30,32,32,32,32,31,31,36,36,37,37,37,37,38,26,26,26,26,26,25,24,22,25,29,31,32,32,32,34,34,,,,,,,,,,,,,,
274380,0,4.573,,0.04,-0.02,-0.12,0,1,1,0.13,1.02,13,,,,,,,,,,,,,,,,,,,,,,,,,,28,30,30,32,32,32,32,31,31,36,36,37,37,37,37,38,26,26,26,26,26,25,24,22,25,29,31,32,32,32,34,34,,,,,,,,,,,,,,
274400,0,4.5733,,,,,,,,,,,,,,,,,,,,,,,,,,,,,,,,,,,,28,30,30,32,32,32,32,31,31,36,36,37,37,37,37,38,26,26,26,26,26,25,24,22,25,29,31,32,32,32,34,34,,,,,,,,,,,,,,
274420,0,4.5737,,0.03,0.06,-0.08,-0,-0,0,0.1,1.02,10,,,,,,,,,,,,,,,,,,,,,,,,,,28,30,31,32,32,32,32,31,32,36,36,37,38,37,38,38,26,26,26,26,26,25,24,22,25,29,31,32,32,32,34,34,,,,,,,,,,,,,,
274440,0,4.574,,,,,,,,,,,-2,109.02,27.21,67.02,113.4,12.99,3464,1,18,100.0,0.96,0.89,12.81,0.0,125.0,58,58,0,0,82,0,0,0,0,0,28,30,31,32,32,32,32,31,32,36,36,37,38,37,38,38,26,26,26,26,26,25,24,22,25,29,31,32,32,32,34,34,0.0,0.0,0.0,0.0,0,0,0.0,0,0.0,-1,0.0,0,0.0,4.574
274460,0,4.5743,,-0.07,0.02,-0.14,-0,1,1,0.16,1.02,15,,,,,,,,,,,,,,,,,,,,,,,,,,28,30,31,32,32,32,32,31,32,36,36,37,38,37,38,38,26,26,26,26,26,25,24,22,25,29,31,32,32,32,34,34,,,,,,,,,,,,,,
274480,0,4.5747,,,,,,,,,,,,,,,,,,,,,,,,,,,,,,,,,,,,28,30,31,32,32,32,32,31,32,36,36,38,38,38,38,38,26,26,26,26,26,25,24,22,25,29,31,32,32,32,34,34,,,,,,,,,,,,,,
274500,0,4.575,,0.15,0.03,-0.16,-0,0,1,0.22,1.02,22,,,,,,,,,,,,,,,,,,,,,,,,,,28,30,31,32,32,32,32,31,32,36,36,38,38,38,38,38,26,26,26,26,26,25,24,22,25,29,31,32,32,32,34,34,,,,,,,,,,,,,,
274520,0,4.5753,,,,,,,,,,,,,,,,,,,,,,,,,,,,,,,,,,,,28,30,31,32,32,32,32,31,32,36,36,38,38,38,38,38,26,26,26,26,26,25,24,22,25,28,31,32,32,32,34,34,,,,,,,,,,,,,,
274540,0,4.5757,,0.01,0.06,-0.1,-0,1,1,0.12,1.02,11,-2,108.36,26.88,66.48,111.42,12.99,3319,1,18,100.0,0.96,0.9,12.8,0.0,120.0,57,57,0,0,82,0,0,0,0,0,28,30,30,32,32,32,31,31,32,36,37,37,38,38,38,38,26,26,26,26,26,25,24,22,25,28,31,32,32,32,34,34,0.0,0.0,0.0,0.0,0,0,0.0,0,0.0,-1,0.0,0,0.0,4.5757
274560,0,4.576,,,,,,,,,,,,,,,,,,,,,,,,,,,,,,,,,,,,28,30,30,32,32,32,31,31,32,36,37,37,38,38,38,38,26,26,26,26,26,25,24,22,25,28,31,32,32,32,34,34,,,,,,,,,,,,,,
274580,0,4.5763,,-0.01,-0.01,0.03,-0,-1,1,0.04,1.02,4,,,,,,,,,,,,,,,,,,,,,,,,,,28,30,30,32,32,32,31,31,32,36,37,37,38,38,38,38,25,26,26,26,26,25,24,22,26,28,31,32,32,32,34,34,,,,,,,,,,,,,,
274600,0,4.5767,,,,,,,,,,,,,,,,,,,,,,,,,,,,,,,,,,,,28,30,30,32,32,32,32,31,31,36,37,38,38,38,38,38,25,26,26,26,26,25,24,22,26,28,31,32,32,32,34,34,,,,,,,,,,,,,,
274620,0,4.577,,0.1,-0.0,0.03,-0,-0,1,0.11,1.02,11,,,,,,,,,,,,,,,,,,,,,,,,,,28,30,30,32,32,32,32,31,31,36,37,38,38,38,38,38,25,26,26,26,26,25,24,22,26,28,31,32,32,32,34,34,,,,,,,,,,,,,,
274640,0,4.5773,,,,,,,,,,,-2,107.94,26.88,66.27,114.81,13.04,3418,1,18,100.0,0.96,0.88,12.8,0.0,122.0,57,57,0,0,82,0,0,0,0,0,28,30,30,32,32,32,32,31,31,36,37,38,38,38,38,38,26,26,26,26,26,25,24,22,24,28,31,31,32,32,34,34,0.0,0.0,0.0,0.0,0,0,0.0,0,0.0,-1,0.0,0,0.0,4.5773
274660,0,4.5777,,-0.03,-0.02,-0.17,0,-0,1,0.18,1.02,17,,,,,,,,,,,,,,,,,,,,,,,,,,28,30,30,32,32,32,32,31,31,36,37,38,38,38,38,38,26,26,26,26,26,25,24,22,24,28,31,31,32,32,34,34,,,,,,,,,,,,,,
274680,0,4.578,,,,,,,,,,,,,,,,,,,,,,,,,,,,,,,,,,,,28,30,30,32,32,32,32,31,32,36,37,38,38,38,38,38,26,26,26,26,26,25,24,22,24,28,31,31,32,32,34,34,,,,,,,,,,,,,,
274700,0,4.5783,,0.06,-0.02,0.03,0,0,1,0.07,1.02,7,,,,,,,,,,,,,,,,,,,,,,,,,,28,30,30,32,32,32,32,31,32,36,37,38,38,38,38,38,26,26,26,26,26,25,24,22,24,28,30,31,32,32,33,34,,,,,,,,,,,,,,
274720,0,4.5787,,,,,,,,,,,,,,,,,,,,,,,,,,,,,,,,,,,,28,30,30,32,32,32,32,31,32,36,37,38,38,38,38,38,26,26,26,26,26,25,24,22,24,28,30,31,32,32,33,34,,,,,,,,,,,,,,
274740,0,4.579,,0.06,0.0,0.2,-0,0,1,0.21,1.02,21,-2,108.15,26.88,66.48,113.16,13.03,3457,1,18,100.0,0.96,0.89,12.8,0.0,120.0,58,58,0,0,82,0,0,0,0,0,28,30,31,32,32,32,32,32,32,36,37,38,38,38,38,38,26,26,26,26,26,25,24,22,24,28,30,31,32,32,33,34,0.0,0.0,0.0,0.0,0,0,0.0,0,0.0,-1,0.0,0,0.0,4.579
274760,0,4.5793,,,,,,,,,,,,,,,,,,,,,,,,,,,,,,,,,,,,28,30,31,32,32,32,32,32,32,36,37,38,38,38,38,38,26,26,26,26,26,25,24,22,24,28,30,31,32,32,33,34,,,,,,,,,,,,,,
274780,0,4.5797,,-0.08,-0.01,-0.01,-0,-1,0,0.08,1.02,8,,,,,,,,,,,,,,,,,,,,,,,,,,28,30,31,32,32,32,32,32,32,36,37,38,38,38,38,38,26,26,26,26,26,25,24,22,25,28,31,31,32,32,34,34,,,,,,,,,,,,,,
274800,0,4.58,,,,,,,,,,,,,,,,,,,,,,,,,,,,,,,,,,,,28,30,30,32,32,32,31,31,32,36,37,38,38,38,38,38,26,26,26,26,26,25,24,22,25,28,31,31,32,32,34,34,,,,,,,,,,,,,,
274820,0,4.5803,,0.1,0.0,0.04,0,-1,-0,0.11,1.02,11,,,,,,,,,,,,,,,,,,,,,,,,,,28,30,30,32,32,32,31,31,32,36,37,38,38,38,38,38,26,26,26,26,26,25,24,22,25,28,31,31,32,32,34,34,,,,,,,,,,,,,,
274840,0,4.5807,,,,,,,,,,,-2,108.48,27.0,66.69,107.67,13.02,3404,1,18,100.0,0.96,0.88,12.8,0.0,123.0,58,58,0,0,82,0,0,0,0,0,28,30,30,32,32,32,31,31,32,36,37,38,38,38,38,38,26,26,26,26,26,25,24,22,26,29,31,31,32,32,34,34,0.0,0.0,0.0,0.0,0,0,0.0,0,0.0,-1,0.0,0,0.0,4.5807
274860,0,4.581,,-0.04,-0.02,-0.21,0,-1,-0,0.21,1.02,21,,,,,,,,,,,,,,,,,,,,,,,,,,29,30,31,32,32,32,32,31,32,36,37,38,38,38,38,38,26,26,26,26,26,25,24,22,26,29,31,31,32,32,34,34,,,,,,,,,,,,,,
274880,0,4.5813,,,,,,,,,,,,,,,,,,,,,,,,,,,,,,,,,,,,29,30,31,32,32,32,32,31,32,36,37,38,38,38,38,38,26,26,26,26,26,25,24,22,26,29,31,31,32,32,34,34,,,,,,,,,,,,,,
274900,0,4.5817,,0.08,-0.02,-0.04,0,-1,-1,0.09,1.02,9,,,,,,,,,,,,,,,,,,,,,,,,,,29,30,31,32,32,32,32,31,32,36,37,38,38,38,38,38,26,26,26,26,26,25,24,22,26,29,31,32,32,32,34,34,,,,,,,,,,,,,,
274920,0,4.582,,,,,,,,,,,,,,,,,,,,,,,,,,,,,,,,,,,,28,30,31,32,32,32,32,31,32,36,37,38,38,38,38,38,26,26,26,26,26,25,24,22,26,29,31,32,32,32,34,34,,,,,,,,,,,,,,
274940,0,4.5823,,0.06,-0.0,0.13,0,-1,-0,0.14,1.02,14,-2,108.6,27.12,66.93,113.61,12.99,3401,1,18,100.0,0.96,0.86,12.8,0.0,118.0,58,58,0,0,82,0,0,0,0,0,28,30,31,32,32,32,32,31,32,36,37,38,38,38,38,38,26,26,26,26,26,25,24,22,26,29,31,32,32,32,34,34,0.0,0.0,0.0,0.0,0,0,0.0,0,0.0,-1,0.0,0,0.0,4.5823
274960,0,4.5827,,,,,,,,,,,,,,,,,,,,,,,,,,,,,,,,,,,,28,30,31,32,32,32,32,31,32,36,37,38,38,38,38,38,26,26,26,26,26,25,24,22,25,29,31,31,32,32,34,34,,,,,,,,,,,,,,
274980,0,4.583,,-0.1,0.0,-0.07,0,-0,-0,0.12,1.02,12,,,,,,,,,,,,,,,,,,,,,,,,,,28,30,30,32,32,32,31,30,31,36,36,37,38,37,38,38,26,26,26,26,26,25,24,22,25,29,31,31,32,32,34,34,,,,,,,,,,,,,,
275000,0,4.5833,,,,,,,,,,,,,,,,,,,,,,,,,,,,,,,,,,,,28,30,30,32,32,32,31,30,31,36,36,37,38,37,38,38,26,26,26,26,26,25,24,22,25,29,31,31,32,32,34,34,,,,,,,,,,,,,,
275020,0,4.5837,,0.08,-0.01,-0.02,0,1,0,0.08,1.02,8,,,,,,,,,,,,,,,,,,,,,,,,,,28,30,30,32,32,32,31,30,31,36,36,37,38,37,38,38,26,26,26,26,26,25,24,22,25,29,31,31,32,32,34,34,,,,,,,,,,,,,,
275040,0,4.584,,,,,,,,,,,-2,108.6,27.0,66.69,114.81,13.06,3490,1,17,100.0,0.96,0.83,12.81,0.0,115.0,57,58,0,0,82,0,0,0,0,0,28,30,31,32,32,32,32,31,31,36,36,37,38,37,38,38,26,26,26,26,26,25,24,22,25,29,31,31,32,32,34,34,0.0,0.0,0.0,0.0,0,0,0.0,0,0.0,-1,0.0,0,0.0,4.584
275060,0,4.5843,,0.13,0.05,-0.02,0,-0,-0,0.14,1.02,13,,,,,,,,,,,,,,,,,,,,,,,,,,28,30,31,32,32,32,32,31,32,36,37,37,38,37,38,38,26,26,26,26,26,25,24,22,25,29,31,31,32,32,34,34,,,,,,,,,,,,,,
275080,0,4.5847,,,,,,,,,,,,,,,,,,,,,,,,,,,,,,,,,,,,28,30,31,32,32,32,32,31,32,36,37,37,38,37,38,38,26,26,26,26,26,25,24,22,24,29,31,31,32,32,33,34,,,,,,,,,,,,,,
275100,0,4.585,,-0.07,0.03,-0.1,0,-0,-0,0.13,1.02,13,,,,,,,,,,,,,,,,,,,,,,,,,,28,30,31,32,32,32,31,30,32,36,37,37,38,37,38,38,26,26,26,26,26,25,24,22,24,29,31,31,32,32,33,34,,,,,,,,,,,,,,
275120,0,4.5853,,,,,,,,,,,,,,,,,,,,,,,,,,,,,,,,,,,,28,30,31,32,32,32,31,30,32,36,37,38,38,38,38,38,26,26,26,26,26,25,24,22,24,29,31,31,32,32,33,34,,,,,,,,,,,,,,
275140,0,4.5857,,0.05,-0.01,0.09,-0,1,1,0.11,1.02,10,-2,108.6,27.12,66.69,113.16,13.06,3670,1,17,100.0,0.96,0.85,12.8,0.0,123.0,57,58,0,0,82,0,0,0,0,0,28,30,31,32,32,32,31,30,32,36,37,38,38,38,38,38,26,26,26,26,26,25,24,22,24,29,31,31,32,32,33,34,0.0,0.0,0.0,0.0,0,0,0.0,0,0.0,-1,0.0,0,0.0,4.5857
275160,0,4.586,,,,,,,,,,,,,,,,,,,,,,,,,,,,,,,,,,,,28,30,31,32,32,32,31,30,32,36,37,38,38,38,38,38,26,26,26,26,26,25,24,22,26,29,32,31,32,32,34,34,,,,,,,,,,,,,,
275180,0,4.5863,,-0.03,-0.04,0.17,-0,1,2,0.18,1.02,17,,,,,,,,,,,,,,,,,,,,,,,,,,28,30,31,32,32,32,31,31,31,36,36,37,38,37,38,38,26,26,26,26,26,25,24,22,26,29,32,31,32,32,34,34,,,,,,,,,,,,,,
275200,0,4.5867,,,,,,,,,,,,,,,,,,,,,,,,,,,,,,,,,,,,28,30,31,32,32,32,31,31,31,36,36,37,38,37,38,38,26,26,26,26,26,25,24,22,26,29,32,31,32,32,34,34,,,,,,,,,,,,,,
275220,0,4.587,,-0.09,-0.05,0.14,-0,0,1,0.17,1.02,17,,,,,,,,,,,,,,,,,,,,,,,,,,28,30,31,32,32,32,31,31,31,36,36,37,38,37,38,38,26,26,26,26,26,25,24,22,25,28,31,31,32,32,33,33,,,,,,,,,,,,,,
275240,0,4.5873,,,,,,,,,,,-2,108.6,27.12,66.69,112.83,13.0,3619,1,17,100.0,0.96,0.83,12.81,0.0,117.0,57,58,0,0,82,0,0,0,0,0,28,30,30,32,32,32,31,30,32,36,37,38,38,38,38,38,26,26,26,26,26,25,24,22,25,28,31,31,32,32,33,33,0.0,0.0,0.0,0.0,0,0,0.0,0,0.0,-1,0.0,0,0.0,4.5873
275260,0,4.5877,,0.03,-0.02,0.11,-0,0,1,0.12,1.02,12,,,,,,,,,,,,,,,,,,,,,,,,,,28,30,30,32,32,32,31,30,32,36,37,38,38,38,38,38,26,26,26,26,26,25,24,22,25,28,31,31,32,32,33,33,,,,,,,,,,,,,,
275280,0,4.588,,,,,,,,,,,,,,,,,,,,,,,,,,,,,,,,,,,,28,30,30,32,32,32,31,30,32,36,37,38,38,38,38,38,26,26,26,26,26,25,24,22,25,28,31,31,32,32,33,33,,,,,,,,,,,,,,
275300,0,4.5883,,-0.1,-0.0,0.21,-0,3,2,0.24,1.02,23,,,,,,,,,,,,,,,,,,,,,,,,,,28,30,31,32,32,32,32,30,32,36,37,37,38,37,38,38,26,26,26,26,26,25,24,22,25,28,31,31,32,32,33,33,,,,,,,,,,,,,,
275320,0,4.5887,,,,,,,,,,,,,,,,,,,,,,,,,,,,,,,,,,,,28,30,31,32,32,32,32,30,32,36,37,37,38,37,38,38,26,26,26,26,26,25,24,22,25,28,31,31,32,32,33,33,,,,,,,,,,,,,,
275340,0,4.589,13.26,0.08,-0.0,0.14,-0,1,1,0.16,1.02,16,-2,108.6,27.12,66.81,112.17,12.99,3568,1,17,100.0,0.96,0.85,12.8,0.0,120.0,57,58,0,0,82,0,0,0,0,0,28,30,31,32,32,32,32,30,32,36,37,37,38,37,38,38,26,26,26,26,26,25,24,22,25,29,31,31,32,32,34,34,0.0,0.0,0.0,0.0,0,0,0.0,0,0.0,-1,0.0,0,0.0,4.589
275360,0,4.5893,,,,,,,,,,,,,,,,,,,,,,,,,,,,,,,,,,,,28,30,31,32,32,32,32,31,32,36,37,38,38,38,38,38,26,26,26,26,26,25,24,22,25,29,31,31,32,32,34,34,,,,,,,,,,,,,,
275380,0,4.5897,,-0.02,0.01,0.21,-0,1,1,0.21,1.02,21,,,,,,,,,,,,,,,,,,,,,,,,,,28,30,31,32,32,32,32,31,32,36,37,38,38,38,38,38,26,26,26,26,26,25,24,22,25,29,31,31,32,32,34,34,,,,,,,,,,,,,,
275400,0,4.59,,,,,,,,,,,,,,,,,,,,,,,,,,,,,,,,,,,,28,30,31,32,32,32,32,31,32,36,37,38,38,38,38,38,26,26,26,26,26,25,24,22,25,29,31,31,32,32,34,34,,,,,,,,,,,,,,
275420,0,4.5903,,-0.13,-0.03,0.07,-0,-0,0,0.15,1.02,14,,,,,,,,,,,,,,,,,,,,,,,,,,28,30,31,32,32,32,32,31,32,36,37,38,38,38,38,38,26,26,26,26,26,25,24,22,25,29,31,31,32,32,34,34,,,,,,,,,,,,,,
275440,0,4.5907,,,,,,,,,,,-2,108.48,27.12,66.93,111.09,13.01,3564,1,17,100.0,0.96,0.86,12.81,0.0,114.0,57,57,0,0,82,0,0,0,0,0,28,30,31,32,32,32,32,31,32,36,37,38,38,38,38,38,26,26,26,26,26,25,24,22,25,29,31,31,32,32,34,34,0.0,0.0,0.0,0.0,0,0,0.0,0,0.0,-1,0.0,0,0.0,4.5907
275460,0,4.591,,0.04,-0.02,0.12,-0,-0,1,0.12,1.02,12,,,,,,,,,,,,,,,,,,,,,,,,,,28,30,31,32,32,32,32,31,32,36,37,38,38,38,38,38,25,26,26,26,26,25,24,22,25,28,31,31,32,32,33,34,,,,,,,,,,,,,,
275480,0,4.5913,,,,,,,,,,,,,,,,,,,,,,,,,,,,,,,,,,,,28,30,31,32,32,32,32,31,32,36,37,38,38,38,38,38,25,26,26,26,26,25,24,22,25,28,31,31,32,32,33,34,,,,,,,,,,,,,,
275500,0,4.5917,,-0.1,-0.02,-0.12,-0,-1,0,0.16,1.02,16,,,,,,,,,,,,,,,,,,,,,,,,,,28,30,31,32,32,32,32,31,32,36,37,38,38,37,38,38,25,26,26,26,26,25,24,22,25,28,31,31,32,32,33,34,,,,,,,,,,,,,,
275520,0,4.592,,,,,,,,,,,,,,,,,,,,,,,,,,,,,,,,,,,,28,30,31,32,32,32,32,31,32,36,37,38,38,37,38,38,26,26,26,26,26,25,24,22,25,28,31,31,32,32,33,34,,,,,,,,,,,,,,
275540,0,4.5923,,0.02,-0.02,-0.03,-0,-1,-0,0.04,1.02,4,-2,108.48,27.0,66.81,111.09,12.99,3602,1,17,100.0,0.96,0.85,12.8,0.0,121.0,57,57,0,0,82,0,0,0,0,0,28,30,31,32,32,32,32,31,32,36,37,38,38,37,38,38,26,26,26,26,26,25,24,22,25,29,31,31,32,32,33,33,0.0,0.0,0.0,0.0,0,0,0.0,0,0.0,-1,0.0,0,0.0,4.5923
275560,0,4.5927,,,,,,,,,,,,,,,,,,,,,,,,,,,,,,,,,,,,28,30,31,32,32,32,32,31,32,36,37,38,38,37,38,38,26,26,26,26,26,25,24,22,25,29,31,31,32,32,33,33,,,,,,,,,,,,,,
275580,0,4.593,,-0.0,-0.0,0.09,-0,-1,-0,0.09,1.02,9,,,,,,,,,,,,,,,,,,,,,,,,,,28,30,31,32,32,32,32,31,32,36,37,38,38,37,38,38,26,26,26,26,26,25,24,22,25,29,31,31,32,32,33,33,,,,,,,,,,,,,,
275600,0,4.5933,,,,,,,,,,,,,,,,,,,,,,,,,,,,,,,,,,,,28,30,31,32,32,32,32,31,32,36,37,38,38,37,38,38,26,26,26,26,26,26,24,22,25,29,31,31,32,32,34,34,,,,,,,,,,,,,,
275620,0,4.5937,,-0.11,-0.03,-0.15,-0,-2,-1,0.19,1.02,18,,,,,,,,,,,,,,,,,,,,,,,,,,28,30,30,32,32,32,31,30,32,36,37,37,38,37,38,38,26,26,26,26,26,26,24,22,25,29,31,31,32,32,34,34,,,,,,,,,,,,,,
275640,0,4.594,,,,,,,,,,,-2,108.6,27.0,66.81,112.08,13.01,3630,1,17,100.0,0.96,0.9,12.81,0.0,116.0,56,57,0,0,82,0,0,0,0,0,28,30,30,32,32,32,31,30,32,36,37,37,38,37,38,38,26,26,26,26,26,26,24,22,25,29,31,31,32,32,34,34,0.0,0.0,0.0,0.0,0,0,0.0,0,0.0,-1,0.0,0,0.0,4.594
275660,0,4.5943,,0.05,-0.02,0.06,-0,-1,-1,0.08,1.02,8,,,,,,,,,,,,,,,,,,,,,,,,,,28,30,30,32,32,32,31,30,32,36,37,37,38,37,38,38,26,26,26,26,26,25,24,22,25,28,31,31,32,32,33,34,,,,,,,,,,,,,,
275680,0,4.5947,,,,,,,,,,,,,,,,,,,,,,,,,,,,,,,,,,,,28,30,31,32,32,32,32,31,32,36,36,37,38,37,38,38,26,26,26,26,26,25,24,22,25,28,31,31,32,32,33,34,,,,,,,,,,,,,,
275700,0,4.595,,-0.1,-0.03,-0.09,-0,-2,-0,0.13,1.02,13,,,,,,,,,,,,,,,,,,,,,,,,,,28,30,31,32,32,32,32,31,32,36,36,37,38,37,38,38,26,26,26,26,26,25,24,22,25,28,31,31,32,32,33,34,,,,,,,,,,,,,,
275720,0,4.5953,,,,,,,,,,,,,,,,,,,,,,,,,,,,,,,,,,,,28,30,31,32,32,32,32,31,32,36,36,37,38,37,38,38,25,26,26,26,26,25,24,22,25,28,31,31,32,32,33,34,,,,,,,,,,,,,,
275740,0,4.5957,,0.04,-0.04,-0.04,-0,-1,-0,0.07,1.02,7,-2,108.6,27.0,66.81,112.29,13.01,3553,1,17,100.0,0.96,0.88,12.8,0.0,123.0,58,58,0,0,82,0,0,0,0,0,28,30,31,32,32,32,32,31,32,36,36,37,38,38,38,38,25,26,26,26,26,25,24,22,25,28,31,31,32,32,33,34,0.0,0.0,0.0,0.0,0,0,0.0,0,0.0,-1,0.0,0,0.0,4.5957
275760,0,4.596,,,,,,,,,,,,,,,,,,,,,,,,,,,,,,,,,,,,28,30,31,32,32,32,32,31,32,36,36,37,38,38,38,38,25,26,26,26,26,25,24,22,25,28,31,31,32,32,33,34,,,,,,,,,,,,,,
275780,0,4.5963,,0.02,-0.03,0.07,-0,-1,-1,0.08,1.02,7,,,,,,,,,,,,,,,,,,,,,,,,,,28,30,31,32,32,32,32,31,32,36,36,37,38,38,38,38,26,26,26,26,26,25,24,22,25,28,31,31,32,32,33,33,,,,,,,,,,,,,,
275800,0,4.5967,,,,,,,,,,,,,,,,,,,,,,,,,,,,,,,,,,,,28,30,31,32,32,32,32,31,32,36,36,37,38,38,38,38,26,26,26,26,26,25,24,22,25,28,31,31,32,32,33,33,,,,,,,,,,,,,,
275820,0,4.597,,-0.1,-0.04,-0.13,-0,-1,-0,0.17,1.02,17,,,,,,,,,,,,,,,,,,,,,,,,,,28,30,31,32,32,32,32,31,32,36,37,38,38,38,38,38,26,26,26,26,26,25,24,22,25,28,31,31,32,32,33,33,,,,,,,,,,,,,,
275840,0,4.5973,,,,,,,,,,,-1,108.69,27.0,66.69,113.94,13.02,3623,1,17,100.0,0.96,0.86,12.81,0.0,116.0,57,58,0,0,82,0,0,0,0,0,28,30,31,32,32,32,32,31,32,36,37,38,38,38,38,38,26,26,26,26,26,25,24,22,25,28,31,31,32,32,33,34,0.0,0.0,0.0,0.0,0,0,0.0,0,0.0,-1,0.0,0,0.0,4.5973
275860,0,4.5977,,0.08,-0.01,0.03,-0,-1,-1,0.09,1.02,9,,,,,,,,,,,,,,,,,,,,,,,,,,28,30,31,32,32,32,31,31,32,36,37,38,38,38,38,38,26,26,26,26,26,25,24,22,25,28,31,31,32,32,33,34,,,,,,,,,,,,,,
275880,0,4.598,,,,,,,,,,,,,,,,,,,,,,,,,,,,,,,,,,,,28,30,31,32,32,32,31,31,32,36,37,37,38,38,38,38,26,26,26,26,26,25,24,22,25,28,31,31,32,32,33,34,,,,,,,,,,,,,,
275900,0,4.5983,,-0.07,-0.01,-0.1,-0,-3,-1,0.13,1.02,13,,,,,,,,,,,,,,,,,,,,,,,,,,28,30,31,32,32,32,31,31,32,36,37,37,38,38,38,38,26,26,26,26,26,25,24,22,25,28,31,31,32,32,33,34,,,,,,,,,,,,,,
275920,0,4.5987,,,,,,,,,,,,,,,,,,,,,,,,,,,,,,,,,,,,28,30,31,32,32,32,31,31,32,36,37,37,38,38,38,38,26,26,26,26,26,25,24,22,25,29,31,31,32,32,33,34,,,,,,,,,,,,,,
275940,0,4.599,,0.07,-0.01,0.05,-0,-3,-1,0.08,1.02,8,-2,108.69,27.0,66.81,114.27,13.06,3711,1,17,100.0,0.96,0.89,12.8,0.0,125.0,57,57,0,0,82,0,0,0,0,0,29,30,31,32,32,32,31,31,32,36,37,37,38,38,38,38,26,26,26,26,26,25,24,22,25,29,31,31,32,32,33,34,0.0,0.0,0.0,0.0,0,0,0.0,0,0.0,-1,0.0,0,0.0,4.599
275960,0,4.5993,,,,,,,,,,,,,,,,,,,,,,,,,,,,,,,,,,,,29,30,31,32,32,32,31,31,32,36,37,37,38,38,38,38,26,26,26,26,26,25,24,22,25,29,31,31,32,32,33,34,,,,,,,,,,,,,,
275980,0,4.5997,,-0.06,0.02,-0.15,-0,-3,-1,0.17,1.02,16,,,,,,,,,,,,,,,,,,,,,,,,,,29,30,31,32,32,32,31,31,32,36,37,37,38,38,38,38,26,26,26,26,26,25,24,22,25,28,31,31,32,32,33,34,,,,,,,,,,,,,,
276000,0,4.6,,,,,,,,,,,,,,,,,,,,,,,,,,,,,,,,,,,,29,30,31,32,32,32,31,31,32,36,37,38,38,38,38,38,26,26,26,26,26,25,24,22,25,28,31,31,32,32,33,34,,,,,,,,,,,,,,
276020,0,4.6003,,0.11,-0.07,-0.47,-0,-2,-0,0.49,1.02,48,,,,,,,,,,,,,,,,,,,,,,,,,,29,30,31,32,32,32,31,31,32,36,37,38,38,38,38,38,26,26,26,26,26,25,24,22,25,28,31,31,32,32,33,34,,,,,,,,,,,,,,
276040,0,4.6007,,,,,,,,,,,-1,108.81,27.12,66.81,113.4,13.04,3564,1,17,100.0,0.96,0.79,12.81,0.0,121.0,57,58,0,0,82,0,0,0,0,0,29,30,31,32,32,32,31,31,32,36,37,38,38,38,38,38,26,26,26,26,26,25,24,22,25,28,31,31,32,32,33,33,0.0,0.0,0.0,0.0,0,0,0.0,0,0.0,-1,0.0,0,0.0,4.6007
276060,0,4.601,,0.01,-0.04,-0.25,-0,-2,-0,0.25,1.02,25,,,,,,,,,,,,,,,,,,,,,,,,,,29,30,31,32,32,32,32,31,31,36,36,37,38,37,38,38,26,26,26,26,26,25,24,22,25,28,31,31,32,32,33,33,,,,,,,,,,,,,,
276080,0,4.6013,,,,,,,,,,,,,,,,,,,,,,,,,,,,,,,,,,,,29,30,31,32,32,32,32,31,31,36,36,37,38,37,38,38,26,26,26,26,26,25,24,22,25,28,31,31,32,32,33,33,,,,,,,,,,,,,,
276100,0,4.6017,,-0.04,-0.05,-0.37,-0,-2,-1,0.38,1.02,37,,,,,,,,,,,,,,,,,,,,,,,,,,29,30,31,32,32,32,32,31,31,36,36,37,38,37,38,38,26,26,26,26,26,25,24,22,25,28,31,31,32,32,33,33,,,,,,,,,,,,,,
276120,0,4.602,,,,,,,,,,,,,,,,,,,,,,,,,,,,,,,,,,,,29,30,31,32,32,32,32,31,32,36,37,38,38,38,38,38,26,26,26,26,26,25,24,22,25,28,31,31,32,32,33,33,,,,,,,,,,,,,,
276140,0,4.6023,,0.08,-0.01,-0.2,0,-2,-0,0.22,1.02,21,-2,108.69,27.12,66.81,113.82,13.0,3519,1,17,100.0,0.96,0.82,12.8,0.0,121.0,57,58,0,0,82,0,0,0,0,0,29,30,31,32,32,32,32,31,32,36,37,38,38,38,38,38,26,26,26,26,26,25,24,22,25,28,31,31,32,32,33,33,0.0,0.0,0.0,0.0,0,0,0.0,0,0.0,-1,0.0,0,0.0,4.6023
276160,0,4.6027,,,,,,,,,,,,,,,,,,,,,,,,,,,,,,,,,,,,29,30,31,32,32,32,32,31,32,36,37,38,38,38,38,38,26,26,26,26,26,25,24,22,25,28,31,31,31,32,33,33,,,,,,,,,,,,,,
276180,0,4.603,,-0.12,-0.03,-0.36,-0,-2,0,0.38,1.02,37,,,,,,,,,,,,,,,,,,,,,,,,,,29,30,31,32,32,32,31,31,32,36,37,38,38,38,38,38,26,26,26,26,26,25,24,22,25,28,31,31,31,32,33,33,,,,,,,,,,,,,,
276200,0,4.6033,,,,,,,,,,,,,,,,,,,,,,,,,,,,,,,,,,,,29,30,31,32,32,32,31,31,32,36,37,37,38,38,38,38,26,26,26,26,26,25,24,22,25,28,31,31,31,32,33,33,,,,,,,,,,,,,,
276220,0,4.6037,,0.07,-0.03,-0.56,0,-2,-0,0.57,1.02,56,,,,,,,,,,,,,,,,,,,,,,,,,,29,30,31,32,32,32,31,31,32,36,37,37,38,38,38,38,26,26,26,26,26,25,24,22,25,29,31,31,32,32,33,34,,,,,,,,,,,,,,
276240,0,4.604,,,,,,,,,,,-2,108.69,27.12,66.81,112.5,13.01,3482,1,17,100.0,0.96,0.87,12.81,0.0,119.0,57,58,0,0,82,0,0,0,0,0,29,30,31,32,32,32,32,31,32,36,37,37,38,38,38,38,26,26,26,26,26,25,24,22,25,29,31,31,32,32,33,34,0.0,0.0,0.0,0.0,0,0,0.0,0,0.0,-1,0.0,0,0.0,4.604
276260,0,4.6043,,0.0,-0.02,-0.3,0,-1,-0,0.3,1.02,29,,,,,,,,,,,,,,,,,,,,,,,,,,29,30,31,32,32,32,32,31,32,36,37,38,38,37,38,38,26,26,26,26,26,25,24,22,25,29,31,31,32,32,33,34,,,,,,,,,,,,,,
276280,0,4.6047,,,,,,,,,,,,,,,,,,,,,,,,,,,,,,,,,,,,29,30,31,32,32,32,32,31,32,36,37,38,38,37,38,38,26,26,26,26,26,25,24,22,25,29,31,31,32,32,33,34,,,,,,,,,,,,,,
276300,0,4.605,,-0.06,-0.05,-0.51,-0,1,1,0.52,1.02,50,,,,,,,,,,,,,,,,,,,,,,,,,,28,30,31,32,32,32,32,31,32,36,37,38,38,37,38,38,26,26,26,26,26,25,24,22,25,29,31,31,32,32,33,34,,,,,,,,,,,,,,
276320,0,4.6053,,,,,,,,,,,,,,,,,,,,,,,,,,,,,,,,,,,,28,30,31,32,32,32,32,31,32,36,37,38,38,38,38,38,26,26,26,26,26,25,24,22,25,29,31,31,32,32,33,34,,,,,,,,,,,,,,
276340,0,4.6057,13.27,0.14,0.0,-0.46,0,0,1,0.48,1.02,47,-1,108.69,27.12,66.93,111.09,13.03,3553,1,17,100.0,0.96,0.87,12.81,0.0,121.0,57,58,0,0,82,0,0,0,0,0,28,30,31,32,32,32,32,31,32,36,37,38,38,38,38,38,26,26,26,26,26,25,24,22,25,29,31,31,32,32,33,34,0.0,0.0,0.0,0.0,0,0,0.0,0,0.0,-1,0.0,0,0.0,4.6057
276360,0,4.606,,,,,,,,,,,,,,,,,,,,,,,,,,,,,,,,,,,,28,30,31,32,32,32,32,31,32,36,37,38,38,38,38,38,26,26,26,26,26,25,24,22,25,28,31,31,32,32,34,34,,,,,,,,,,,,,,
276380,0,4.6063,,-0.04,-0.02,-0.53,0,0,1,0.53,1.02,52,,,,,,,,,,,,,,,,,,,,,,,,,,29,30,31,32,32,32,32,31,32,36,37,38,38,38,38,38,26,26,26,26,26,25,24,22,25,28,31,31,32,32,34,34,,,,,,,,,,,,,,
276400,0,4.6067,,,,,,,,,,,,,,,,,,,,,,,,,,,,,,,,,,,,29,30,31,32,32,32,32,31,32,36,37,38,38,38,38,38,26,26,26,26,26,25,24,22,25,28,31,31,32,32,34,34,,,,,,,,,,,,,,
276420,0,4.607,,0.15,-0.05,-0.57,-0,2,2,0.59,1.02,57,,,,,,,,,,,,,,,,,,,,,,,,,,29,30,31,32,32,32,32,31,32,36,37,38,38,38,38,38,26,26,26,26,26,25,24,22,25,28,31,31,32,32,33,34,,,,,,,,,,,,,,
276440,0,4.6073,,,,,,,,,,,-2,108.69,27.12,67.02,112.95,13.01,3527,1,17,100.0,0.96,0.88,12.81,0.0,118.0,57,58,0,0,82,0,0,0,0,0,29,30,31,32,32,32,32,31,31,36,37,38,38,37,38,38,26,26,26,26,26,25,24,22,25,28,31,31,32,32,33,34,0.0,0.0,0.0,0.0,0,0,0.0,0,0.0,-1,0.0,0,0.0,4.6073
276460,0,4.6077,,0.15,0.04,-0.43,0,1,1,0.46,1.02,45,,,,,,,,,,,,,,,,,,,,,,,,,,29,30,31,32,32,32,32,31,31,36,37,38,38,37,38,38,26,26,26,26,26,25,24,22,25,28,31,31,32,32,33,34,,,,,,,,,,,,,,
276480,0,4.608,,,,,,,,,,,,,,,,,,,,,,,,,,,,,,,,,,,,29,30,31,32,32,32,32,31,31,36,37,38,38,37,38,38,26,26,26,26,26,25,24,22,25,28,31,31,32,32,33,33,,,,,,,,,,,,,,
276500,0,4.6083,,0.0,0.01,-0.46,-0,3,2,0.46,1.02,45,,,,,,,,,,,,,,,,,,,,,,,,,,29,30,31,32,32,32,31,30,31,36,36,38,38,37,38,38,26,26,26,26,26,25,24,22,25,28,31,31,32,32,33,33,,,,,,,,,,,,,,
276520,0,4.6087,,,,,,,,,,,,,,,,,,,,,,,,,,,,,,,,,,,,29,30,31,32,32,32,31,30,31,36,36,38,38,37,38,38,26,26,26,26,26,25,24,22,25,28,31,31,32,32,33,33,,,,,,,,,,,,,,
276540,0,4.609,,0.17,0.01,-0.34,0,1,2,0.38,1.02,37,-2,108.81,27.12,67.02,113.94,13.04,3609,1,17,100.0,0.96,0.88,12.81,0.0,122.0,57,58,0,0,82,0,0,0,0,0,29,30,31,32,32,32,31,30,31,36,36,38,38,37,38,38,26,26,26,26,26,25,24,22,25,28,31,31,32,32,33,34,0.0,0.0,0.0,0.0,0,0,0.0,0,0.0,-1,0.0,0,0.0,4.609
276560,0,4.6093,,,,,,,,,,,,,,,,,,,,,,,,,,,,,,,,,,,,29,30,32,32,32,32,32,32,31,36,36,38,38,37,38,38,26,26,26,26,26,25,24,22,25,28,31,31,32,32,33,34,,,,,,,,,,,,,,
276580,0,4.6097,,0.01,0.05,-0.46,0,1,2,0.47,1.02,46,,,,,,,,,,,,,,,,,,,,,,,,,,29,30,32,32,32,32,32,32,32,36,37,38,38,37,38,38,26,26,26,26,26,25,24,22,25,28,31,31,32,32,33,34,,,,,,,,,,,,,,
276600,0,4.61,,,,,,,,,,,,,,,,,,,,,,,,,,,,,,,,,,,,29,30,32,32,32,32,32,32,32,36,37,38,38,37,38,38,25,26,26,26,26,25,24,22,25,28,31,31,32,32,33,34,,,,,,,,,,,,,,
276620,0,4.6103,,0.18,0.0,-0.37,0,2,2,0.41,1.02,40,,,,,,,,,,,,,,,,,,,,,,,,,,29,30,31,32,32,32,32,31,32,36,37,38,38,37,38,38,25,26,26,26,26,25,24,22,25,28,31,31,32,32,33,34,,,,,,,,,,,,,,
276640,0,4.6107,,,,,,,,,,,-2,108.69,27.12,67.02,110.19,13.03,3611,1,17,100.0,0.96,0.87,12.82,0.0,122.0,57,58,0,0,82,0,0,0,0,0,29,30,31,32,32,32,32,31,32,36,37,38,38,37,38,38,25,26,26,26,26,25,24,22,25,28,31,31,32,32,33,34,0.0,0.0,0.0,0.0,0,0,0.0,0,0.0,-1,0.0,0,0.0,4.6107
276660,0,4.611,,0.04,0.01,-0.15,0,3,2,0.16,1.02,15,,,,,,,,,,,,,,,,,,,,,,,,,,29,30,31,32,32,32,32,31,32,36,37,38,38,37,38,38,26,26,26,26,26,25,24,22,25,28,31,31,32,32,33,34,,,,,,,,,,,,,,
276680,0,4.6113,,,,,,,,,,,,,,,,,,,,,,,,,,,,,,,,,,,,29,30,31,32,32,32,32,31,32,36,37,38,38,37,38,38,26,26,26,26,26,25,24,22,24,29,31,31,32,32,33,34,,,,,,,,,,,,,,
276700,0,4.6117,,0.13,-0.02,0.06,-0,4,2,0.15,1.02,14,,,,,,,,,,,,,,,,,,,,,,,,,,29,30,31,32,32,32,32,31,32,36,37,38,38,38,38,38,26,26,26,26,26,25,24,22,24,29,31,31,32,32,33,34,,,,,,,,,,,,,,
276720,0,4.612,,,,,,,,,,,,,,,,,,,,,,,,,,,,,,,,,,,,29,30,31,32,32,32,32,31,32,36,37,38,38,38,38,38,26,26,26,26,26,25,24,22,24,29,31,31,32,32,33,34,,,,,,,,,,,,,,
276740,0,4.6123,,0.06,0.02,0.08,0,3,2,0.1,1.02,10,-2,108.48,27.12,67.02,111.18,13.06,3482,1,17,100.0,0.96,0.82,12.81,0.0,123.0,57,58,0,0,82,0,0,0,0,0,29,30,31,32,32,32,32,31,32,36,37,38,38,38,38,38,26,26,26,26,26,25,24,22,25,29,31,32,32,32,33,34,0.0,0.0,0.0,0.0,0,0,0.0,0,0.0,-1,0.0,0,0.0,4.6123
276760,0,4.6127,,,,,,,,,,,,,,,,,,,,,,,,,,,,,,,,,,,,29,30,31,32,32,32,31,31,32,36,37,38,38,38,38,38,26,26,26,26,26,25,24,22,25,29,31,32,32,32,33,34,,,,,,,,,,,,,,
276780,0,4.613,,0.11,-0.02,0.24,-0,5,3,0.27,1.02,26,,,,,,,,,,,,,,,,,,,,,,,,,,29,30,31,32,32,32,31,31,32,36,37,38,38,38,38,38,26,26,26,26,26,25,24,22,25,29,31,32,32,32,33,34,,,,,,,,,,,,,,
276800,0,4.6133,,,,,,,,,,,,,,,,,,,,,,,,,,,,,,,,,,,,29,30,31,32,32,32,31,31,32,36,37,38,38,38,38,38,26,26,26,26,26,25,24,22,25,29,31,31,32,32,34,34,,,,,,,,,,,,,,
276820,0,4.6137,,0.11,0.06,0.23,0,3,2,0.26,1.02,25,,,,,,,,,,,,,,,,,,,,,,,,,,29,30,31,32,32,32,32,31,32,36,37,38,38,38,38,38,26,26,26,26,26,25,24,22,25,29,31,31,32,32,34,34,,,,,,,,,,,,,,
276840,0,4.614,,,,,,,,,,,-2,108.6,27.12,67.02,112.95,13.02,3527,1,17,100.0,0.96,0.84,12.82,0.0,125.0,57,58,0,0,82,0,0,0,0,0,29,30,31,32,32,32,32,31,32,36,37,38,38,38,38,38,26,26,26,26,26,25,24,22,25,29,31,31,32,32,34,34,0.0,0.0,0.0,0.0,0,0,0.0,0,0.0,-1,0.0,0,0.0,4.614
276860,0,4.6143,,0.01,0.02,0.01,0,3,2,0.03,1.02,3,,,,,,,,,,,,,,,,,,,,,,,,,,29,30,31,32,32,32,32,31,32,36,37,38,38,38,38,38,26,26,26,26,26,25,24,22,24,28,31,31,32,32,33,33,,,,,,,,,,,,,,
276880,0,4.6147,,,,,,,,,,,,,,,,,,,,,,,,,,,,,,,,,,,,29,30,31,32,32,32,32,31,32,36,37,38,38,38,38,38,26,26,26,26,26,25,24,22,24,28,31,31,32,32,33,33,,,,,,,,,,,,,,
276900,0,4.615,,0.17,0.03,0.03,0,2,1,0.17,1.02,17,,,,,,,,,,,,,,,,,,,,,,,,,,29,30,31,32,32,32,32,31,32,36,37,38,38,38,38,38,26,26,26,26,26,25,24,22,24,28,31,31,32,32,33,33,,,,,,,,,,,,,,
276920,0,4.6153,,,,,,,,,,,,,,,,,,,,,,,,,,,,,,,,,,,,29,30,31,32,32,32,32,31,32,36,37,38,38,38,38,38,26,26,26,26,26,25,24,22,25,28,31,31,32,32,34,33,,,,,,,,,,,,,,
276940,0,4.6157,,-0.05,0.01,-0.06,0,2,1,0.08,1.02,8,-2,108.6,27.12,66.93,108.57,13.04,3561,1,17,100.0,0.96,0.84,12.81,0.0,123.0,56,57,0,0,82,0,0,0,0,0,29,30,31,32,32,32,32,31,32,36,37,38,38,38,38,38,26,26,26,26,26,25,24,22,25,28,31,31,32,32,34,33,0.0,0.0,0.0,0.0,0,0,0.0,0,0.0,-1,0.0,0,0.0,4.6157
276960,0,4.616,,,,,,,,,,,,,,,,,,,,,,,,,,,,,,,,,,,,29,30,31,32,32,32,32,31,32,36,37,38,38,38,38,38,26,26,26,26,26,25,24,22,25,28,31,31,32,32,34,33,,,,,,,,,,,,,,
276980,0,4.6163,,0.14,-0.03,-0.28,0,0,0,0.32,1.02,31,,,,,,,,,,,,,,,,,,,,,,,,,,29,30,31,32,32,32,32,31,32,36,37,38,38,38,38,38,26,26,26,26,26,25,24,22,25,29,31,31,32,32,34,34,,,,,,,,,,,,,,
277000,0,4.6167,,,,,,,,,,,,,,,,,,,,,,,,,,,,,,,,,,,,28,30,31,32,32,32,31,30,32,36,37,38,38,38,38,38,26,26,26,26,26,25,24,22,25,29,31,31,32,32,34,34,,,,,,,,,,,,,,
277020,0,4.617,,0.03,-0.01,-0.11,0,1,1,0.11,1.02,11,,,,,,,,,,,,,,,,,,,,,,,,,,28,30,31,32,32,32,31,30,32,36,37,38,38,37,38,38,26,26,26,26,26,25,24,22,25,29,31,31,32,32,34,34,,,,,,,,,,,,,,
277040,0,4.6173,,,,,,,,,,,-2,108.6,27.0,66.81,114.72,13.05,3395,1,17,100.0,0.96,0.83,12.8,0.0,123.0,56,57,0,0,82,0,0,0,0,0,28,30,31,32,32,32,31,30,32,36,37,38,38,37,38,38,26,26,26,26,26,25,24,22,25,29,31,31,32,32,34,34,0.0,0.0,0.0,0.0,0,0,0.0,0,0.0,-1,0.0,0,0.0,4.6173
277060,0,4.6177,,-0.05,-0.02,-0.23,-0,0,1,0.23,1.02,23,,,,,,,,,,,,,,,,,,,,,,,,,,29,30,31,32,32,32,32,31,32,36,37,38,38,37,38,38,26,26,26,26,26,25,24,22,25,29,31,31,32,32,34,34,,,,,,,,,,,,,,
277080,0,4.618,,,,,,,,,,,,,,,,,,,,,,,,,,,,,,,,,,,,29,30,31,32,32,32,32,31,32,36,37,37,38,38,38,38,26,26,26,26,26,25,24,22,25,29,31,31,32,32,34,34,,,,,,,,,,,,,,
277100,0,4.6183,,0.18,0.02,-0.3,0,-1,0,0.35,1.02,34,,,,,,,,,,,,,,,,,,,,,,,,,,29,30,31,32,32,32,32,31,32,36,37,37,38,38,38,38,26,26,26,26,26,25,24,22,25,29,31,31,32,32,34,34,,,,,,,,,,,,,,
277120,0,4.6187,,,,,,,,,,,,,,,,,,,,,,,,,,,,,,,,,,,,29,30,31,32,32,32,32,31,32,36,37,37,38,38,38,38,26,26,26,26,26,26,24,22,25,29,31,32,32,32,34,34,,,,,,,,,,,,,,
