"Interval"|"ms"|0|0|1,"Utc"|"ms"|0|0|1,"ElapsedTime"|"Min"|0.0|0.0|10,"Battery"|"Volts"|0.0|20.0|1,"AccelX"|"G"|-3.0|3.0|25,"AccelY"|"G"|-3.0|3.0|25,"AccelZ"|"G"|-3.0|3.0|25,"Yaw"|"Deg/Sec"|-120|120|25,"Pitch"|"Deg/Sec"|-120|120|25,"Roll"|"Deg/Sec"|-120|120|25,"Gsum"|"G"|0.0|3.0|25,"GsumMax"|"G"|0.0|3.0|25,"GsumPct"|"%"|0|100|25,"StAngle"|"Deg"|-100|100|10,"SuspPosFL"|"mm"|0.0|150.0|10,"SuspPosFR"|"mm"|0.0|150.0|10,"SuspPosRL"|"mm"|0.0|150.0|10,"SuspPosRR"|"mm"|0.0|150.0|10,"ADL_BAT"|"V"|0.0|20.0|10,"RPM"|""|0|20000|10,"TPS"|"%"|0|100|10,"IAT"|"F"|0|300|10,"MAP"|"KPa"|0.0|255.0|10,"LambdaAim"|""|0.0|1.75|10,"Lambda"|""|0.0|1.75|10,"ECU_BAT"|"V"|0.0|20.0|10,"FuelCut"|""|0.0|100.0|10,"InjDuty"|"%"|0.0|100.0|10,"BrakePres-F"|"psi"|0|1200|10,"BrakePres-R"|"psi"|0|1200|10,"AuxUpDuty"|"%"|0|100|10,"AuxDownDuty"|"%"|0|100|10,"EngineTemp"|"F"|0|300|10,"WheelSpdRL"|""|0|100|10,"WheelSpdRR"|""|0|100|10,"WheelSpdFL"|""|0|100|10,"WheelSpdFR"|""|0|100|10,"Gear"|""|0|10|10,"TireTmpLF1"|"C"|-40|200|50,"TireTmpLF2"|"C"|-40|200|50,"TireTmpLF3"|"C"|-40|200|50,"TireTmpLF4"|"C"|-40|200|50,"TireTmpLF5"|"C"|-40|200|50,"TireTmpLF6"|"C"|-40|200|50,"TireTmpLF7"|"C"|-40|200|50,"TireTmpLF8"|"C"|-40|200|50,"TireTmpRF1"|"C"|-40|200|50,"TireTmpRF2"|"C"|-40|200|50,"TireTmpRF3"|"C"|-40|200|50,"TireTmpRF4"|"C"|-40|200|50,"TireTmpRF5"|"C"|-40|200|50,"TireTmpRF6"|"C"|-40|200|50,"TireTmpRF7"|"C"|-40|200|50,"TireTmpRF8"|"C"|-40|200|50,"TireTmpLR1"|"C"|-40|200|50,"TireTmpLR2"|"C"|-40|200|50,"TireTmpLR3"|"C"|-40|200|50,"TireTmpLR4"|"C"|-40|200|50,"TireTmpLR5"|"C"|-40|200|50,"TireTmpLR6"|"C"|-40|200|50,"TireTmpLR7"|"C"|-40|200|50,"TireTmpLR8"|"C"|-40|200|50,"TireTmpRR1"|"C"|-40|200|50,"TireTmpRR2"|"C"|-40|200|50,"TireTmpRR3"|"C"|-40|200|50,"TireTmpRR4"|"C"|-40|200|50,"TireTmpRR5"|"C"|-40|200|50,"TireTmpRR6"|"C"|-40|200|50,"TireTmpRR7"|"C"|-40|200|50,"TireTmpRR8"|"C"|-40|200|50,"Latitude"|"Degrees"|-180.0|180.0|10,"Longitude"|"Degrees"|-180.0|180.0|10,"Speed"|"kph"|0.0|150.0|10,"Altitude"|"m"|0.0|4000.0|10,"GPSSats"|""|0|20|10,"GPSQual"|""|0|5|10,"GPSDOP"|""|0.0|20.0|10,"LapCount"|""|0|0|10,"LapTime"|"Min"|0.0|0.0|10,"Sector"|""|0|0|10,"SectorTime"|"Min"|0.0|0.0|10,"CurrentLap"|""|0|0|10,"Distance"|"mi"|0.0|0.0|10,"SessionTime"|"Min"|0.0|0.0|10
352859,0,5.881,,0.07,-0.01,-0.1,-0,-0,-0,0.12,1.01,12,,,,,,,,,,,,,,,,,,,,,,,,,,32,32,32,32,32,31,31,30,26,27,28,28,28,27,27,28,32,30,29,29,30,32,34,31,30,30,31,32,34,34,34,33,,,,,,,,,,,,,,
352879,0,5.8813,,,,,,,,,,,,,,,,,,,,,,,,,,,,,,,,,,,,32,32,32,32,32,31,31,30,26,27,28,28,28,27,27,28,32,30,29,29,30,32,34,31,30,30,31,32,34,34,34,33,,,,,,,,,,,,,,
352899,0,5.8816,,0.04,0.02,-0.05,-0,-1,-0,0.07,1.01,7,,,,,,,,,,,,,,,,,,,,,,,,,,32,32,32,32,32,31,31,30,26,27,28,28,28,27,27,28,32,30,29,29,30,32,34,31,30,30,32,32,34,34,35,33,,,,,,,,,,,,,,
352919,0,5.882,,,,,,,,,,,,,,,,,,,,,,,,,,,,,,,,,,,,32,32,32,32,32,32,31,30,26,27,28,28,28,27,27,28,32,30,29,29,30,32,34,31,30,30,32,32,34,34,35,33,,,,,,,,,,,,,,
352939,0,5.8823,,-0.08,-0.0,-0.06,-0,0,0,0.1,1.01,10,8,115.38,29.97,71.52,118.68,12.96,3156,1,19,54.4,0.96,0.9,12.65,0.0,114.0,61,61,0,0,64,0,0,0,0,1,32,32,32,32,32,32,31,30,26,27,28,28,28,27,27,28,32,30,29,29,30,32,34,31,30,30,32,32,34,34,35,33,0.0,0.0,0.0,0.0,0,0,0.0,0,0.0,-1,0.0,0,0.0,5.8823
352959,0,5.8826,,,,,,,,,,,,,,,,,,,,,,,,,,,,,,,,,,,,32,32,32,32,32,32,31,30,26,27,28,28,28,27,27,28,32,30,29,29,30,32,34,31,30,30,32,32,34,34,35,33,,,,,,,,,,,,,,
352979,0,5.883,,-0.05,0.01,0.03,-0,0,0,0.06,1.01,6,,,,,,,,,,,,,,,,,,,,,,,,,,32,32,32,32,32,32,31,30,26,27,28,27,27,27,27,27,32,30,29,29,30,32,34,31,30,30,32,32,34,34,35,33,,,,,,,,,,,,,,
352999,0,5.8833,,,,,,,,,,,,,,,,,,,,,,,,,,,,,,,,,,,,32,32,32,32,32,32,31,30,26,27,28,27,27,27,27,27,32,30,29,29,30,32,34,31,30,30,32,32,34,34,35,33,,,,,,,,,,,,,,
353019,0,5.8836,,0.12,0.02,-0.07,0,-0,-0,0.14,1.01,14,,,,,,,,,,,,,,,,,,,,,,,,,,32,32,32,32,32,32,31,30,26,27,28,27,27,27,27,27,32,30,29,29,30,32,34,31,30,30,32,32,34,34,35,33,,,,,,,,,,,,,,
353039,0,5.884,,,,,,,,,,,9,115.05,30.06,71.85,112.17,12.96,3425,1,19,53.6,0.96,0.89,12.64,0.0,120.0,63,62,0,0,64,0,0,0,0,1,32,32,32,32,32,32,31,30,26,27,27,27,28,27,27,27,32,30,29,29,30,32,34,31,30,30,32,32,34,34,35,33,0.0,0.0,0.0,0.0,0,0,0.0,0,0.0,-1,0.0,0,0.0,5.884
353059,0,5.8843,,-0.03,0.03,-0.16,0,-0,-0,0.16,1.01,16,,,,,,,,,,,,,,,,,,,,,,,,,,32,32,32,32,32,32,31,30,26,27,27,27,28,27,27,27,32,30,29,29,30,32,34,31,30,30,32,32,34,34,35,33,,,,,,,,,,,,,,
353079,0,5.8847,,,,,,,,,,,,,,,,,,,,,,,,,,,,,,,,,,,,32,32,32,32,32,32,31,30,26,27,27,27,28,27,27,27,32,30,29,29,30,32,34,31,30,30,32,32,34,34,35,33,,,,,,,,,,,,,,
353099,0,5.885,,-0.06,0.03,-0.16,-0,-0,-0,0.17,1.01,17,,,,,,,,,,,,,,,,,,,,,,,,,,32,32,32,32,32,32,31,30,26,27,28,28,28,27,27,27,32,30,29,29,30,32,34,31,30,30,32,32,34,34,35,33,,,,,,,,,,,,,,
353119,0,5.8853,,,,,,,,,,,,,,,,,,,,,,,,,,,,,,,,,,,,32,32,32,32,32,32,31,30,26,27,28,28,28,27,27,27,32,30,29,29,30,32,34,31,30,30,32,32,34,34,35,33,,,,,,,,,,,,,,
353139,0,5.8857,,0.11,0.04,-0.15,0,-1,-1,0.19,1.01,19,9,115.05,30.06,71.97,111.96,12.94,3596,1,19,53.8,0.96,0.88,12.65,0.0,123.0,63,62,0,0,64,0,0,0,0,1,32,32,32,32,32,32,31,30,26,27,28,28,28,27,27,27,32,30,29,29,30,32,34,31,30,30,32,32,34,34,35,33,0.0,0.0,0.0,0.0,0,0,0.0,0,0.0,-1,0.0,0,0.0,5.8857
353159,0,5.886,,,,,,,,,,,,,,,,,,,,,,,,,,,,,,,,,,,,32,32,32,32,32,32,31,30,26,27,28,28,28,27,27,28,32,30,29,29,30,32,34,31,30,30,31,32,34,34,35,33,,,,,,,,,,,,,,
353179,0,5.8863,,-0.04,-0.03,-0.12,0,1,0,0.13,1.01,13,,,,,,,,,,,,,,,,,,,,,,,,,,32,32,32,32,32,32,31,30,26,27,28,28,28,27,27,28,32,30,29,29,30,32,34,31,30,30,31,32,34,34,35,33,,,,,,,,,,,,,,
353199,0,5.8867,,,,,,,,,,,,,,,,,,,,,,,,,,,,,,,,,,,,32,32,32,32,32,32,31,30,26,27,28,28,28,27,27,28,32,30,29,29,30,32,34,31,30,30,31,32,34,34,35,33,,,,,,,,,,,,,,
353219,0,5.887,,0.18,-0.04,-0.11,0,1,1,0.21,1.01,21,,,,,,,,,,,,,,,,,,,,,,,,,,32,32,32,32,32,32,31,30,26,28,28,27,28,27,28,27,32,30,29,29,30,32,34,31,30,30,32,32,34,34,35,33,,,,,,,,,,,,,,
353239,0,5.8873,,,,,,,,,,,9,115.17,29.97,71.97,120.21,12.96,3630,1,19,52.9,0.96,0.88,12.64,0.0,125.0,63,62,0,0,64,0,0,0,0,1,32,32,32,32,32,31,31,30,26,28,28,27,28,27,28,27,32,30,29,29,30,32,34,31,30,30,32,32,34,34,35,33,0.0,0.0,0.0,0.0,0,0,0.0,0,0.0,-1,0.0,0,0.0,5.8873
353259,0,5.8876,,0.03,0.01,-0.27,0,2,0,0.28,1.01,27,,,,,,,,,,,,,,,,,,,,,,,,,,32,32,32,32,32,31,31,30,26,28,28,27,28,27,28,27,32,30,29,29,30,32,34,31,30,30,32,32,34,34,35,33,,,,,,,,,,,,,,
353279,0,5.888,,,,,,,,,,,,,,,,,,,,,,,,,,,,,,,,,,,,32,32,32,32,32,31,31,30,26,27,28,28,28,27,27,28,32,30,29,29,30,32,34,31,30,30,31,32,34,34,35,33,,,,,,,,,,,,,,
353299,0,5.8883,,0.04,0.01,-0.18,0,2,0,0.18,1.01,18,,,,,,,,,,,,,,,,,,,,,,,,,,32,32,32,32,32,32,31,30,26,27,28,28,28,27,27,28,32,30,29,29,30,32,34,31,30,30,31,32,34,34,35,33,,,,,,,,,,,,,,
353319,0,5.8886,,,,,,,,,,,,,,,,,,,,,,,,,,,,,,,,,,,,32,32,32,32,32,32,31,30,26,27,28,28,28,27,27,28,32,30,29,29,30,32,34,31,30,30,31,32,34,34,35,33,,,,,,,,,,,,,,
353339,0,5.889,13.15,0.13,0.01,-0.03,0,1,0,0.13,1.01,13,8,115.29,29.85,71.76,116.79,12.93,3519,1,19,53.1,0.96,0.83,12.65,0.0,120.0,63,62,0,0,64,0,0,0,0,1,32,32,32,32,32,32,31,30,26,27,28,28,28,27,27,28,32,30,29,29,30,32,34,31,30,30,31,32,34,34,35,33,0.0,0.0,0.0,0.0,0,0,0.0,0,0.0,-1,0.0,0,0.0,5.889
353359,0,5.8893,,,,,,,,,,,,,,,,,,,,,,,,,,,,,,,,,,,,32,32,32,32,32,32,31,30,26,27,27,27,27,27,27,27,32,30,29,29,30,32,34,31,30,30,32,33,34,34,35,33,,,,,,,,,,,,,,
353379,0,5.8896,,-0.03,-0.04,-0.15,0,1,1,0.16,1.01,16,,,,,,,,,,,,,,,,,,,,,,,,,,32,32,32,32,32,32,31,30,26,27,27,27,27,27,27,27,32,30,29,29,30,32,34,31,30,30,32,33,34,34,35,33,,,,,,,,,,,,,,
353399,0,5.89,,,,,,,,,,,,,,,,,,,,,,,,,,,,,,,,,,,,32,32,32,32,32,32,31,30,26,27,27,27,27,27,27,27,32,30,29,29,30,32,34,31,30,30,32,33,34,34,35,33,,,,,,,,,,,,,,
353419,0,5.8903,,0.17,-0.01,-0.15,0,2,1,0.23,1.01,22,,,,,,,,,,,,,,,,,,,,,,,,,,32,32,32,32,32,32,31,31,26,27,28,27,27,27,27,28,32,30,29,29,30,32,34,31,30,30,32,33,34,34,35,34,,,,,,,,,,,,,,
353439,0,5.8906,,,,,,,,,,,8,115.38,29.97,71.52,119.22,12.94,3584,1,19,53.8,0.96,0.88,12.64,0.0,117.0,62,62,0,0,64,0,0,0,0,1,32,32,32,32,32,32,31,31,26,27,28,27,27,27,27,28,32,30,29,29,30,32,34,31,30,30,32,33,34,34,35,34,0.0,0.0,0.0,0.0,0,0,0.0,0,0.0,-1,0.0,0,0.0,5.8906
353459,0,5.891,,0.13,0.03,-0.09,0,1,1,0.16,1.01,16,,,,,,,,,,,,,,,,,,,,,,,,,,32,32,32,32,32,32,31,31,26,27,28,27,27,27,27,28,32,30,29,29,30,32,34,31,30,30,32,33,34,34,35,34,,,,,,,,,,,,,,
353479,0,5.8913,,,,,,,,,,,,,,,,,,,,,,,,,,,,,,,,,,,,32,32,32,32,32,32,31,31,26,27,28,27,27,27,27,28,32,30,29,29,30,32,34,31,30,30,32,32,34,34,35,33,,,,,,,,,,,,,,
353499,0,5.8917,,0.06,0.01,-0.15,0,2,1,0.17,1.01,16,,,,,,,,,,,,,,,,,,,,,,,,,,32,32,32,32,32,32,31,31,26,27,28,27,27,27,27,28,32,30,29,29,30,32,34,31,30,30,32,32,34,34,35,33,,,,,,,,,,,,,,
353519,0,5.892,,,,,,,,,,,,,,,,,,,,,,,,,,,,,,,,,,,,32,32,32,32,32,32,31,31,26,27,28,27,27,27,27,28,32,30,29,29,30,32,34,31,30,30,32,32,34,34,35,33,,,,,,,,,,,,,,
353539,0,5.8923,,0.26,0.06,-0.21,0,1,1,0.34,1.01,33,9,115.29,29.97,71.64,120.3,12.97,3625,1,19,53.5,0.96,0.86,12.65,0.0,126.0,62,61,0,0,64,0,0,0,0,1,32,32,32,32,32,32,31,31,26,28,28,28,28,27,28,28,32,30,29,29,30,32,34,31,31,30,32,32,34,34,35,33,0.0,0.0,0.0,0.0,0,0,0.0,0,0.0,-1,0.0,0,0.0,5.8923
353559,0,5.8927,,,,,,,,,,,,,,,,,,,,,,,,,,,,,,,,,,,,32,32,32,32,32,32,31,31,26,28,28,28,28,27,28,28,32,30,29,29,30,32,34,31,31,30,32,32,34,34,35,33,,,,,,,,,,,,,,
353579,0,5.893,,0.07,0.04,-0.33,0,1,0,0.34,1.01,33,,,,,,,,,,,,,,,,,,,,,,,,,,32,32,32,32,32,32,31,31,26,28,28,28,28,27,28,28,32,30,29,29,30,32,34,31,31,30,32,32,34,34,35,33,,,,,,,,,,,,,,
353599,0,5.8933,,,,,,,,,,,,,,,,,,,,,,,,,,,,,,,,,,,,32,32,32,32,32,32,31,31,26,27,28,27,28,27,27,28,32,30,29,29,30,32,34,31,30,30,32,32,34,34,35,33,,,,,,,,,,,,,,
353619,0,5.8937,,0.24,0.03,-0.3,0,1,0,0.38,1.01,38,,,,,,,,,,,,,,,,,,,,,,,,,,32,32,32,32,32,32,31,30,26,27,28,27,28,27,27,28,32,30,29,29,30,32,34,31,30,30,32,32,34,34,35,33,,,,,,,,,,,,,,
353639,0,5.894,,,,,,,,,,,8,115.17,29.97,71.64,116.37,12.96,3591,1,19,53.7,0.96,0.85,12.64,0.0,119.0,62,62,0,0,64,0,0,0,0,1,32,32,32,32,32,32,31,30,26,27,28,27,28,27,27,28,32,30,29,29,30,32,34,31,30,30,32,32,34,34,35,33,0.0,0.0,0.0,0.0,0,0,0.0,0,0.0,-1,0.0,0,0.0,5.894
353659,0,5.8943,,0.2,0.06,-0.2,0,1,0,0.28,1.01,28,,,,,,,,,,,,,,,,,,,,,,,,,,32,32,32,32,32,32,31,30,26,27,27,27,27,27,27,28,32,30,29,29,30,32,34,31,30,30,32,32,34,34,35,33,,,,,,,,,,,,,,
353679,0,5.8946,,,,,,,,,,,,,,,,,,,,,,,,,,,,,,,,,,,,32,32,32,32,32,31,31,30,26,27,27,27,27,27,27,28,32,30,29,29,30,32,34,31,30,30,32,32,34,34,35,33,,,,,,,,,,,,,,
353699,0,5.895,,0.04,0.05,-0.17,0,0,-0,0.18,1.01,18,,,,,,,,,,,,,,,,,,,,,,,,,,32,32,32,32,32,31,31,30,26,27,27,27,27,27,27,28,32,30,29,29,30,32,34,31,30,30,32,32,34,34,35,33,,,,,,,,,,,,,,
353719,0,5.8953,,,,,,,,,,,,,,,,,,,,,,,,,,,,,,,,,,,,32,32,32,32,32,31,31,30,26,27,27,27,27,27,27,28,32,30,29,29,30,32,34,31,30,30,32,32,34,34,35,33,,,,,,,,,,,,,,
353739,0,5.8956,,0.22,0.04,-0.09,0,0,0,0.24,1.01,24,9,115.17,29.85,71.85,116.58,12.96,3711,1,19,55.8,0.96,0.87,12.65,0.0,126.0,62,62,0,0,64,0,0,0,0,1,32,32,32,32,32,31,31,31,26,27,27,28,27,27,27,28,32,30,29,29,30,32,34,31,30,30,32,33,34,34,35,34,0.0,0.0,0.0,0.0,0,0,0.0,0,0.0,-1,0.0,0,0.0,5.8956
353759,0,5.896,,,,,,,,,,,,,,,,,,,,,,,,,,,,,,,,,,,,32,32,32,32,32,31,31,31,26,27,27,28,27,27,27,28,32,30,29,29,30,32,34,31,30,30,32,33,34,34,35,34,,,,,,,,,,,,,,
353779,0,5.8963,,0.02,0.03,-0.24,0,-1,-0,0.24,1.01,24,,,,,,,,,,,,,,,,,,,,,,,,,,32,32,32,32,32,31,31,31,26,27,27,28,27,27,27,28,32,30,29,29,30,32,34,31,30,30,32,33,34,34,35,34,,,,,,,,,,,,,,
353799,0,5.8966,,,,,,,,,,,,,,,,,,,,,,,,,,,,,,,,,,,,32,32,32,32,32,32,31,30,26,27,28,27,28,27,27,28,32,30,29,29,30,32,34,31,30,30,31,32,34,34,35,33,,,,,,,,,,,,,,
353819,0,5.897,,0.21,0.0,-0.4,0,-0,-0,0.46,1.01,45,,,,,,,,,,,,,,,,,,,,,,,,,,32,32,32,32,32,32,31,30,26,27,28,27,28,27,27,28,32,30,29,29,30,32,34,31,30,30,31,32,34,34,35,33,,,,,,,,,,,,,,
353839,0,5.8973,,,,,,,,,,,9,115.5,29.85,71.76,115.47,12.96,3707,1,19,52.1,0.96,0.84,12.65,0.0,122.0,63,62,0,0,64,0,0,0,0,1,32,32,32,32,32,32,31,30,26,27,28,27,28,27,27,28,32,30,29,29,30,32,34,31,30,30,31,32,34,34,35,33,0.0,0.0,0.0,0.0,0,0,0.0,0,0.0,-1,0.0,0,0.0,5.8973
353859,0,5.8976,,0.13,-0.02,-0.15,0,2,1,0.2,1.01,20,,,,,,,,,,,,,,,,,,,,,,,,,,32,32,32,32,32,32,31,30,26,27,28,28,28,27,27,28,32,30,29,29,30,32,34,31,30,30,32,33,34,34,35,33,,,,,,,,,,,,,,
353879,0,5.898,,,,,,,,,,,,,,,,,,,,,,,,,,,,,,,,,,,,32,32,32,32,32,32,31,30,26,27,28,28,28,27,27,28,32,30,29,29,30,32,34,31,30,30,32,33,34,34,35,33,,,,,,,,,,,,,,
353899,0,5.8983,,0.09,-0.0,-0.07,0,2,1,0.12,1.01,11,,,,,,,,,,,,,,,,,,,,,,,,,,32,32,32,32,32,32,31,30,26,27,28,28,28,27,27,28,32,30,29,29,30,32,34,31,30,30,32,33,34,34,35,33,,,,,,,,,,,,,,
353919,0,5.8987,,,,,,,,,,,,,,,,,,,,,,,,,,,,,,,,,,,,32,32,32,32,32,32,31,30,26,28,28,28,28,28,28,28,32,30,29,29,30,32,34,31,30,30,32,32,34,34,35,33,,,,,,,,,,,,,,
353939,0,5.899,,0.22,0.04,-0.03,0,2,1,0.22,1.01,22,9,115.29,29.85,71.85,113.49,12.95,3568,1,18,52.4,0.96,0.82,12.65,0.0,123.0,63,62,0,0,64,0,0,0,0,1,32,32,32,32,32,32,31,30,26,28,28,28,28,28,28,28,32,30,29,29,30,32,34,31,30,30,32,32,34,34,35,33,0.0,0.0,0.0,0.0,0,0,0.0,0,0.0,-1,0.0,0,0.0,5.899
353959,0,5.8993,,,,,,,,,,,,,,,,,,,,,,,,,,,,,,,,,,,,32,32,32,32,32,32,31,30,26,28,28,28,28,28,28,28,32,30,29,29,30,32,34,31,30,30,32,32,34,34,35,33,,,,,,,,,,,,,,
353979,0,5.8997,,0.03,0.01,-0.09,0,3,1,0.09,1.01,9,,,,,,,,,,,,,,,,,,,,,,,,,,32,32,32,32,32,32,31,30,26,27,28,28,28,28,28,28,32,30,29,29,30,32,34,31,30,30,31,32,34,34,34,33,,,,,,,,,,,,,,
353999,0,5.9,,,,,,,,,,,,,,,,,,,,,,,,,,,,,,,,,,,,32,32,32,32,32,32,32,31,26,27,28,28,28,28,28,28,32,30,29,29,30,32,34,31,30,30,31,32,34,34,34,33,,,,,,,,,,,,,,
354019,0,5.9003,,0.25,-0.0,-0.22,0,2,1,0.33,1.01,33,,,,,,,,,,,,,,,,,,,,,,,,,,32,32,32,32,32,32,32,31,26,27,28,28,28,28,28,28,32,30,29,29,30,32,34,31,30,30,31,32,34,34,34,33,,,,,,,,,,,,,,
354039,0,5.9006,,,,,,,,,,,9,115.29,29.73,71.85,120.96,12.95,3545,1,18,52.7,0.96,0.87,12.64,0.0,119.0,62,62,0,0,64,0,0,0,0,1,32,32,32,32,32,32,32,31,26,27,28,28,28,27,28,28,32,30,29,29,30,32,34,31,30,30,32,32,34,34,35,33,0.0,0.0,0.0,0.0,0,0,0.0,0,0.0,-1,0.0,0,0.0,5.9006
354059,0,5.901,,0.17,-0.0,-0.04,0,2,1,0.17,1.01,17,,,,,,,,,,,,,,,,,,,,,,,,,,32,32,32,32,32,32,31,30,26,27,28,28,28,27,28,28,32,30,29,29,30,32,34,31,30,30,32,32,34,34,35,33,,,,,,,,,,,,,,
354079,0,5.9013,,,,,,,,,,,,,,,,,,,,,,,,,,,,,,,,,,,,32,32,32,32,32,32,31,30,26,27,28,28,28,27,28,28,32,30,29,29,30,32,34,31,30,30,32,32,34,34,35,33,,,,,,,,,,,,,,
354099,0,5.9016,,0.07,-0.03,-0.04,0,3,1,0.09,1.01,9,,,,,,,,,,,,,,,,,,,,,,,,,,32,32,32,32,32,32,31,30,26,27,28,28,28,27,28,28,32,30,29,29,30,32,34,31,30,30,32,32,34,34,35,33,,,,,,,,,,,,,,
354119,0,5.902,,,,,,,,,,,,,,,,,,,,,,,,,,,,,,,,,,,,32,32,32,32,32,32,31,30,26,27,28,28,28,27,27,28,32,30,29,29,30,32,34,31,30,30,32,33,34,34,35,34,,,,,,,,,,,,,,
354139,0,5.9023,,0.29,-0.0,-0.11,0,2,1,0.31,1.01,31,8,115.5,29.73,71.64,115.47,12.94,3573,1,18,53.8,0.96,0.88,12.65,0.0,121.0,62,62,0,0,64,0,0,0,0,1,32,32,32,32,32,32,31,30,26,27,28,28,28,27,27,28,32,30,29,29,30,32,34,31,30,30,32,33,34,34,35,34,0.0,0.0,0.0,0.0,0,0,0.0,0,0.0,-1,0.0,0,0.0,5.9023
354159,0,5.9026,,,,,,,,,,,,,,,,,,,,,,,,,,,,,,,,,,,,32,32,32,32,32,32,31,30,26,27,28,28,28,27,27,28,32,30,29,29,30,32,34,31,30,30,32,33,34,34,35,34,,,,,,,,,,,,,,
354179,0,5.903,,0.15,0.01,-0.09,0,2,1,0.17,1.01,17,,,,,,,,,,,,,,,,,,,,,,,,,,32,32,32,32,32,32,31,31,26,28,28,28,28,28,28,28,32,30,29,29,30,32,34,31,30,30,31,33,34,34,35,34,,,,,,,,,,,,,,
354199,0,5.9033,,,,,,,,,,,,,,,,,,,,,,,,,,,,,,,,,,,,32,32,32,32,32,32,31,31,26,28,28,28,28,28,28,28,32,30,29,29,30,32,34,31,30,30,31,33,34,34,35,34,,,,,,,,,,,,,,
354219,0,5.9036,,-0.04,0.03,-0.09,0,1,0,0.1,1.01,10,,,,,,,,,,,,,,,,,,,,,,,,,,32,32,32,32,32,32,31,31,26,28,28,28,28,28,28,28,32,30,29,29,30,32,34,31,30,30,31,33,34,34,35,34,,,,,,,,,,,,,,
354239,0,5.904,,,,,,,,,,,9,115.38,29.85,71.52,118.23,12.96,3461,1,18,58.4,0.96,0.84,12.65,0.0,112.0,62,61,0,0,64,0,0,0,0,1,32,32,32,32,32,32,31,31,26,28,28,28,28,28,28,28,32,30,29,29,30,32,34,31,30,30,32,33,34,34,35,33,0.0,0.0,0.0,0.0,0,0,0.0,0,0.0,-1,0.0,0,0.0,5.904
354259,0,5.9043,,0.16,0.04,0.06,-0,0,0,0.18,1.01,18,,,,,,,,,,,,,,,,,,,,,,,,,,32,32,32,32,32,32,31,31,26,28,28,28,28,28,28,28,32,30,29,29,30,32,34,31,30,30,32,33,34,34,35,33,,,,,,,,,,,,,,
354279,0,5.9046,,,,,,,,,,,,,,,,,,,,,,,,,,,,,,,,,,,,32,32,32,32,32,32,31,31,26,28,28,28,28,28,28,28,32,30,29,29,30,32,34,31,30,30,32,33,34,34,35,33,,,,,,,,,,,,,,
354299,0,5.905,,0.06,0.01,0.18,-0,1,1,0.19,1.01,19,,,,,,,,,,,,,,,,,,,,,,,,,,32,32,32,32,32,31,31,31,26,27,28,28,28,27,28,28,32,30,29,29,30,32,34,31,30,31,32,33,34,34,36,34,,,,,,,,,,,,,,
354319,0,5.9053,,,,,,,,,,,,,,,,,,,,,,,,,,,,,,,,,,,,32,32,32,32,32,31,31,31,26,27,28,28,28,27,28,28,32,30,29,29,30,32,34,31,30,31,32,33,34,34,36,34,,,,,,,,,,,,,,
354339,0,5.9057,13.14,-0.1,0.03,0.13,-0,-0,0,0.17,1.01,16,9,115.17,29.85,71.85,116.58,12.96,3486,1,18,56.9,0.96,0.9,12.66,0.0,119.0,61,61,0,0,64,0,0,0,0,1,32,32,32,32,32,31,31,31,26,27,28,28,28,27,28,28,32,30,29,29,30,32,34,31,30,31,32,33,34,34,36,34,0.0,0.0,0.0,0.0,0,0,0.0,0,0.0,-1,0.0,0,0.0,5.9057
354359,0,5.906,,,,,,,,,,,,,,,,,,,,,,,,,,,,,,,,,,,,32,32,32,32,32,31,31,31,26,27,28,28,28,27,28,28,32,30,29,29,30,32,34,31,30,30,32,33,34,34,35,33,,,,,,,,,,,,,,
354379,0,5.9063,,0.07,-0.01,0.14,-0,1,1,0.16,1.01,16,,,,,,,,,,,,,,,,,,,,,,,,,,32,32,32,32,32,32,31,30,26,27,28,28,28,27,28,28,32,30,29,29,30,32,34,31,30,30,32,33,34,34,35,33,,,,,,,,,,,,,,
354399,0,5.9067,,,,,,,,,,,,,,,,,,,,,,,,,,,,,,,,,,,,32,32,32,32,32,32,31,30,26,27,28,28,28,27,28,28,32,30,29,29,30,32,34,31,30,30,32,33,34,34,35,33,,,,,,,,,,,,,,
354419,0,5.907,,0.1,0.03,0.24,-0,0,1,0.27,1.01,26,,,,,,,,,,,,,,,,,,,,,,,,,,32,32,32,32,32,32,31,30,26,27,28,27,27,27,27,28,32,30,29,29,30,32,34,31,30,30,31,33,34,34,35,34,,,,,,,,,,,,,,
354439,0,5.9073,,,,,,,,,,,8,115.5,29.85,71.64,114.81,12.96,3523,1,18,56.4,0.96,0.87,12.65,0.0,116.0,61,61,0,0,64,0,0,0,0,1,32,32,32,32,32,32,31,30,26,27,28,27,27,27,27,28,32,30,29,29,30,32,34,31,30,30,31,33,34,34,35,34,0.0,0.0,0.0,0.0,0,0,0.0,0,0.0,-1,0.0,0,0.0,5.9073
354459,0,5.9076,,-0.05,-0.01,0.15,-0,0,1,0.16,1.01,16,,,,,,,,,,,,,,,,,,,,,,,,,,32,32,32,32,32,32,31,30,26,27,28,27,27,27,27,28,32,30,29,29,30,32,34,31,30,30,31,33,34,34,35,34,,,,,,,,,,,,,,
354479,0,5.908,,,,,,,,,,,,,,,,,,,,,,,,,,,,,,,,,,,,32,32,32,32,32,32,31,30,26,27,28,27,27,27,27,28,32,30,29,29,30,32,34,31,30,30,31,33,34,34,35,34,,,,,,,,,,,,,,
354499,0,5.9083,,0.0,-0.02,0.3,-0,1,1,0.3,1.01,30,,,,,,,,,,,,,,,,,,,,,,,,,,32,32,32,32,32,31,31,30,26,28,28,28,28,27,28,28,32,30,29,29,30,32,34,31,30,31,32,33,34,34,35,33,,,,,,,,,,,,,,
354519,0,5.9086,,,,,,,,,,,,,,,,,,,,,,,,,,,,,,,,,,,,32,32,32,32,32,31,31,30,26,28,28,28,28,27,28,28,32,30,29,29,30,32,34,31,30,31,32,33,34,34,35,33,,,,,,,,,,,,,,
354539,0,5.909,,0.16,0.0,0.19,-0,0,1,0.25,1.01,25,9,115.17,29.97,71.76,114.6,12.94,3722,1,18,55.8,0.96,0.88,12.66,0.0,121.0,61,61,0,0,64,0,0,0,0,1,32,32,32,32,32,31,31,30,26,28,28,28,28,27,28,28,32,30,29,29,30,32,34,31,30,31,32,33,34,34,35,33,0.0,0.0,0.0,0.0,0,0,0.0,0,0.0,-1,0.0,0,0.0,5.909
354559,0,5.9093,,,,,,,,,,,,,,,,,,,,,,,,,,,,,,,,,,,,32,32,32,32,32,31,30,30,26,27,28,27,28,27,28,28,32,30,29,29,30,32,34,31,31,31,32,33,34,34,35,34,,,,,,,,,,,,,,
354579,0,5.9096,,-0.02,0.0,-0.04,-0,1,1,0.04,1.01,4,,,,,,,,,,,,,,,,,,,,,,,,,,32,32,32,32,32,31,30,30,26,27,28,27,28,27,28,28,32,30,29,29,30,32,34,31,31,31,32,33,34,34,35,34,,,,,,,,,,,,,,
354599,0,5.91,,,,,,,,,,,,,,,,,,,,,,,,,,,,,,,,,,,,32,32,32,32,32,31,30,30,26,27,28,27,28,27,28,28,32,30,29,29,30,32,34,31,31,31,32,33,34,34,35,34,,,,,,,,,,,,,,
354619,0,5.9103,,-0.01,0.02,-0.0,-0,1,0,0.02,1.01,2,,,,,,,,,,,,,,,,,,,,,,,,,,32,32,32,32,32,31,31,30,26,27,27,27,27,27,27,27,32,30,29,29,30,32,34,31,31,31,32,33,34,34,35,34,,,,,,,,,,,,,,
354639,0,5.9107,,,,,,,,,,,9,115.17,29.85,71.97,121.41,12.94,3646,1,18,55.2,0.96,0.88,12.65,0.0,121.0,61,60,0,0,65,0,0,0,0,1,32,32,32,32,32,31,31,30,26,27,27,27,27,27,27,27,32,30,29,29,30,32,34,31,31,31,32,33,34,34,35,34,0.0,0.0,0.0,0.0,0,0,0.0,0,0.0,-1,0.0,0,0.0,5.9107
354659,0,5.911,,0.09,0.0,0.06,-0,-1,-0,0.11,1.01,11,,,,,,,,,,,,,,,,,,,,,,,,,,32,32,32,32,32,31,31,30,26,27,27,27,27,27,27,27,32,30,29,29,30,32,34,31,31,31,32,33,34,34,35,34,,,,,,,,,,,,,,
354679,0,5.9113,,,,,,,,,,,,,,,,,,,,,,,,,,,,,,,,,,,,32,32,32,32,32,31,31,30,26,27,27,27,28,27,28,28,32,30,29,29,30,32,34,31,30,30,32,33,34,34,35,33,,,,,,,,,,,,,,
354699,0,5.9117,,-0.08,-0.04,0.01,-0,0,0,0.09,1.01,9,,,,,,,,,,,,,,,,,,,,,,,,,,32,32,32,32,32,31,31,30,26,27,27,27,28,27,28,28,32,30,29,29,30,32,34,31,30,30,32,33,34,34,35,33,,,,,,,,,,,,,,
354719,0,5.912,,,,,,,,,,,,,,,,,,,,,,,,,,,,,,,,,,,,32,32,32,32,32,31,31,30,26,27,27,27,28,27,28,28,32,30,29,29,30,32,34,31,30,30,32,33,34,34,35,33,,,,,,,,,,,,,,
354739,0,5.9123,,0.17,-0.04,0.01,0,1,1,0.17,1.01,17,9,115.29,29.85,71.97,113.61,12.96,3687,1,18,54.7,0.96,0.9,12.65,0.0,122.0,60,60,0,0,65,0,0,0,0,1,32,32,32,32,32,31,30,30,26,27,28,28,28,27,27,28,32,30,29,29,30,32,34,31,30,31,32,33,34,34,35,33,0.0,0.0,0.0,0.0,0,0,0.0,0,0.0,-1,0.0,0,0.0,5.9123
354759,0,5.9127,,,,,,,,,,,,,,,,,,,,,,,,,,,,,,,,,,,,32,32,32,32,32,31,30,30,26,27,28,28,28,27,27,28,32,30,29,29,30,32,34,31,30,31,32,33,34,34,35,33,,,,,,,,,,,,,,
354779,0,5.913,,0.03,0.01,-0.17,0,2,1,0.17,1.01,17,,,,,,,,,,,,,,,,,,,,,,,,,,32,32,32,32,32,31,30,30,26,27,28,28,28,27,27,28,32,30,29,29,30,32,34,31,30,31,32,33,34,34,35,33,,,,,,,,,,,,,,
354799,0,5.9133,,,,,,,,,,,,,,,,,,,,,,,,,,,,,,,,,,,,32,32,32,32,32,31,30,30,26,27,28,27,28,27,27,28,32,30,29,29,30,32,34,31,30,30,31,32,34,34,35,33,,,,,,,,,,,,,,
354819,0,5.9136,,0.09,0.0,-0.23,-0,2,1,0.25,1.01,24,,,,,,,,,,,,,,,,,,,,,,,,,,32,32,32,32,32,31,31,30,26,27,28,27,28,27,27,28,32,30,29,29,30,32,34,31,30,30,31,32,34,34,35,33,,,,,,,,,,,,,,
354839,0,5.914,,,,,,,,,,,9,115.17,29.85,71.85,113.28,12.96,3740,1,18,54.8,0.96,0.86,12.64,0.0,125.0,60,61,0,0,65,0,0,0,0,1,32,32,32,32,32,31,31,30,26,27,28,27,28,27,27,28,32,30,29,29,30,32,34,31,30,30,31,32,34,34,35,33,0.0,0.0,0.0,0.0,0,0,0.0,0,0.0,-1,0.0,0,0.0,5.914
354859,0,5.9143,,0.07,0.06,-0.05,0,1,0,0.11,1.01,10,,,,,,,,,,,,,,,,,,,,,,,,,,32,32,32,32,32,31,31,30,26,27,28,27,28,27,27,28,32,30,29,29,30,32,34,31,30,30,31,32,34,34,35,33,,,,,,,,,,,,,,
354879,0,5.9146,,,,,,,,,,,,,,,,,,,,,,,,,,,,,,,,,,,,32,32,32,32,32,32,31,31,26,28,28,28,27,27,28,28,32,30,29,29,30,32,34,31,30,30,31,32,34,34,35,33,,,,,,,,,,,,,,
354899,0,5.915,,-0.09,0.07,-0.39,0,1,-0,0.41,1.01,41,,,,,,,,,,,,,,,,,,,,,,,,,,32,32,32,32,32,32,31,31,26,28,28,28,27,27,28,28,32,30,29,29,30,32,34,31,30,30,31,32,34,34,35,33,,,,,,,,,,,,,,
354919,0,5.9153,,,,,,,,,,,,,,,,,,,,,,,,,,,,,,,,,,,,32,32,32,32,32,32,31,31,26,28,28,28,27,27,28,28,32,30,29,29,30,32,34,31,30,30,31,32,34,34,35,33,,,,,,,,,,,,,,
354939,0,5.9156,,0.06,0.02,-0.23,-0,2,1,0.24,1.01,23,8,115.5,29.73,71.52,114.06,12.97,3443,1,18,54.9,0.96,0.86,12.65,0.0,111.0,60,60,0,0,65,0,0,0,0,1,32,32,32,32,32,32,31,30,26,27,27,27,27,27,27,27,32,30,29,29,30,32,34,31,30,30,32,32,34,34,36,33,0.0,0.0,0.0,0.0,0,0,0.0,0,0.0,-1,0.0,0,0.0,5.9156
354959,0,5.916,,,,,,,,,,,,,,,,,,,,,,,,,,,,,,,,,,,,32,32,32,32,32,32,31,30,26,27,27,27,27,27,27,27,32,30,29,29,30,32,34,31,30,30,32,32,34,34,36,33,,,,,,,,,,,,,,
354979,0,5.9163,,0.2,0.04,-0.26,-0,1,0,0.33,1.01,33,,,,,,,,,,,,,,,,,,,,,,,,,,32,32,32,32,32,32,31,30,26,27,27,27,27,27,27,27,32,30,29,29,30,32,34,31,30,30,32,32,34,34,36,33,,,,,,,,,,,,,,
354999,0,5.9166,,,,,,,,,,,,,,,,,,,,,,,,,,,,,,,,,,,,32,32,32,32,32,32,31,30,26,27,27,27,27,27,27,27,32,30,29,29,30,32,34,31,30,30,31,32,34,34,35,33,,,,,,,,,,,,,,
355019,0,5.917,,0.05,0.04,-0.19,-0,2,0,0.2,1.01,19,,,,,,,,,,,,,,,,,,,,,,,,,,32,32,32,32,32,32,31,30,26,27,27,27,27,27,27,27,32,30,29,29,30,32,34,31,30,30,31,32,34,34,35,33,,,,,,,,,,,,,,
355039,0,5.9173,,,,,,,,,,,9,115.17,29.97,71.85,110.52,12.96,3360,1,18,54.1,0.96,0.84,12.64,0.0,124.0,60,60,0,0,65,0,0,0,0,1,32,32,32,32,32,32,31,30,26,27,27,27,27,27,27,27,32,30,29,29,30,32,34,31,30,30,31,32,34,34,35,33,0.0,0.0,0.0,0.0,0,0,0.0,0,0.0,-1,0.0,0,0.0,5.9173
355059,0,5.9177,,-0.04,0.02,-0.16,-0,2,1,0.17,1.01,17,,,,,,,,,,,,,,,,,,,,,,,,,,32,32,32,32,32,32,31,30,26,27,27,27,27,27,27,27,32,30,29,29,30,32,34,31,30,30,32,32,34,34,35,34,,,,,,,,,,,,,,
355079,0,5.918,,,,,,,,,,,,,,,,,,,,,,,,,,,,,,,,,,,,32,32,32,32,32,32,31,30,26,27,27,27,27,27,27,27,32,30,29,29,30,32,34,31,30,30,32,32,34,34,35,34,,,,,,,,,,,,,,
355099,0,5.9183,,0.15,-0.01,-0.13,-0,2,1,0.2,1.01,19,,,,,,,,,,,,,,,,,,,,,,,,,,32,32,32,32,32,32,31,30,26,27,27,27,27,27,27,27,32,30,29,29,30,32,34,31,30,30,32,32,34,34,35,34,,,,,,,,,,,,,,
355119,0,5.9187,,,,,,,,,,,,,,,,,,,,,,,,,,,,,,,,,,,,32,32,32,32,32,31,30,30,26,27,27,27,27,27,27,27,32,30,29,29,30,32,34,31,30,30,32,33,34,34,35,34,,,,,,,,,,,,,,
355139,0,5.919,,0.13,0.05,0.01,-0,2,1,0.13,1.01,13,8,115.5,29.85,71.64,117.03,12.94,3412,1,18,53.6,0.96,0.87,12.65,0.0,119.0,61,61,0,0,65,0,0,0,0,1,32,32,32,32,32,31,30,30,26,27,27,27,27,27,27,27,32,30,29,29,30,32,34,31,30,30,32,33,34,34,35,34,0.0,0.0,0.0,0.0,0,0,0.0,0,0.0,-1,0.0,0,0.0,5.919
355159,0,5.9193,,,,,,,,,,,,,,,,,,,,,,,,,,,,,,,,,,,,32,32,32,32,32,31,30,30,26,27,27,27,27,27,27,27,32,30,29,29,30,32,34,31,30,30,32,33,34,34,35,34,,,,,,,,,,,,,,
355179,0,5.9197,,-0.06,0.03,-0.11,-0,2,0,0.13,1.01,12,,,,,,,,,,,,,,,,,,,,,,,,,,32,32,32,32,32,31,30,30,26,27,27,27,27,27,27,27,32,30,29,29,30,32,34,31,30,30,32,33,34,34,35,34,,,,,,,,,,,,,,
355199,0,5.92,,,,,,,,,,,,,,,,,,,,,,,,,,,,,,,,,,,,32,32,32,32,32,31,31,30,26,27,27,27,27,27,27,27,32,30,29,29,30,32,34,31,30,30,32,33,34,34,35,34,,,,,,,,,,,,,,
355219,0,5.9203,,0.15,0.03,-0.24,-0,1,-0,0.29,1.01,28,,,,,,,,,,,,,,,,,,,,,,,,,,32,32,32,32,32,31,31,30,26,27,27,27,27,27,27,27,32,30,29,29,30,32,34,31,30,30,32,33,34,34,35,34,,,,,,,,,,,,,,
355239,0,5.9206,,,,,,,,,,,9,115.29,29.85,71.64,114.39,12.96,3519,1,18,54.6,0.96,0.91,12.65,0.0,115.0,60,61,0,0,65,0,0,0,0,1,32,32,32,32,32,31,31,30,26,27,27,27,27,27,27,27,32,30,29,29,30,32,34,31,30,30,32,33,34,34,35,34,0.0,0.0,0.0,0.0,0,0,0.0,0,0.0,-1,0.0,0,0.0,5.9206
355259,0,5.921,,0.15,0.05,-0.1,0,1,-0,0.18,1.01,18,,,,,,,,,,,,,,,,,,,,,,,,,,32,32,32,32,32,31,30,30,26,27,27,28,27,27,27,27,32,30,29,29,30,32,34,31,30,30,32,33,34,34,35,33,,,,,,,,,,,,,,
355279,0,5.9213,,,,,,,,,,,,,,,,,,,,,,,,,,,,,,,,,,,,32,32,32,32,32,31,30,30,26,27,27,28,27,27,27,27,32,30,29,29,30,32,34,31,30,30,32,33,34,34,35,33,,,,,,,,,,,,,,
355299,0,5.9216,,-0.0,0.02,-0.26,0,0,-0,0.26,1.01,26,,,,,,,,,,,,,,,,,,,,,,,,,,32,32,32,32,32,31,30,30,26,27,27,28,27,27,27,27,32,30,29,29,30,32,34,31,30,30,32,33,34,34,35,33,,,,,,,,,,,,,,
355319,0,5.922,,,,,,,,,,,,,,,,,,,,,,,,,,,,,,,,,,,,32,32,32,32,32,32,31,30,26,27,27,27,27,27,27,27,32,30,29,29,30,32,34,31,30,30,32,33,34,34,35,34,,,,,,,,,,,,,,
355339,0,5.9223,13.14,-0.06,0.03,-0.29,-0,-1,-1,0.29,1.01,29,9,115.29,29.97,71.97,115.05,12.96,3339,1,18,59.3,0.96,0.9,12.66,0.0,116.0,59,60,0,0,65,0,0,0,0,1,32,32,32,32,32,32,31,30,26,27,27,27,27,27,27,27,32,30,29,29,30,32,34,31,30,30,32,33,34,34,35,34,0.0,0.0,0.0,0.0,0,0,0.0,0,0.0,-1,0.0,0,0.0,5.9223
355359,0,5.9226,,,,,,,,,,,,,,,,,,,,,,,,,,,,,,,,,,,,32,32,32,32,32,32,31,30,26,27,27,27,27,27,27,27,32,30,29,29,30,32,34,31,30,30,32,33,34,34,35,34,,,,,,,,,,,,,,
355379,0,5.923,,0.19,0.02,-0.4,-0,-1,-1,0.45,1.01,44,,,,,,,,,,,,,,,,,,,,,,,,,,32,32,32,32,32,32,31,30,26,27,27,27,27,27,27,27,32,30,29,29,30,32,34,31,30,30,32,33,34,34,35,34,,,,,,,,,,,,,,
355399,0,5.9233,,,,,,,,,,,,,,,,,,,,,,,,,,,,,,,,,,,,32,32,32,32,32,32,31,30,26,27,27,27,27,27,27,27,32,30,29,29,30,32,34,31,30,30,32,33,34,34,35,34,,,,,,,,,,,,,,
355419,0,5.9236,,0.13,0.02,-0.22,-0,-1,-1,0.26,1.01,26,,,,,,,,,,,,,,,,,,,,,,,,,,32,32,32,32,32,32,31,30,26,27,27,27,27,27,27,27,32,30,29,29,30,32,34,31,30,30,32,33,34,34,35,34,,,,,,,,,,,,,,
355439,0,5.924,,,,,,,,,,,9,115.5,29.85,71.64,114.81,12.93,3394,1,18,57.7,0.96,0.9,12.65,0.0,112.0,60,60,0,0,65,0,0,0,0,1,32,32,32,32,32,31,31,30,26,27,27,27,27,27,27,28,32,30,29,29,30,32,34,31,30,30,32,33,34,34,35,34,0.0,0.0,0.0,0.0,0,0,0.0,0,0.0,-1,0.0,0,0.0,5.924
355459,0,5.9243,,0.01,-0.01,-0.18,0,-0,-0,0.18,1.01,18,,,,,,,,,,,,,,,,,,,,,,,,,,32,32,32,32,32,31,31,30,26,27,27,27,27,27,27,28,32,30,29,29,30,32,34,31,30,30,32,33,34,34,35,34,,,,,,,,,,,,,,
355479,0,5.9247,,,,,,,,,,,,,,,,,,,,,,,,,,,,,,,,,,,,32,32,32,32,32,31,31,30,26,27,27,27,27,27,27,28,32,30,29,29,30,32,34,31,30,30,32,33,34,34,35,34,,,,,,,,,,,,,,
355499,0,5.925,,-0.16,0.03,-0.2,0,-2,-1,0.25,1.01,25,,,,,,,,,,,,,,,,,,,,,,,,,,32,32,32,32,32,31,30,30,26,27,27,27,27,26,27,27,32,30,29,29,30,32,34,31,31,31,32,33,34,34,35,34,,,,,,,,,,,,,,
355519,0,5.9253,,,,,,,,,,,,,,,,,,,,,,,,,,,,,,,,,,,,32,32,32,32,32,31,30,30,26,27,27,27,27,26,27,27,32,30,29,29,30,32,34,31,31,31,32,33,34,34,35,34,,,,,,,,,,,,,,
355539,0,5.9257,,0.09,0.03,-0.19,0,-2,-1,0.21,1.01,21,9,115.17,29.85,71.97,113.82,12.93,3652,1,18,56.9,0.96,0.92,12.66,0.0,117.0,60,60,0,0,65,0,0,0,0,1,32,32,32,32,32,31,30,30,26,27,27,27,27,26,27,27,32,30,29,29,30,32,34,31,31,31,32,33,34,34,35,34,0.0,0.0,0.0,0.0,0,0,0.0,0,0.0,-1,0.0,0,0.0,5.9257
355559,0,5.926,,,,,,,,,,,,,,,,,,,,,,,,,,,,,,,,,,,,32,32,32,32,32,31,30,30,26,27,27,27,27,26,27,27,32,30,29,29,30,32,34,31,30,30,32,33,34,34,35,33,,,,,,,,,,,,,,
355579,0,5.9263,,0.01,-0.02,-0.02,-0,-1,-0,0.03,1.01,3,,,,,,,,,,,,,,,,,,,,,,,,,,32,32,32,32,32,31,31,30,26,27,27,27,27,27,27,27,32,30,29,29,30,32,34,31,30,30,32,33,34,34,35,33,,,,,,,,,,,,,,
355599,0,5.9266,,,,,,,,,,,,,,,,,,,,,,,,,,,,,,,,,,,,32,32,32,32,32,31,31,30,26,27,27,27,27,27,27,27,32,30,29,29,30,32,34,31,30,30,32,33,34,34,35,33,,,,,,,,,,,,,,
355619,0,5.927,,-0.15,-0.01,0.01,0,-1,-0,0.15,1.01,15,,,,,,,,,,,,,,,,,,,,,,,,,,32,32,32,32,32,31,31,30,26,27,27,27,27,27,27,27,32,30,29,29,30,32,34,31,30,30,32,33,34,34,35,33,,,,,,,,,,,,,,
355639,0,5.9273,,,,,,,,,,,8,115.5,29.85,71.64,117.03,12.94,3319,1,18,55.9,0.96,0.88,12.65,0.0,118.0,59,60,0,0,65,0,0,0,0,1,32,32,32,32,32,31,31,30,26,27,27,27,27,27,27,27,32,30,29,29,30,32,34,31,30,30,31,32,34,34,35,33,0.0,0.0,0.0,0.0,0,0,0.0,0,0.0,-1,0.0,0,0.0,5.9273
355659,0,5.9276,,-0.01,-0.02,-0.01,-0,-2,-1,0.03,1.01,3,,,,,,,,,,,,,,,,,,,,,,,,,,32,32,32,32,32,31,31,30,26,27,27,27,27,27,27,27,32,30,29,29,30,32,34,31,30,30,31,32,34,34,35,33,,,,,,,,,,,,,,
355679,0,5.928,,,,,,,,,,,,,,,,,,,,,,,,,,,,,,,,,,,,32,32,32,32,32,31,31,30,26,27,27,27,27,27,27,27,32,30,29,29,30,32,34,31,30,30,31,32,34,34,35,33,,,,,,,,,,,,,,
355699,0,5.9283,,-0.01,0.02,0.03,-0,-2,-1,0.04,1.01,4,,,,,,,,,,,,,,,,,,,,,,,,,,32,32,32,32,32,31,31,30,26,27,27,27,27,27,27,27,32,30,29,29,30,32,34,31,30,30,31,32,34,34,35,33,,,,,,,,,,,,,,
355719,0,5.9286,,,,,,,,,,,,,,,,,,,,,,,,,,,,,,,,,,,,32,32,32,32,32,31,31,30,26,27,27,27,27,27,27,27,32,30,29,29,30,32,34,31,30,30,31,32,34,34,35,33,,,,,,,,,,,,,,
355739,0,5.929,,-0.17,0.05,-0.05,-0,-1,-0,0.18,1.01,18,9,115.38,29.97,71.64,118.89,12.96,3415,1,18,55.0,0.96,0.88,12.67,0.0,117.0,59,60,0,0,65,0,0,0,0,1,32,32,32,32,32,31,31,30,26,27,27,27,27,27,27,27,32,30,29,29,30,32,34,31,30,30,31,32,34,34,35,33,0.0,0.0,0.0,0.0,0,0,0.0,0,0.0,-1,0.0,0,0.0,5.929
355759,0,5.9293,,,,,,,,,,,,,,,,,,,,,,,,,,,,,,,,,,,,32,32,32,32,32,31,30,30,26,27,27,27,27,27,27,27,32,30,29,29,30,32,34,31,30,30,32,32,34,34,35,34,,,,,,,,,,,,,,
355779,0,5.9296,,0.05,0.02,-0.14,-0,-2,-0,0.15,1.01,15,,,,,,,,,,,,,,,,,,,,,,,,,,32,32,32,32,32,31,30,30,26,27,27,27,27,27,27,27,32,30,29,29,30,32,34,31,30,30,32,32,34,34,35,34,,,,,,,,,,,,,,
355799,0,5.93,,,,,,,,,,,,,,,,,,,,,,,,,,,,,,,,,,,,32,32,32,32,32,31,30,30,26,27,27,27,27,27,27,27,32,30,29,29,30,32,34,31,30,30,32,32,34,34,35,34,,,,,,,,,,,,,,
355819,0,5.9303,,-0.02,0.02,0.05,-0,-1,0,0.06,1.01,6,,,,,,,,,,,,,,,,,,,,,,,,,,32,32,32,32,32,31,30,30,26,27,27,27,27,27,27,27,32,30,29,29,30,32,34,31,30,30,32,32,34,34,35,33,,,,,,,,,,,,,,
355839,0,5.9306,,,,,,,,,,,9,115.17,29.97,71.97,110.19,12.96,3389,1,18,54.5,0.96,0.87,12.66,0.0,124.0,60,61,0,0,65,0,0,0,0,1,32,32,32,32,32,31,30,30,26,27,27,27,27,27,27,27,32,30,29,29,30,32,34,31,30,30,32,32,34,34,35,33,0.0,0.0,0.0,0.0,0,0,0.0,0,0.0,-1,0.0,0,0.0,5.9306
355859,0,5.931,,-0.15,0.01,0.03,-0,-0,0,0.16,1.01,15,,,,,,,,,,,,,,,,,,,,,,,,,,32,32,32,32,32,31,30,30,26,27,27,27,27,27,27,27,32,30,29,29,30,32,34,31,30,30,32,32,34,34,35,33,,,,,,,,,,,,,,
355879,0,5.9313,,,,,,,,,,,,,,,,,,,,,,,,,,,,,,,,,,,,32,32,32,32,32,31,31,30,26,27,27,27,27,26,27,27,32,30,29,29,30,32,34,31,30,30,32,33,34,34,35,33,,,,,,,,,,,,,,
355899,0,5.9317,,0.1,-0.01,0.01,-0,0,1,0.1,1.01,10,,,,,,,,,,,,,,,,,,,,,,,,,,32,32,32,32,32,31,31,30,26,27,27,27,27,26,27,27,32,30,29,29,30,32,34,31,30,30,32,33,34,34,35,33,,,,,,,,,,,,,,
355919,0,5.932,,,,,,,,,,,,,,,,,,,,,,,,,,,,,,,,,,,,32,32,32,32,32,31,31,30,26,27,27,27,27,26,27,27,32,30,29,29,30,32,34,31,30,30,32,33,34,34,35,33,,,,,,,,,,,,,,
355939,0,5.9323,,0.05,-0.03,0.17,-0,1,1,0.18,1.01,18,8,115.38,29.85,71.76,115.26,12.94,3390,1,18,53.3,0.96,0.9,12.67,0.0,119.0,60,61,0,0,65,0,0,0,0,1,32,32,32,32,32,31,31,30,26,27,27,27,27,26,27,27,32,30,29,29,30,32,34,31,30,30,32,32,34,34,35,34,0.0,0.0,0.0,0.0,0,0,0.0,0,0.0,-1,0.0,0,0.0,5.9323
355959,0,5.9327,,,,,,,,,,,,,,,,,,,,,,,,,,,,,,,,,,,,32,32,32,32,32,32,31,30,26,27,27,27,27,27,27,27,32,30,29,29,30,32,34,31,30,30,32,32,34,34,35,34,,,,,,,,,,,,,,
355979,0,5.933,,-0.11,-0.03,-0.18,-0,0,0,0.22,1.01,22,,,,,,,,,,,,,,,,,,,,,,,,,,32,32,32,32,32,32,31,30,26,27,27,27,27,27,27,27,32,30,29,29,30,32,34,31,30,30,32,32,34,34,35,34,,,,,,,,,,,,,,
355999,0,5.9333,,,,,,,,,,,,,,,,,,,,,,,,,,,,,,,,,,,,32,32,32,32,32,32,31,30,26,27,27,27,27,27,27,27,32,30,29,29,30,32,34,31,30,30,32,32,34,34,35,34,,,,,,,,,,,,,,
356019,0,5.9336,,0.02,-0.04,-0.01,-0,-1,-0,0.04,1.01,4,,,,,,,,,,,,,,,,,,,,,,,,,,32,32,32,32,32,32,31,30,26,28,28,28,27,27,27,28,32,30,29,29,30,32,34,31,30,30,32,32,34,34,35,34,,,,,,,,,,,,,,
356039,0,5.934,,,,,,,,,,,8,115.38,29.73,71.64,114.48,12.95,3549,1,18,52.9,0.96,0.88,12.65,0.0,128.0,61,61,0,0,65,0,0,0,0,1,32,32,32,32,32,32,31,30,26,28,28,28,27,27,27,28,32,30,29,29,30,32,34,31,30,30,32,32,34,34,35,34,0.0,0.0,0.0,0.0,0,0,0.0,0,0.0,-1,0.0,0,0.0,5.934
356059,0,5.9343,,-0.14,-0.0,-0.01,-0,-0,-0,0.14,1.01,14,,,,,,,,,,,,,,,,,,,,,,,,,,32,32,32,32,32,32,31,30,26,28,28,28,27,27,27,28,32,30,29,29,30,32,34,31,30,30,32,32,34,34,35,34,,,,,,,,,,,,,,
356079,0,5.9346,,,,,,,,,,,,,,,,,,,,,,,,,,,,,,,,,,,,32,32,32,32,32,32,31,30,26,27,27,27,27,27,27,27,32,30,29,29,30,32,34,31,30,30,31,32,34,34,35,34,,,,,,,,,,,,,,
356099,0,5.935,,0.07,-0.0,-0.04,-0,-0,0,0.08,1.01,8,,,,,,,,,,,,,,,,,,,,,,,,,,32,32,32,32,32,32,31,30,26,27,27,27,27,27,27,27,32,30,29,29,30,32,34,31,30,30,31,32,34,34,35,34,,,,,,,,,,,,,,
356119,0,5.9353,,,,,,,,,,,,,,,,,,,,,,,,,,,,,,,,,,,,32,32,32,32,32,32,31,30,26,27,27,27,27,27,27,27,32,30,29,29,30,32,34,31,30,30,31,32,34,34,35,34,,,,,,,,,,,,,,
356139,0,5.9356,,-0.06,0.03,-0.15,-0,0,-0,0.16,1.01,16,8,115.5,29.73,71.64,118.35,12.95,3454,1,18,52.9,0.96,0.85,12.66,0.0,122.0,60,60,0,0,65,0,0,0,0,1,32,32,32,32,32,32,31,30,26,27,27,27,27,27,27,27,32,30,29,29,30,32,34,31,30,30,32,32,34,34,35,33,0.0,0.0,0.0,0.0,0,0,0.0,0,0.0,-1,0.0,0,0.0,5.9356
356159,0,5.936,,,,,,,,,,,,,,,,,,,,,,,,,,,,,,,,,,,,32,32,32,32,32,32,31,30,26,27,27,27,27,27,27,27,32,30,29,29,30,32,34,31,30,30,32,32,34,34,35,33,,,,,,,,,,,,,,
356179,0,5.9363,,-0.1,0.0,0.05,-0,-1,-0,0.11,1.01,11,,,,,,,,,,,,,,,,,,,,,,,,,,32,32,32,32,32,32,31,30,26,27,27,27,27,27,27,27,32,30,29,29,30,32,34,31,30,30,32,32,34,34,35,33,,,,,,,,,,,,,,
356199,0,5.9366,,,,,,,,,,,,,,,,,,,,,,,,,,,,,,,,,,,,32,32,32,32,32,32,31,30,26,27,27,27,27,27,27,27,32,30,29,29,30,32,34,31,31,30,31,32,34,34,36,34,,,,,,,,,,,,,,
356219,0,5.937,,0.09,0.03,-0.0,-0,-1,-1,0.09,1.01,9,,,,,,,,,,,,,,,,,,,,,,,,,,32,32,32,32,32,32,31,30,26,27,27,27,27,27,27,27,32,30,29,29,30,32,34,31,31,30,31,32,34,34,36,34,,,,,,,,,,,,,,
356239,0,5.9373,,,,,,,,,,,9,115.29,29.85,71.64,115.14,12.96,3493,1,18,53.1,0.96,0.87,12.66,0.0,120.0,59,59,0,0,65,0,0,0,0,1,32,32,32,32,32,32,31,30,26,27,27,27,27,27,27,27,32,30,29,29,30,32,34,31,31,30,31,32,34,34,36,34,0.0,0.0,0.0,0.0,0,0,0.0,0,0.0,-1,0.0,0,0.0,5.9373
356259,0,5.9377,,-0.08,0.03,-0.11,-0,0,-0,0.14,1.01,13,,,,,,,,,,,,,,,,,,,,,,,,,,32,32,32,32,32,32,31,30,26,27,27,27,27,27,27,27,32,30,29,29,30,32,34,31,31,30,32,33,34,34,35,34,,,,,,,,,,,,,,
356279,0,5.938,,,,,,,,,,,,,,,,,,,,,,,,,,,,,,,,,,,,32,32,32,32,32,32,31,30,26,27,27,27,27,27,27,27,32,30,29,29,30,32,34,31,31,30,32,33,34,34,35,34,,,,,,,,,,,,,,
356299,0,5.9383,,-0.03,0.04,-0.05,-0,0,0,0.07,1.01,7,,,,,,,,,,,,,,,,,,,,,,,,,,32,32,32,32,32,32,31,30,26,27,27,27,27,27,27,27,32,30,29,29,30,32,34,31,31,30,32,33,34,34,35,34,,,,,,,,,,,,,,
356319,0,5.9387,,,,,,,,,,,,,,,,,,,,,,,,,,,,,,,,,,,,32,32,32,32,32,32,31,30,26,27,27,27,27,27,27,27,32,30,29,29,30,32,34,31,30,30,32,33,34,34,35,34,,,,,,,,,,,,,,
356339,0,5.939,13.18,0.04,0.06,0.09,-0,0,0,0.12,1.01,12,9,115.5,29.85,71.76,111.96,12.96,3501,1,18,53.5,0.96,0.85,12.67,0.0,119.0,56,57,0,0,65,0,0,0,0,1,32,32,32,32,32,32,31,30,26,27,27,27,27,27,26,27,32,30,29,29,30,32,34,31,30,30,32,33,34,34,35,34,0.0,0.0,0.0,0.0,0,0,0.0,0,0.0,-1,0.0,0,0.0,5.939
356359,0,5.9393,,,,,,,,,,,,,,,,,,,,,,,,,,,,,,,,,,,,32,32,32,32,32,32,31,30,26,27,27,27,27,27,26,27,32,30,29,29,30,32,34,31,30,30,32,33,34,34,35,34,,,,,,,,,,,,,,
356379,0,5.9397,,-0.11,0.02,0.06,-0,1,1,0.12,1.01,12,,,,,,,,,,,,,,,,,,,,,,,,,,32,32,32,32,32,32,31,30,26,27,27,27,27,27,26,27,32,30,29,29,30,32,34,31,30,30,32,33,34,34,35,34,,,,,,,,,,,,,,
356399,0,5.94,,,,,,,,,,,,,,,,,,,,,,,,,,,,,,,,,,,,32,32,32,32,32,32,31,30,26,27,27,27,27,26,27,27,32,30,29,29,30,32,34,31,30,31,32,33,34,34,35,34,,,,,,,,,,,,,,
356419,0,5.9403,,-0.16,0.01,0.15,-0,1,1,0.22,1.01,22,,,,,,,,,,,,,,,,,,,,,,,,,,32,32,32,32,32,32,31,30,26,27,27,27,27,26,27,27,32,30,29,29,30,32,34,31,30,31,32,33,34,34,35,34,,,,,,,,,,,,,,
356439,0,5.9406,,,,,,,,,,,9,115.5,29.73,71.85,115.59,12.95,3475,1,18,57.5,0.96,0.88,12.66,0.0,111.0,55,56,0,0,65,0,0,0,0,1,32,32,32,32,32,32,31,30,26,27,27,27,27,26,27,27,32,30,29,29,30,32,34,31,30,31,32,33,34,34,35,34,0.0,0.0,0.0,0.0,0,0,0.0,0,0.0,-1,0.0,0,0.0,5.9406
356459,0,5.941,,0.06,0.04,0.11,-0,1,1,0.13,1.01,13,,,,,,,,,,,,,,,,,,,,,,,,,,32,32,32,32,32,32,31,30,26,27,27,27,27,26,27,27,32,30,29,29,30,32,34,31,30,30,31,32,34,34,35,34,,,,,,,,,,,,,,
356479,0,5.9413,,,,,,,,,,,,,,,,,,,,,,,,,,,,,,,,,,,,32,32,32,32,32,32,31,30,26,27,27,27,27,26,27,27,32,30,29,29,30,32,34,31,30,30,31,32,34,34,35,34,,,,,,,,,,,,,,
356499,0,5.9416,,-0.05,0.03,0.17,-0,2,1,0.18,1.01,18,,,,,,,,,,,,,,,,,,,,,,,,,,32,32,32,32,32,32,31,30,26,27,27,27,27,26,27,27,32,30,29,29,30,32,34,31,30,30,31,32,34,34,35,34,,,,,,,,,,,,,,
356519,0,5.942,,,,,,,,,,,,,,,,,,,,,,,,,,,,,,,,,,,,32,32,32,32,32,32,31,30,26,27,27,27,27,27,26,26,32,30,29,29,30,32,34,31,30,31,32,33,34,34,35,34,,,,,,,,,,,,,,
356539,0,5.9423,,-0.14,0.01,0.18,-0,2,1,0.23,1.01,23,9,115.5,29.85,71.52,119.55,12.96,3419,1,18,57.5,0.96,0.84,12.67,0.0,119.0,56,56,0,0,65,0,0,0,0,1,32,32,32,32,32,32,31,30,26,27,27,27,27,27,26,26,32,30,29,29,30,32,34,31,30,31,32,33,34,34,35,34,0.0,0.0,0.0,0.0,0,0,0.0,0,0.0,-1,0.0,0,0.0,5.9423
356559,0,5.9426,,,,,,,,,,,,,,,,,,,,,,,,,,,,,,,,,,,,32,32,32,32,32,32,31,30,26,27,27,27,27,27,26,26,32,30,29,29,30,32,34,31,30,31,32,33,34,34,35,34,,,,,,,,,,,,,,
356579,0,5.943,,0.06,-0.01,0.15,-0,2,1,0.17,1.01,17,,,,,,,,,,,,,,,,,,,,,,,,,,32,32,32,32,32,32,31,30,26,26,27,27,27,26,26,26,32,30,29,29,30,32,34,31,31,31,32,33,34,34,36,34,,,,,,,,,,,,,,
356599,0,5.9433,,,,,,,,,,,,,,,,,,,,,,,,,,,,,,,,,,,,32,32,32,32,32,32,31,30,26,26,27,27,27,26,26,26,32,30,29,29,30,32,34,31,31,31,32,33,34,34,36,34,,,,,,,,,,,,,,
356619,0,5.9437,,0.05,0.05,0.25,-0,2,1,0.26,1.01,26,,,,,,,,,,,,,,,,,,,,,,,,,,32,32,32,32,32,32,31,30,26,26,27,27,27,26,26,26,32,30,29,29,30,32,34,31,31,31,32,33,34,34,36,34,,,,,,,,,,,,,,
356639,0,5.944,,,,,,,,,,,9,115.17,29.85,71.97,118.02,12.96,3501,1,18,57.1,0.96,0.88,12.66,0.0,117.0,56,57,0,0,65,0,0,0,0,1,32,32,32,32,32,31,30,30,26,27,27,26,27,26,26,26,32,30,29,29,30,32,34,31,31,30,32,33,34,34,35,34,0.0,0.0,0.0,0.0,0,0,0.0,0,0.0,-1,0.0,0,0.0,5.944
356659,0,5.9443,,-0.09,0.02,0.11,-0,2,1,0.14,1.01,14,,,,,,,,,,,,,,,,,,,,,,,,,,32,32,32,32,32,31,30,30,26,27,27,26,27,26,26,26,32,30,29,29,30,32,34,31,31,30,32,33,34,34,35,34,,,,,,,,,,,,,,
356679,0,5.9447,,,,,,,,,,,,,,,,,,,,,,,,,,,,,,,,,,,,32,32,32,32,32,31,30,30,26,27,27,26,27,26,26,26,32,30,29,29,30,32,34,31,31,30,32,33,34,34,35,34,,,,,,,,,,,,,,
356699,0,5.945,,0.03,0.0,0.2,-0,3,2,0.2,1.01,20,,,,,,,,,,,,,,,,,,,,,,,,,,32,32,32,32,32,31,31,30,26,27,27,26,27,26,26,26,32,30,29,29,30,32,34,31,30,30,32,33,34,34,35,34,,,,,,,,,,,,,,
356719,0,5.9453,,,,,,,,,,,,,,,,,,,,,,,,,,,,,,,,,,,,32,32,32,32,32,31,31,30,26,27,27,27,27,27,27,27,32,30,29,29,30,32,34,31,30,30,32,33,34,34,35,34,,,,,,,,,,,,,,
356739,0,5.9457,,0.14,-0.01,0.18,0,2,1,0.23,1.01,23,8,115.5,29.73,71.64,116.46,12.96,3649,1,18,56.4,0.96,0.89,12.67,0.0,122.0,56,57,0,0,65,0,0,0,0,1,32,32,32,32,32,31,31,30,26,27,27,27,27,27,27,27,32,30,29,29,30,32,34,31,30,30,32,33,34,34,35,34,0.0,0.0,0.0,0.0,0,0,0.0,0,0.0,-1,0.0,0,0.0,5.9457
356759,0,5.946,,,,,,,,,,,,,,,,,,,,,,,,,,,,,,,,,,,,32,32,32,32,32,31,31,30,26,27,27,27,27,27,27,27,32,30,29,29,30,32,34,31,30,30,32,33,34,34,35,34,,,,,,,,,,,,,,
356779,0,5.9463,,-0.01,-0.05,-0.01,-0,2,1,0.05,1.01,5,,,,,,,,,,,,,,,,,,,,,,,,,,32,32,32,32,32,32,30,30,26,27,27,27,27,26,26,27,32,30,29,29,30,32,34,31,30,30,32,33,34,34,35,34,,,,,,,,,,,,,,
356799,0,5.9466,,,,,,,,,,,,,,,,,,,,,,,,,,,,,,,,,,,,32,32,32,32,32,32,30,30,26,27,27,27,27,26,26,27,32,30,29,29,30,32,34,31,30,30,32,33,34,34,35,34,,,,,,,,,,,,,,
356819,0,5.947,,-0.02,-0.03,-0.08,-0,1,1,0.09,1.01,9,,,,,,,,,,,,,,,,,,,,,,,,,,32,32,32,32,32,32,30,30,26,27,27,27,27,26,26,27,32,30,29,29,30,32,34,31,30,30,32,33,34,34,35,34,,,,,,,,,,,,,,
356839,0,5.9473,,,,,,,,,,,9,115.38,29.97,71.64,120.09,12.95,3728,1,18,55.8,0.96,0.89,12.66,0.0,120.0,56,57,0,0,65,0,0,0,0,1,32,32,32,32,32,31,30,30,26,26,27,27,27,26,27,27,32,30,29,29,30,32,34,31,30,30,32,33,34,34,35,34,0.0,0.0,0.0,0.0,0,0,0.0,0,0.0,-1,0.0,0,0.0,5.9473
356859,0,5.9476,,0.11,-0.03,-0.1,0,1,1,0.16,1.01,16,,,,,,,,,,,,,,,,,,,,,,,,,,32,32,32,32,32,31,30,30,26,26,27,27,27,26,27,27,32,30,29,29,30,32,34,31,30,30,32,33,34,34,35,34,,,,,,,,,,,,,,
356879,0,5.948,,,,,,,,,,,,,,,,,,,,,,,,,,,,,,,,,,,,32,32,32,32,32,31,30,30,26,26,27,27,27,26,27,27,32,30,29,29,30,32,34,31,30,30,32,33,34,34,35,34,,,,,,,,,,,,,,
356899,0,5.9483,,-0.05,-0.06,-0.18,0,1,1,0.2,1.01,19,,,,,,,,,,,,,,,,,,,,,,,,,,31,32,32,32,31,31,30,30,26,27,27,27,27,27,27,27,32,30,29,29,30,32,34,31,30,31,32,33,34,34,35,34,,,,,,,,,,,,,,
356919,0,5.9486,,,,,,,,,,,,,,,,,,,,,,,,,,,,,,,,,,,,31,32,32,32,31,31,30,30,26,27,27,27,27,27,27,27,32,30,29,29,30,32,34,31,30,31,32,33,34,34,35,34,,,,,,,,,,,,,,
356939,0,5.949,,0.11,-0.05,-0.07,-0,2,2,0.14,1.01,14,9,115.29,29.97,71.85,112.83,12.96,3545,1,18,55.3,0.96,0.86,12.67,0.0,114.0,56,57,0,0,66,0,0,0,0,1,31,32,32,32,31,31,30,30,26,27,27,27,27,27,27,27,32,30,29,29,30,32,34,31,30,31,32,33,34,34,35,34,0.0,0.0,0.0,0.0,0,0,0.0,0,0.0,-1,0.0,0,0.0,5.949
356959,0,5.9493,,,,,,,,,,,,,,,,,,,,,,,,,,,,,,,,,,,,32,32,32,32,32,31,30,30,26,27,27,27,27,27,27,27,32,30,29,29,30,32,34,31,30,30,32,33,34,34,35,33,,,,,,,,,,,,,,
356979,0,5.9496,,0.17,-0.03,-0.05,0,1,1,0.18,1.01,17,,,,,,,,,,,,,,,,,,,,,,,,,,32,32,32,32,32,31,30,30,26,27,27,27,27,27,27,27,32,30,29,29,30,32,34,31,30,30,32,33,34,34,35,33,,,,,,,,,,,,,,
356999,0,5.95,,,,,,,,,,,,,,,,,,,,,,,,,,,,,,,,,,,,32,32,32,32,32,31,30,30,26,27,27,27,27,27,27,27,32,30,29,29,30,32,34,31,30,30,32,33,34,34,35,33,,,,,,,,,,,,,,
357019,0,5.9503,,-0.02,-0.04,-0.26,-0,-0,1,0.27,1.01,26,,,,,,,,,,,,,,,,,,,,,,,,,,32,32,32,32,32,31,31,30,26,27,27,27,27,26,27,27,32,30,29,29,30,32,34,31,30,30,32,33,34,34,36,34,,,,,,,,,,,,,,
357039,0,5.9507,,,,,,,,,,,8,115.29,29.73,71.85,116.7,12.96,3302,1,18,54.8,0.96,0.88,12.66,0.0,123.0,56,57,0,0,66,0,0,0,0,1,32,32,32,32,32,31,31,30,26,27,27,27,27,26,27,27,32,30,29,29,30,32,34,31,30,30,32,33,34,34,36,34,0.0,0.0,0.0,0.0,0,0,0.0,0,0.0,-1,0.0,0,0.0,5.9507
357059,0,5.951,,0.04,-0.03,-0.07,-0,-0,1,0.09,1.01,9,,,,,,,,,,,,,,,,,,,,,,,,,,32,32,32,32,32,31,31,30,26,27,27,27,27,26,27,27,32,30,29,29,30,32,34,31,30,30,32,33,34,34,36,34,,,,,,,,,,,,,,
357079,0,5.9513,,,,,,,,,,,,,,,,,,,,,,,,,,,,,,,,,,,,32,32,32,32,32,31,30,30,26,27,27,27,27,26,27,27,32,30,29,29,30,32,34,31,30,31,32,33,34,34,36,34,,,,,,,,,,,,,,
357099,0,5.9517,,0.05,0.03,0.0,-0,-1,0,0.06,1.01,6,,,,,,,,,,,,,,,,,,,,,,,,,,32,32,32,32,32,31,30,30,26,27,27,27,27,27,27,27,32,30,29,29,30,32,34,31,30,31,32,33,34,34,36,34,,,,,,,,,,,,,,
357119,0,5.952,,,,,,,,,,,,,,,,,,,,,,,,,,,,,,,,,,,,32,32,32,32,32,31,30,30,26,27,27,27,27,27,27,27,32,30,29,29,30,32,34,31,30,31,32,33,34,34,36,34,,,,,,,,,,,,,,
357139,0,5.9523,,-0.13,0.05,-0.11,-0,-0,0,0.18,1.01,17,9,115.5,29.73,71.64,118.89,12.96,3576,1,18,54.6,0.96,0.88,12.67,0.0,116.0,56,57,0,0,66,0,0,0,0,1,32,32,32,32,32,31,30,30,26,27,27,27,27,27,27,27,32,30,29,29,30,32,34,31,30,31,32,33,34,34,36,34,0.0,0.0,0.0,0.0,0,0,0.0,0,0.0,-1,0.0,0,0.0,5.9523
357159,0,5.9527,,,,,,,,,,,,,,,,,,,,,,,,,,,,,,,,,,,,32,32,32,32,32,31,30,30,26,27,27,27,27,27,27,27,32,30,29,29,30,32,34,31,31,31,32,33,34,34,35,34,,,,,,,,,,,,,,
357179,0,5.953,,0.06,0.06,-0.19,-0,-1,0,0.21,1.01,21,,,,,,,,,,,,,,,,,,,,,,,,,,32,32,32,32,32,31,30,30,26,27,27,27,27,27,27,27,32,30,29,29,30,32,34,31,31,31,32,33,34,34,35,34,,,,,,,,,,,,,,
357199,0,5.9533,,,,,,,,,,,,,,,,,,,,,,,,,,,,,,,,,,,,32,32,32,32,32,31,30,30,26,27,27,27,27,27,27,27,32,30,29,29,30,32,34,31,31,31,32,33,34,34,35,34,,,,,,,,,,,,,,
357219,0,5.9536,,-0.06,0.08,-0.25,-0,0,0,0.27,1.01,27,,,,,,,,,,,,,,,,,,,,,,,,,,32,32,32,32,32,31,30,30,26,27,28,27,28,27,27,27,32,30,29,29,30,32,34,31,30,31,32,33,34,34,36,34,,,,,,,,,,,,,,
357239,0,5.954,,,,,,,,,,,9,115.38,29.85,71.64,117.03,12.98,3242,1,18,53.8,0.96,0.88,12.67,0.0,123.0,56,57,0,0,66,0,0,0,0,1,32,32,32,32,32,31,30,30,26,27,28,27,28,27,27,27,32,30,29,29,30,32,34,31,30,31,32,33,34,34,36,34,0.0,0.0,0.0,0.0,0,0,0.0,0,0.0,-1,0.0,0,0.0,5.954
357259,0,5.9543,,-0.1,0.05,-0.29,-0,1,0,0.31,1.01,31,,,,,,,,,,,,,,,,,,,,,,,,,,32,32,32,32,32,31,30,30,26,27,28,27,28,27,27,27,32,30,29,29,30,32,34,31,30,31,32,33,34,34,36,34,,,,,,,,,,,,,,
357279,0,5.9546,,,,,,,,,,,,,,,,,,,,,,,,,,,,,,,,,,,,32,32,32,32,32,31,30,30,26,27,28,27,28,27,27,27,32,30,29,29,30,32,34,31,30,31,32,33,34,34,36,34,,,,,,,,,,,,,,
357299,0,5.955,,0.17,0.04,-0.33,-0,1,0,0.38,1.01,37,,,,,,,,,,,,,,,,,,,,,,,,,,32,32,32,32,32,31,30,30,26,27,28,27,28,27,27,27,32,30,29,29,30,32,34,31,30,31,32,33,34,34,36,34,,,,,,,,,,,,,,
357319,0,5.9553,,,,,,,,,,,,,,,,,,,,,,,,,,,,,,,,,,,,32,32,32,32,32,31,30,30,26,27,28,27,28,27,27,27,32,30,29,29,30,32,34,31,30,31,32,33,34,34,36,34,,,,,,,,,,,,,,
357339,0,5.9556,13.17,0.1,0.03,-0.13,-0,1,0,0.16,1.01,16,9,115.29,29.97,71.85,112.17,12.95,3391,1,18,53.4,0.96,0.87,12.67,0.0,118.0,56,58,0,0,66,0,0,0,0,1,32,32,32,32,32,31,30,30,26,27,28,27,27,27,27,27,32,30,29,29,30,32,34,31,30,30,32,33,34,34,35,34,0.0,0.0,0.0,0.0,0,0,0.0,0,0.0,-1,0.0,0,0.0,5.9556
357359,0,5.956,,,,,,,,,,,,,,,,,,,,,,,,,,,,,,,,,,,,32,32,32,32,32,31,30,30,26,27,28,27,27,27,27,27,32,30,29,29,30,32,34,31,30,30,32,33,34,34,35,34,,,,,,,,,,,,,,
357379,0,5.9563,,-0.06,0.03,-0.28,0,1,0,0.29,1.01,29,,,,,,,,,,,,,,,,,,,,,,,,,,32,32,32,32,32,31,30,30,26,27,28,27,27,27,27,27,32,30,29,29,30,32,34,31,30,30,32,33,34,34,35,34,,,,,,,,,,,,,,
357399,0,5.9566,,,,,,,,,,,,,,,,,,,,,,,,,,,,,,,,,,,,32,32,32,32,32,31,30,30,26,27,28,28,28,27,27,27,32,30,29,29,30,32,34,31,30,31,32,33,34,34,35,34,,,,,,,,,,,,,,
357419,0,5.957,,0.08,0.01,-0.09,-0,2,1,0.12,1.01,12,,,,,,,,,,,,,,,,,,,,,,,,,,32,32,32,32,32,31,30,30,26,27,28,28,28,27,27,27,32,30,29,29,30,32,34,31,30,31,32,33,34,34,35,34,,,,,,,,,,,,,,
357439,0,5.9573,,,,,,,,,,,8,115.5,29.73,71.76,116.04,12.98,3415,1,18,57.8,0.96,0.86,12.66,0.0,113.0,56,57,0,0,66,0,0,0,0,1,32,32,32,32,32,31,30,30,26,27,28,28,28,27,27,27,32,30,29,29,30,32,34,31,30,31,32,33,34,34,35,34,0.0,0.0,0.0,0.0,0,0,0.0,0,0.0,-1,0.0,0,0.0,5.9573
357459,0,5.9577,,0.19,0.02,-0.08,-0,1,0,0.21,1.01,20,,,,,,,,,,,,,,,,,,,,,,,,,,32,32,32,32,32,31,30,30,26,27,28,28,28,27,27,27,32,30,29,29,30,32,34,31,30,30,32,33,34,34,35,34,,,,,,,,,,,,,,
357479,0,5.958,,,,,,,,,,,,,,,,,,,,,,,,,,,,,,,,,,,,32,32,32,32,32,31,30,30,26,28,28,27,28,27,27,27,32,30,29,29,30,32,34,31,30,30,32,33,34,34,35,34,,,,,,,,,,,,,,
357499,0,5.9583,,-0.01,-0.01,-0.23,-0,1,0,0.23,1.01,23,,,,,,,,,,,,,,,,,,,,,,,,,,32,32,32,32,32,31,30,30,26,28,28,27,28,27,27,27,32,30,29,29,30,32,34,31,30,30,32,33,34,34,35,34,,,,,,,,,,,,,,
357519,0,5.9587,,,,,,,,,,,,,,,,,,,,,,,,,,,,,,,,,,,,32,32,32,32,32,31,30,30,26,28,28,27,28,27,27,27,32,30,29,29,30,32,34,31,30,30,32,33,34,34,35,34,,,,,,,,,,,,,,
357539,0,5.959,,0.06,0.0,-0.32,-0,0,0,0.32,1.01,32,9,115.5,29.85,71.64,120.21,12.96,3516,1,18,60.0,0.96,0.88,12.67,0.0,121.0,56,57,0,0,66,0,0,0,0,1,32,32,32,32,32,31,31,30,26,27,28,28,28,27,27,27,32,30,29,29,30,32,34,31,30,30,32,33,34,34,36,34,0.0,0.0,0.0,0.0,0,0,0.0,0,0.0,-1,0.0,0,0.0,5.959
357559,0,5.9593,,,,,,,,,,,,,,,,,,,,,,,,,,,,,,,,,,,,32,32,32,32,32,31,31,30,26,27,28,28,28,27,27,27,32,30,29,29,30,32,34,31,30,30,32,33,34,34,36,34,,,,,,,,,,,,,,
357579,0,5.9596,,0.06,0.06,-0.17,0,-1,-0,0.19,1.01,19,,,,,,,,,,,,,,,,,,,,,,,,,,32,32,32,32,32,31,31,30,26,27,28,28,28,27,27,27,32,30,29,29,30,32,34,31,30,30,32,33,34,34,36,34,,,,,,,,,,,,,,
357599,0,5.96,,,,,,,,,,,,,,,,,,,,,,,,,,,,,,,,,,,,32,32,32,32,32,32,31,30,26,28,28,27,28,27,27,28,32,30,29,29,30,32,34,31,30,31,32,33,34,34,36,34,,,,,,,,,,,,,,
357619,0,5.9603,,-0.11,0.08,-0.31,-0,0,-0,0.34,1.01,34,,,,,,,,,,,,,,,,,,,,,,,,,,32,32,32,32,32,32,31,30,26,28,28,27,28,27,27,28,32,30,29,29,30,32,34,31,30,31,32,33,34,34,36,34,,,,,,,,,,,,,,
357639,0,5.9606,,,,,,,,,,,9,115.29,29.85,71.85,110.97,12.96,3501,1,18,57.6,0.96,0.88,12.66,0.0,118.0,56,56,0,0,66,0,0,0,0,1,32,32,32,32,32,32,31,30,26,28,28,27,28,27,27,28,32,30,29,29,30,32,34,31,30,31,32,33,34,34,36,34,0.0,0.0,0.0,0.0,0,0,0.0,0,0.0,-1,0.0,0,0.0,5.9606
357659,0,5.961,,0.11,0.08,-0.37,0,1,-0,0.4,1.01,39,,,,,,,,,,,,,,,,,,,,,,,,,,32,32,32,32,32,32,31,30,26,27,28,28,28,27,27,28,32,30,29,29,30,32,34,31,31,30,31,33,34,34,35,34,,,,,,,,,,,,,,
357679,0,5.9613,,,,,,,,,,,,,,,,,,,,,,,,,,,,,,,,,,,,32,32,32,32,32,32,31,30,26,27,28,28,28,27,27,28,32,30,29,29,30,32,34,31,31,30,31,33,34,34,35,34,,,,,,,,,,,,,,
357699,0,5.9616,,0.1,0.09,-0.21,0,0,-0,0.25,1.01,25,,,,,,,,,,,,,,,,,,,,,,,,,,32,32,32,32,32,32,31,30,26,27,28,28,28,27,27,28,32,30,29,29,30,32,34,31,31,30,31,33,34,34,35,34,,,,,,,,,,,,,,
357719,0,5.962,,,,,,,,,,,,,,,,,,,,,,,,,,,,,,,,,,,,32,32,32,32,32,32,31,30,26,27,28,28,28,27,28,28,32,30,29,29,30,32,34,31,30,31,32,33,34,34,36,34,,,,,,,,,,,,,,
357739,0,5.9623,,-0.07,0.08,-0.34,0,-1,-1,0.36,1.01,35,9,115.29,29.85,71.85,115.59,12.96,3493,1,18,57.1,0.96,0.92,12.67,0.0,119.0,56,57,0,0,66,0,0,0,0,1,32,32,32,32,32,32,31,30,26,27,28,28,28,27,28,28,32,30,29,29,30,32,34,31,30,31,32,33,34,34,36,34,0.0,0.0,0.0,0.0,0,0,0.0,0,0.0,-1,0.0,0,0.0,5.9623
357759,0,5.9626,,,,,,,,,,,,,,,,,,,,,,,,,,,,,,,,,,,,32,32,32,32,32,32,31,30,26,27,28,28,28,27,28,28,32,30,29,29,30,32,34,31,30,31,32,33,34,34,36,34,,,,,,,,,,,,,,
357779,0,5.963,,-0.07,0.09,-0.31,0,-1,-1,0.33,1.01,32,,,,,,,,,,,,,,,,,,,,,,,,,,32,32,32,32,32,31,31,30,26,28,28,28,28,28,28,28,32,30,29,29,30,32,34,31,31,30,32,33,34,34,36,34,,,,,,,,,,,,,,
357799,0,5.9633,,,,,,,,,,,,,,,,,,,,,,,,,,,,,,,,,,,,32,32,32,32,32,31,31,30,26,28,28,28,28,28,28,28,32,30,29,29,30,32,34,31,31,30,32,33,34,34,36,34,,,,,,,,,,,,,,
357819,0,5.9636,,0.14,0.09,-0.46,0,-2,-2,0.49,1.01,48,,,,,,,,,,,,,,,,,,,,,,,,,,32,32,32,32,32,31,31,30,26,28,28,28,28,28,28,28,32,30,29,29,30,32,34,31,31,30,32,33,34,34,36,34,,,,,,,,,,,,,,
357839,0,5.964,,,,,,,,,,,9,115.5,29.85,71.64,120.87,12.95,3561,1,18,56.9,0.96,0.87,12.67,0.0,114.0,56,58,0,0,66,0,0,0,0,1,32,32,32,32,32,31,31,30,26,28,28,28,28,28,28,28,32,30,29,29,30,32,34,31,30,30,31,33,34,34,35,34,0.0,0.0,0.0,0.0,0,0,0.0,0,0.0,-1,0.0,0,0.0,5.964
357859,0,5.9643,,0.05,0.05,-0.23,-0,-1,-1,0.24,1.01,24,,,,,,,,,,,,,,,,,,,,,,,,,,32,32,32,32,32,31,31,30,26,28,28,28,28,27,27,28,32,30,29,29,30,32,34,31,30,30,31,33,34,34,35,34,,,,,,,,,,,,,,
357879,0,5.9647,,,,,,,,,,,,,,,,,,,,,,,,,,,,,,,,,,,,32,32,32,32,32,31,31,30,26,28,28,28,28,27,27,28,32,30,29,29,30,32,34,31,30,30,31,33,34,34,35,34,,,,,,,,,,,,,,
357899,0,5.965,,-0.1,0.05,-0.27,-0,-0,-0,0.29,1.01,28,,,,,,,,,,,,,,,,,,,,,,,,,,32,32,32,32,32,31,31,30,26,28,28,28,28,27,27,28,32,30,29,29,30,32,34,31,30,30,31,33,34,34,35,34,,,,,,,,,,,,,,
357919,0,5.9653,,,,,,,,,,,,,,,,,,,,,,,,,,,,,,,,,,,,32,32,32,32,32,31,31,30,26,28,28,28,28,27,27,28,32,30,29,29,30,32,34,31,30,30,32,33,34,34,35,34,,,,,,,,,,,,,,
357939,0,5.9657,,-0.04,0.01,-0.13,-0,1,0,0.13,1.01,13,9,115.29,29.85,71.85,114.81,12.94,3461,1,18,56.4,0.96,0.9,12.68,0.0,109.0,56,57,0,0,66,0,0,0,0,1,32,32,32,32,32,31,31,30,26,28,28,28,28,27,27,28,32,30,29,29,30,32,34,31,30,30,32,33,34,34,35,34,0.0,0.0,0.0,0.0,0,0,0.0,0,0.0,-1,0.0,0,0.0,5.9657
357959,0,5.966,,,,,,,,,,,,,,,,,,,,,,,,,,,,,,,,,,,,32,32,32,32,32,31,31,30,26,28,28,28,28,27,27,28,32,30,29,29,30,32,34,31,30,30,32,33,34,34,35,34,,,,,,,,,,,,,,
357979,0,5.9663,,0.12,0.01,-0.13,-0,0,-0,0.18,1.01,17,,,,,,,,,,,,,,,,,,,,,,,,,,32,32,32,32,32,32,31,30,26,28,28,28,28,27,28,28,32,30,29,29,30,32,34,31,30,30,32,32,34,34,35,33,,,,,,,,,,,,,,
357999,0,5.9666,,,,,,,,,,,,,,,,,,,,,,,,,,,,,,,,,,,,32,32,32,32,32,32,31,30,26,28,28,28,28,27,28,28,32,30,29,29,30,32,34,31,30,30,32,32,34,34,35,33,,,,,,,,,,,,,,
358019,0,5.967,,-0.07,-0.0,-0.37,-0,-1,-1,0.37,1.01,37,,,,,,,,,,,,,,,,,,,,,,,,,,32,32,32,32,32,32,31,30,26,28,28,28,28,27,28,28,32,30,29,29,30,32,34,31,30,30,32,32,34,34,35,33,,,,,,,,,,,,,,
358039,0,5.9673,,,,,,,,,,,8,115.5,29.73,71.76,115.14,12.95,3415,1,18,55.4,0.96,0.89,12.66,0.0,124.0,56,57,0,0,66,0,0,0,0,1,32,32,32,32,32,32,31,30,26,28,28,28,28,27,27,28,32,30,29,29,30,32,34,31,30,30,31,33,34,34,35,33,0.0,0.0,0.0,0.0,0,0,0.0,0,0.0,-1,0.0,0,0.0,5.9673
358059,0,5.9676,,-0.02,0.0,-0.22,-0,-1,-1,0.22,1.01,22,,,,,,,,,,,,,,,,,,,,,,,,,,32,32,32,32,32,32,31,30,26,28,28,28,28,27,27,28,32,30,29,29,30,32,34,31,30,30,31,33,34,34,35,33,,,,,,,,,,,,,,
358079,0,5.968,,,,,,,,,,,,,,,,,,,,,,,,,,,,,,,,,,,,32,32,32,32,32,32,31,30,26,28,28,28,28,27,27,28,32,30,29,29,30,32,34,31,30,30,31,33,34,34,35,33,,,,,,,,,,,,,,
358099,0,5.9683,,0.07,0.03,-0.06,-0,-1,-0,0.1,1.01,9,,,,,,,,,,,,,,,,,,,,,,,,,,32,32,32,32,32,31,30,30,26,28,28,28,28,28,28,28,32,30,29,29,30,32,34,31,30,30,31,33,34,34,35,33,,,,,,,,,,,,,,
358119,0,5.9686,,,,,,,,,,,,,,,,,,,,,,,,,,,,,,,,,,,,32,32,32,32,32,31,30,30,26,28,28,28,28,28,28,28,32,30,29,29,30,32,34,31,30,30,31,33,34,34,35,33,,,,,,,,,,,,,,
358139,0,5.969,,-0.07,-0.02,-0.05,-0,-0,1,0.09,1.01,9,9,115.38,29.85,71.64,121.95,12.95,3293,1,18,54.7,0.96,0.88,12.67,0.0,115.0,56,57,0,0,66,0,0,0,0,1,32,32,32,32,32,31,30,30,26,28,28,28,28,28,28,28,32,30,29,29,30,32,34,31,30,30,31,33,34,34,35,33,0.0,0.0,0.0,0.0,0,0,0.0,0,0.0,-1,0.0,0,0.0,5.969
358159,0,5.9693,,,,,,,,,,,,,,,,,,,,,,,,,,,,,,,,,,,,32,32,32,32,32,31,31,30,26,28,28,28,28,28,28,28,32,30,29,29,30,32,34,31,31,30,32,33,34,34,35,34,,,,,,,,,,,,,,
358179,0,5.9696,,0.0,-0.03,0.14,-0,1,1,0.14,1.01,14,,,,,,,,,,,,,,,,,,,,,,,,,,32,32,32,32,32,31,31,30,26,28,28,28,28,28,28,28,32,30,29,29,30,32,34,31,31,30,32,33,34,34,35,34,,,,,,,,,,,,,,
358199,0,5.97,,,,,,,,,,,,,,,,,,,,,,,,,,,,,,,,,,,,32,32,32,32,32,31,31,30,26,28,28,28,28,28,28,28,32,30,29,29,30,32,34,31,31,30,32,33,34,34,35,34,,,,,,,,,,,,,,
358219,0,5.9703,,0.13,-0.04,0.14,-0,1,1,0.19,1.01,19,,,,,,,,,,,,,,,,,,,,,,,,,,32,32,32,32,32,31,31,30,26,28,28,28,28,28,28,28,32,30,29,29,30,32,34,31,30,30,31,32,34,34,35,34,,,,,,,,,,,,,,
358239,0,5.9707,,,,,,,,,,,9,115.17,29.97,71.85,111.96,12.95,3501,1,18,53.5,0.96,0.91,12.66,0.0,126.0,56,58,0,0,66,0,0,0,0,1,32,32,32,32,32,31,31,30,26,28,28,28,28,28,27,28,32,30,29,29,30,32,34,31,30,30,31,32,34,34,35,34,0.0,0.0,0.0,0.0,0,0,0.0,0,0.0,-1,0.0,0,0.0,5.9707
358259,0,5.971,,-0.08,-0.06,-0.02,-0,-0,-0,0.1,1.01,10,,,,,,,,,,,,,,,,,,,,,,,,,,32,32,32,32,32,31,31,30,26,28,28,28,28,28,27,28,32,30,29,29,30,32,34,31,30,30,31,32,34,34,35,34,,,,,,,,,,,,,,
358279,0,5.9713,,,,,,,,,,,,,,,,,,,,,,,,,,,,,,,,,,,,32,32,32,32,32,31,30,30,26,28,28,28,28,28,27,28,32,30,29,29,30,32,34,31,30,30,31,32,34,34,35,34,,,,,,,,,,,,,,
358299,0,5.9717,,-0.02,-0.04,0.05,-0,-1,0,0.07,1.01,7,,,,,,,,,,,,,,,,,,,,,,,,,,32,32,32,32,32,31,30,30,26,28,28,28,28,27,27,28,32,30,29,29,30,32,34,31,30,30,31,32,34,34,35,33,,,,,,,,,,,,,,
358319,0,5.972,,,,,,,,,,,,,,,,,,,,,,,,,,,,,,,,,,,,32,32,32,32,32,31,30,30,26,28,28,28,28,27,27,28,32,30,29,29,30,32,34,31,30,30,31,32,34,34,35,33,,,,,,,,,,,,,,
358339,0,5.9723,13.18,0.02,0.02,0.18,-0,-1,-0,0.18,1.01,18,9,115.38,29.73,71.85,114.27,12.95,3501,1,18,53.7,0.96,0.9,12.67,0.0,121.0,56,58,0,0,66,0,0,0,0,1,32,32,32,32,32,31,30,30,26,28,28,28,28,27,27,28,32,30,29,29,30,32,34,31,30,30,31,32,34,34,35,33,0.0,0.0,0.0,0.0,0,0,0.0,0,0.0,-1,0.0,0,0.0,5.9723
358359,0,5.9727,,,,,,,,,,,,,,,,,,,,,,,,,,,,,,,,,,,,32,32,32,32,32,31,30,30,26,28,28,28,28,28,28,28,32,30,29,29,30,32,34,31,30,30,32,33,34,34,35,34,,,,,,,,,,,,,,
358379,0,5.973,,-0.15,0.03,0.09,-0,0,0,0.17,1.01,17,,,,,,,,,,,,,,,,,,,,,,,,,,32,32,32,32,32,31,30,30,26,28,28,28,28,28,28,28,32,30,29,29,30,32,34,31,30,30,32,33,34,34,35,34,,,,,,,,,,,,,,
358399,0,5.9733,,,,,,,,,,,,,,,,,,,,,,,,,,,,,,,,,,,,32,32,32,32,32,31,30,30,26,28,28,28,28,28,28,28,32,30,29,29,30,32,34,31,30,30,32,33,34,34,35,34,,,,,,,,,,,,,,
358419,0,5.9736,,0.1,0.01,-0.06,-0,0,0,0.11,1.01,11,,,,,,,,,,,,,,,,,,,,,,,,,,32,32,32,32,32,31,30,30,26,28,28,28,28,27,27,28,32,30,29,29,30,32,34,31,30,30,31,32,34,34,35,34,,,,,,,,,,,,,,
358439,0,5.974,,,,,,,,,,,9,115.5,29.73,71.64,115.05,12.94,3576,1,18,54.3,0.96,0.88,12.66,0.0,119.0,56,57,0,0,66,0,0,0,0,1,32,32,32,32,32,31,30,30,26,28,28,28,28,27,27,28,32,30,29,29,30,32,34,31,30,30,31,32,34,34,35,34,0.0,0.0,0.0,0.0,0,0,0.0,0,0.0,-1,0.0,0,0.0,5.974
358459,0,5.9743,,0.0,-0.02,0.01,-0,0,0,0.03,1.01,3,,,,,,,,,,,,,,,,,,,,,,,,,,32,32,32,32,32,31,30,30,26,28,28,28,28,27,27,28,32,30,29,29,30,32,34,31,30,30,31,32,34,34,35,34,,,,,,,,,,,,,,
358479,0,5.9746,,,,,,,,,,,,,,,,,,,,,,,,,,,,,,,,,,,,32,32,32,32,32,32,31,30,26,28,28,28,28,28,28,28,32,30,29,29,30,32,34,31,30,30,32,33,34,34,35,33,,,,,,,,,,,,,,
358499,0,5.975,,-0.01,-0.06,-0.09,-0,0,-0,0.11,1.01,11,,,,,,,,,,,,,,,,,,,,,,,,,,32,32,32,32,32,32,31,30,26,28,28,28,28,28,28,28,32,30,29,29,30,32,34,31,30,30,32,33,34,34,35,33,,,,,,,,,,,,,,
358519,0,5.9753,,,,,,,,,,,,,,,,,,,,,,,,,,,,,,,,,,,,32,32,32,32,32,32,31,30,26,28,28,28,28,28,28,28,32,30,29,29,30,32,34,31,30,30,32,33,34,34,35,33,,,,,,,,,,,,,,
358539,0,5.9756,,0.11,-0.01,0.05,0,0,-0,0.13,1.01,13,8,115.5,29.85,71.64,118.23,12.98,3633,1,18,53.1,0.96,0.88,12.67,0.0,124.0,56,58,0,0,66,0,0,0,0,1,32,32,32,32,32,32,31,30,26,28,28,28,28,28,28,28,32,30,29,29,30,32,34,31,30,30,31,33,34,34,35,33,0.0,0.0,0.0,0.0,0,0,0.0,0,0.0,-1,0.0,0,0.0,5.9756
358559,0,5.976,,,,,,,,,,,,,,,,,,,,,,,,,,,,,,,,,,,,32,32,32,32,32,32,31,30,26,28,28,28,28,28,28,28,32,30,29,29,30,32,34,31,30,30,31,33,34,34,35,33,,,,,,,,,,,,,,
358579,0,5.9763,,-0.05,-0.02,-0.01,-0,1,0,0.05,1.01,5,,,,,,,,,,,,,,,,,,,,,,,,,,32,32,32,32,32,32,31,30,26,28,28,28,28,28,28,28,32,30,29,29,30,32,34,31,30,30,31,33,34,34,35,33,,,,,,,,,,,,,,
358599,0,5.9767,,,,,,,,,,,,,,,,,,,,,,,,,,,,,,,,,,,,32,32,32,32,32,31,30,30,26,28,28,28,28,28,28,28,32,30,29,29,30,32,34,31,30,30,31,32,34,34,35,33,,,,,,,,,,,,,,
358619,0,5.977,,0.17,-0.02,-0.28,-0,1,-0,0.33,1.01,33,,,,,,,,,,,,,,,,,,,,,,,,,,32,32,32,32,32,31,30,30,26,28,28,28,28,28,27,28,32,30,29,29,30,32,34,31,30,30,31,32,34,34,35,33,,,,,,,,,,,,,,
358639,0,5.9773,,,,,,,,,,,9,115.38,29.85,71.64,116.79,12.96,3572,1,18,53.8,0.96,0.85,12.66,0.0,118.0,56,57,0,0,66,0,0,0,0,1,32,32,32,32,32,31,30,30,26,28,28,28,28,28,27,28,32,30,29,29,30,32,34,31,30,30,31,32,34,34,35,33,0.0,0.0,0.0,0.0,0,0,0.0,0,0.0,-1,0.0,0,0.0,5.9773
358659,0,5.9777,,0.1,-0.04,-0.1,0,1,-0,0.15,1.01,14,,,,,,,,,,,,,,,,,,,,,,,,,,32,32,32,32,32,32,31,30,26,28,28,28,28,28,27,28,32,30,29,29,30,32,34,31,30,30,31,32,34,34,35,33,,,,,,,,,,,,,,
358679,0,5.978,,,,,,,,,,,,,,,,,,,,,,,,,,,,,,,,,,,,32,32,32,32,32,32,31,30,26,28,28,28,28,28,28,28,32,30,29,29,30,32,34,31,31,30,32,33,34,34,36,33,,,,,,,,,,,,,,
358699,0,5.9783,,-0.0,-0.04,-0.11,-0,1,0,0.12,1.01,12,,,,,,,,,,,,,,,,,,,,,,,,,,32,32,32,32,32,32,31,30,26,28,28,28,28,28,28,28,32,30,29,29,30,32,34,31,31,30,32,33,34,34,36,33,,,,,,,,,,,,,,
358719,0,5.9787,,,,,,,,,,,,,,,,,,,,,,,,,,,,,,,,,,,,32,32,32,32,32,32,31,30,26,28,28,28,28,28,28,28,32,30,29,29,30,32,34,31,31,30,32,33,34,34,36,33,,,,,,,,,,,,,,
