"Interval"|"ms"|0|0|1,"Utc"|"ms"|0|0|1,"ElapsedTime"|"Min"|0.0|0.0|10,"Battery"|"Volts"|0.0|20.0|1,"AccelX"|"G"|-3.0|3.0|25,"AccelY"|"G"|-3.0|3.0|25,"AccelZ"|"G"|-3.0|3.0|25,"Yaw"|"Deg/Sec"|-120|120|25,"Pitch"|"Deg/Sec"|-120|120|25,"Roll"|"Deg/Sec"|-120|120|25,"Gsum"|"G"|0.0|3.0|25,"GsumMax"|"G"|0.0|3.0|25,"GsumPct"|"%"|0|100|25,"StAngle"|"Deg"|-100|100|10,"SuspPosFL"|"mm"|0.0|150.0|100,"SuspPosRL"|"mm"|0.0|150.0|100,"SuspPosFR"|"mm"|0.0|150.0|100,"SuspPosRR"|"mm"|0.0|150.0|100,"RPM"|"RPM"|0|15000|10,"MAP"|"kPa"|0.0|200.0|10,"IAT"|"C"|0.0|200.0|10,"TPS"|"%"|0|100|10,"FuelDC"|"%"|0.0|100.0|10,"WheelSpdFL"|"km/h"|0.0|200.0|10,"WheelSpdFR"|"km/h"|0.0|200.0|10,"WheelSpdRL"|"km/h"|0.0|200.0|10,"WheelSpdRR"|"km/h"|0.0|200.0|10,"EngineTemp"|"C"|0.0|200.0|10,"ECU_BAT"|"V"|0.0|20.0|10,"BP-F"|"Bar"|-200.0|200.0|10,"BP-R"|"Bar"|-200.0|200.0|10,"TireTmpLF1"|"C"|-40|200|50,"TireTmpLF2"|"C"|-40|200|50,"TireTmpLF3"|"C"|-40|200|50,"TireTmpLF4"|"C"|-40|200|50,"TireTmpLF5"|"C"|-40|200|50,"TireTmpLF6"|"C"|-40|200|50,"TireTmpLF7"|"C"|-40|200|50,"TireTmpLF8"|"C"|-40|200|50,"TireTmpRF1"|"C"|-40|200|50,"TireTmpRF2"|"C"|-40|200|50,"TireTmpRF3"|"C"|-40|200|50,"TireTmpRF4"|"C"|-40|200|50,"TireTmpRF5"|"C"|-40|200|50,"TireTmpRF6"|"C"|-40|200|50,"TireTmpRF7"|"C"|-40|200|50,"TireTmpRF8"|"C"|-40|200|50,"TireTmpLR1"|"C"|-40|200|50,"TireTmpLR2"|"C"|-40|200|50,"TireTmpLR3"|"C"|-40|200|50,"TireTmpLR4"|"C"|-40|200|50,"TireTmpLR5"|"C"|-40|200|50,"TireTmpLR6"|"C"|-40|200|50,"TireTmpLR7"|"C"|-40|200|50,"TireTmpLR8"|"C"|-40|200|50,"TireTmpRR1"|"C"|-40|200|50,"TireTmpRR2"|"C"|-40|200|50,"TireTmpRR3"|"C"|-40|200|50,"TireTmpRR4"|"C"|-40|200|50,"TireTmpRR5"|"C"|-40|200|50,"TireTmpRR6"|"C"|-40|200|50,"TireTmpRR7"|"C"|-40|200|50,"TireTmpRR8"|"C"|-40|200|50,"Latitude"|"Degrees"|-180.0|180.0|10,"Longitude"|"Degrees"|-180.0|180.0|10,"Speed"|"kph"|0.0|150.0|10,"Altitude"|"m"|0.0|4000.0|10,"GPSSats"|""|0|20|10,"GPSQual"|""|0|5|10,"GPSDOP"|""|0.0|20.0|10,"LapCount"|""|0|0|10,"LapTime"|"Min"|0.0|0.0|10,"Sector"|""|0|0|10,"SectorTime"|"Min"|0.0|0.0|10,"CurrentLap"|""|0|0|10,"Distance"|"mi"|0.0|0.0|10,"SessionTime"|"Min"|0.0|0.0|10
7830,0,0.1305,,,,,,,,,,,,0.0,95.97,72.96,112.83,,,,,,,,,,,,,,,,,,,,,,,,,,,,,,,,,,,,,,,,,,,,,,,,,,,,,,,,,,,
7840,0,0.1307,,-0.02,0.05,-0.06,0,2,-1,0.08,0.18,42,,0.0,95.97,72.96,118.77,,,,,,,,,,,,,,48,52,52,52,51,53,50,48,42,48,48,48,48,48,48,46,28,30,31,30,30,29,28,28,34,35,36,36,36,35,34,32,,,,,,,,,,,,,,
7850,0,0.1308,,,,,,,,,,,,0.0,95.97,72.96,121.08,,,,,,,,,,,,,,,,,,,,,,,,,,,,,,,,,,,,,,,,,,,,,,,,,,,,,,,,,,,
7860,0,0.131,,,,,,,,,,,,0.0,95.97,72.96,122.4,,,,,,,,,,,,,,48,51,52,52,51,53,50,48,42,48,48,48,48,48,48,46,28,30,31,30,30,29,28,28,34,35,36,36,36,35,34,32,,,,,,,,,,,,,,
7870,0,0.1312,,,,,,,,,,,,0.0,95.97,72.96,124.5,,,,,,,,,,,,,,,,,,,,,,,,,,,,,,,,,,,,,,,,,,,,,,,,,,,,,,,,,,,
7880,0,0.1313,,-0.01,0.07,0.09,0,3,-0,0.12,0.18,64,,0.0,95.97,72.96,115.8,,,,,,,,,,,,,,48,51,52,52,51,53,50,48,42,48,48,48,48,48,48,46,29,30,31,30,30,29,28,29,34,36,36,36,36,35,34,32,,,,,,,,,,,,,,
7890,0,0.1315,,,,,,,,,,,,0.0,95.97,72.84,110.19,,,,,,,,,,,,,,,,,,,,,,,,,,,,,,,,,,,,,,,,,,,,,,,,,,,,,,,,,,,
7900,0,0.1317,,,,,,,,,,,,0.0,95.85,73.05,108.33,,,,,,,,,,,,,,48,51,52,52,51,53,50,48,42,48,48,48,48,48,48,46,29,30,31,30,30,29,28,29,34,36,36,36,36,35,34,32,,,,,,,,,,,,,,
7910,0,0.1318,,,,,,,,,,,,0.0,95.85,72.96,114.27,,,,,,,,,,,,,,,,,,,,,,,,,,,,,,,,,,,,,,,,,,,,,,,,,,,,,,,,,,,
7920,0,0.132,,-0.02,0.07,0.04,0,3,-1,0.08,0.18,46,-3,0.0,95.85,72.96,110.85,2333,83.2,28.8,0,14.0,0.0,0.0,0.0,0.0,91.0,12.3,-319.6,181.75,48,52,52,52,51,54,50,48,42,48,48,48,48,48,48,46,29,30,31,30,30,29,28,29,34,36,36,36,36,35,34,32,0.0,0.0,0.0,0.0,0,0,0.0,0,0.0,-1,0.0,0,0.0,0.132
7930,0,0.1322,,,,,,,,,,,,0.0,95.85,73.05,110.19,,,,,,,,,,,,,,,,,,,,,,,,,,,,,,,,,,,,,,,,,,,,,,,,,,,,,,,,,,,
7940,0,0.1323,,,,,,,,,,,,0.0,95.97,73.05,113.49,,,,,,,,,,,,,,48,52,52,52,51,54,50,48,42,48,48,48,48,48,48,46,28,30,31,30,30,29,28,28,34,35,36,36,36,35,34,32,,,,,,,,,,,,,,
7950,0,0.1325,,,,,,,,,,,,0.0,95.85,72.96,110.52,,,,,,,,,,,,,,,,,,,,,,,,,,,,,,,,,,,,,,,,,,,,,,,,,,,,,,,,,,,
7960,0,0.1327,,0.03,0.09,0.03,0,3,-1,0.1,0.18,53,,0.0,95.85,73.05,116.91,,,,,,,,,,,,,,48,52,52,52,51,54,50,48,42,48,48,48,48,48,48,46,28,30,31,30,30,29,28,28,34,35,36,36,36,35,34,32,,,,,,,,,,,,,,
7970,0,0.1328,,,,,,,,,,,,0.0,95.97,72.96,118.77,,,,,,,,,,,,,,,,,,,,,,,,,,,,,,,,,,,,,,,,,,,,,,,,,,,,,,,,,,,
7980,0,0.133,,,,,,,,,,,,0.0,95.97,73.05,118.35,,,,,,,,,,,,,,48,52,52,52,51,54,50,48,42,48,48,48,48,48,48,46,28,30,31,30,30,29,28,28,34,35,36,36,36,35,34,32,,,,,,,,,,,,,,
7990,0,0.1332,,,,,,,,,,,,0.0,95.97,73.05,108.78,,,,,,,,,,,,,,,,,,,,,,,,,,,,,,,,,,,,,,,,,,,,,,,,,,,,,,,,,,,
8000,0,0.1333,,-0.02,0.09,0.02,0,3,-1,0.1,0.18,55,,0.0,95.85,72.96,112.17,,,,,,,,,,,,,,48,52,52,52,52,53,50,48,42,48,48,48,48,48,48,46,28,30,31,30,30,29,28,28,34,35,36,36,36,34,34,32,,,,,,,,,,,,,,
8010,0,0.1335,,,,,,,,,,,,0.0,95.97,73.05,115.71,,,,,,,,,,,,,,,,,,,,,,,,,,,,,,,,,,,,,,,,,,,,,,,,,,,,,,,,,,,
8020,0,0.1337,,,,,,,,,,,-3,0.0,95.97,72.96,111.75,2027,81.4,28.8,0,12.0,0.0,0.0,0.0,0.0,91.0,12.4,-319.6,181.75,48,52,52,52,52,53,50,48,42,48,48,48,48,48,48,46,29,30,31,30,30,29,28,28,34,35,36,36,36,34,34,32,0.0,0.0,0.0,0.0,0,0,0.0,0,0.0,-1,0.0,0,0.0,0.1337
8030,0,0.1338,,,,,,,,,,,,0.0,95.97,72.96,117.24,,,,,,,,,,,,,,,,,,,,,,,,,,,,,,,,,,,,,,,,,,,,,,,,,,,,,,,,,,,
8040,0,0.134,,-0.04,0.1,0.05,0,2,-1,0.12,0.18,66,,0.0,95.97,73.05,119.67,,,,,,,,,,,,,,48,52,52,52,52,53,50,48,42,48,48,48,48,48,48,46,29,30,31,30,30,29,28,28,34,35,36,36,36,34,34,32,,,,,,,,,,,,,,
8050,0,0.1342,,,,,,,,,,,,0.0,95.97,73.05,111.96,,,,,,,,,,,,,,,,,,,,,,,,,,,,,,,,,,,,,,,,,,,,,,,,,,,,,,,,,,,
8060,0,0.1343,,,,,,,,,,,,0.0,95.85,73.05,111.18,,,,,,,,,,,,,,48,52,52,52,52,54,51,49,42,48,48,48,48,48,48,46,29,30,31,30,30,29,28,28,34,36,36,36,36,35,34,32,,,,,,,,,,,,,,
8070,0,0.1345,,,,,,,,,,,,0.0,95.97,73.05,113.61,,,,,,,,,,,,,,,,,,,,,,,,,,,,,,,,,,,,,,,,,,,,,,,,,,,,,,,,,,,
8080,0,0.1347,,-0.04,0.07,-0.1,-0,2,-1,0.13,0.18,72,,0.0,95.85,72.84,110.43,,,,,,,,,,,,,,48,52,52,52,52,54,51,49,42,48,48,48,48,48,48,46,29,30,31,30,30,29,28,28,34,36,36,36,36,35,34,32,,,,,,,,,,,,,,
8090,0,0.1348,,,,,,,,,,,,0.0,95.85,73.05,114.81,,,,,,,,,,,,,,,,,,,,,,,,,,,,,,,,,,,,,,,,,,,,,,,,,,,,,,,,,,,
8100,0,0.135,,,,,,,,,,,,0.0,95.97,73.05,111.51,,,,,,,,,,,,,,48,52,52,52,52,54,51,49,42,48,48,48,48,48,48,46,29,30,31,30,30,29,28,28,34,36,36,36,36,35,34,32,,,,,,,,,,,,,,
8110,0,0.1352,,,,,,,,,,,,0.0,95.97,72.96,110.64,,,,,,,,,,,,,,,,,,,,,,,,,,,,,,,,,,,,,,,,,,,,,,,,,,,,,,,,,,,
8120,0,0.1353,,-0.05,0.05,-0.04,-0,3,-1,0.07,0.18,41,-4,0.0,95.97,73.17,117.69,2174,79.9,28.8,0,13.0,0.0,0.0,0.0,0.0,91.0,12.3,-319.6,181.75,48,52,52,52,52,54,51,48,42,48,48,48,48,48,48,45,29,30,31,30,30,29,28,28,34,35,36,36,36,35,34,32,0.0,0.0,0.0,0.0,0,0,0.0,0,0.0,-1,0.0,0,0.0,0.1353
8130,0,0.1355,,,,,,,,,,,,0.0,95.97,72.96,117.12,,,,,,,,,,,,,,,,,,,,,,,,,,,,,,,,,,,,,,,,,,,,,,,,,,,,,,,,,,,
8140,0,0.1357,,,,,,,,,,,,0.0,95.97,73.05,115.38,,,,,,,,,,,,,,48,52,52,52,52,54,51,48,42,48,48,48,48,48,48,45,29,30,31,30,30,30,28,28,34,35,36,36,36,35,34,32,,,,,,,,,,,,,,
8150,0,0.1358,,,,,,,,,,,,0.0,95.97,73.05,110.52,,,,,,,,,,,,,,,,,,,,,,,,,,,,,,,,,,,,,,,,,,,,,,,,,,,,,,,,,,,
8160,0,0.136,,-0.01,0.05,-0.03,-0,2,-1,0.06,0.18,33,,0.0,95.97,73.05,110.1,,,,,,,,,,,,,,48,52,52,52,52,54,51,48,42,48,48,48,48,48,48,45,29,30,31,30,30,30,28,28,34,35,36,36,36,35,34,32,,,,,,,,,,,,,,
8170,0,0.1362,,,,,,,,,,,,0.0,95.97,72.96,109.89,,,,,,,,,,,,,,,,,,,,,,,,,,,,,,,,,,,,,,,,,,,,,,,,,,,,,,,,,,,
8180,0,0.1363,,,,,,,,,,,,0.0,95.97,73.05,113.28,,,,,,,,,,,,,,48,52,52,52,52,54,51,49,42,48,48,48,48,48,48,46,29,30,31,30,30,30,28,28,35,36,36,36,36,35,34,32,,,,,,,,,,,,,,
8190,0,0.1365,,,,,,,,,,,,0.0,95.85,72.96,114.27,,,,,,,,,,,,,,,,,,,,,,,,,,,,,,,,,,,,,,,,,,,,,,,,,,,,,,,,,,,
8200,0,0.1367,,-0.01,0.05,-0.02,0,2,-1,0.05,0.18,27,,0.0,95.97,73.05,115.71,,,,,,,,,,,,,,48,52,52,52,52,54,51,49,42,48,48,48,48,48,48,46,28,30,31,30,30,29,28,28,35,36,36,36,36,35,34,32,,,,,,,,,,,,,,
8210,0,0.1368,,,,,,,,,,,,0.0,95.97,72.96,121.74,,,,,,,,,,,,,,,,,,,,,,,,,,,,,,,,,,,,,,,,,,,,,,,,,,,,,,,,,,,
8220,0,0.137,,,,,,,,,,,-3,0.0,95.97,73.05,115.8,1935,79.1,28.8,0,11.0,0.0,0.0,0.0,0.0,91.0,12.4,-319.6,181.75,48,52,52,52,52,54,51,49,42,48,48,48,48,48,48,46,28,30,31,30,30,29,28,28,35,36,36,36,36,35,34,32,0.0,0.0,0.0,0.0,0,0,0.0,0,0.0,-1,0.0,0,0.0,0.137
8230,0,0.1372,,,,,,,,,,,,0.0,95.85,72.96,112.17,,,,,,,,,,,,,,,,,,,,,,,,,,,,,,,,,,,,,,,,,,,,,,,,,,,,,,,,,,,
8240,0,0.1373,,-0.01,0.04,-0.04,0,2,-1,0.06,0.18,31,,0.0,95.85,73.05,111.3,,,,,,,,,,,,,,48,52,52,52,52,54,51,49,42,48,48,48,48,48,48,46,28,30,31,30,30,29,28,28,35,36,36,36,36,35,34,32,,,,,,,,,,,,,,
8250,0,0.1375,,,,,,,,,,,,0.0,95.85,72.96,112.95,,,,,,,,,,,,,,,,,,,,,,,,,,,,,,,,,,,,,,,,,,,,,,,,,,,,,,,,,,,
8260,0,0.1377,,,,,,,,,,,,0.0,95.85,72.96,118.02,,,,,,,,,,,,,,48,52,52,52,52,54,51,49,42,48,48,48,48,48,48,46,29,30,31,30,30,29,28,28,34,36,36,36,36,35,34,32,,,,,,,,,,,,,,
8270,0,0.1378,,,,,,,,,,,,0.0,95.97,73.05,116.46,,,,,,,,,,,,,,,,,,,,,,,,,,,,,,,,,,,,,,,,,,,,,,,,,,,,,,,,,,,
8280,0,0.138,,0.03,0.04,-0.02,0,2,-1,0.05,0.18,30,,0.0,95.97,73.05,113.94,,,,,,,,,,,,,,48,52,52,52,52,54,51,49,42,48,48,48,48,48,48,46,29,30,31,30,30,29,28,28,34,36,36,36,36,35,34,32,,,,,,,,,,,,,,
8290,0,0.1382,,,,,,,,,,,,0.0,95.97,72.96,112.29,,,,,,,,,,,,,,,,,,,,,,,,,,,,,,,,,,,,,,,,,,,,,,,,,,,,,,,,,,,
8300,0,0.1383,,,,,,,,,,,,0.0,95.97,73.05,116.7,,,,,,,,,,,,,,48,52,52,52,52,54,51,49,42,48,48,48,48,48,48,46,29,30,31,30,30,29,28,28,34,36,36,36,36,35,34,32,,,,,,,,,,,,,,
8310,0,0.1385,,,,,,,,,,,,0.0,95.97,72.96,112.62,,,,,,,,,,,,,,,,,,,,,,,,,,,,,,,,,,,,,,,,,,,,,,,,,,,,,,,,,,,
8320,0,0.1387,12.72,0.03,0.04,-0.03,0,2,-1,0.06,0.18,32,-3,0.0,95.97,73.05,121.74,1884,79.8,28.8,0,11.0,0.0,0.0,0.0,0.0,91.0,12.2,-319.6,181.75,48,52,52,52,52,54,51,49,42,48,48,48,48,48,48,46,28,30,31,30,30,29,28,28,35,36,36,36,36,35,34,32,0.0,0.0,0.0,0.0,0,0,0.0,0,0.0,-1,0.0,0,0.0,0.1387
8330,0,0.1388,,,,,,,,,,,,0.0,95.97,72.96,123.84,,,,,,,,,,,,,,,,,,,,,,,,,,,,,,,,,,,,,,,,,,,,,,,,,,,,,,,,,,,
8340,0,0.139,,,,,,,,,,,,0.0,95.97,73.05,114.15,,,,,,,,,,,,,,48,52,52,52,52,54,51,49,42,48,48,48,48,48,48,46,28,30,31,30,30,29,28,28,35,36,36,36,36,35,34,32,,,,,,,,,,,,,,
8350,0,0.1392,,,,,,,,,,,,0.0,95.97,73.05,113.28,,,,,,,,,,,,,,,,,,,,,,,,,,,,,,,,,,,,,,,,,,,,,,,,,,,,,,,,,,,
8360,0,0.1393,,-0.0,0.05,-0.04,0,2,-1,0.07,0.18,37,,0.0,95.97,72.96,112.74,,,,,,,,,,,,,,48,52,52,52,52,54,51,49,42,48,48,48,48,48,48,46,28,30,31,30,30,29,28,28,35,36,36,36,36,35,34,32,,,,,,,,,,,,,,
8370,0,0.1395,,,,,,,,,,,,0.0,95.97,73.05,114.15,,,,,,,,,,,,,,,,,,,,,,,,,,,,,,,,,,,,,,,,,,,,,,,,,,,,,,,,,,,
8380,0,0.1397,,,,,,,,,,,,0.0,95.97,72.96,119.55,,,,,,,,,,,,,,48,52,52,52,52,54,51,48,42,48,48,48,48,48,48,46,28,30,31,30,30,29,28,28,35,36,36,36,36,35,34,32,,,,,,,,,,,,,,
8390,0,0.1398,,,,,,,,,,,,0.0,95.97,73.05,119.55,,,,,,,,,,,,,,,,,,,,,,,,,,,,,,,,,,,,,,,,,,,,,,,,,,,,,,,,,,,
8400,0,0.14,,0.02,0.06,-0.07,0,2,-1,0.09,0.18,50,,0.0,95.97,72.96,125.82,,,,,,,,,,,,,,48,52,52,52,52,54,51,48,42,48,48,48,48,48,48,46,28,30,31,30,30,29,28,28,35,36,36,36,36,35,34,32,,,,,,,,,,,,,,
8410,0,0.1402,,,,,,,,,,,,0.0,95.97,72.96,125.82,,,,,,,,,,,,,,,,,,,,,,,,,,,,,,,,,,,,,,,,,,,,,,,,,,,,,,,,,,,
8420,0,0.1403,,,,,,,,,,,-3,0.0,95.97,73.05,126.36,1645,80.8,28.8,0,10.0,0.0,0.0,0.0,0.0,91.0,12.3,-319.6,181.75,48,52,52,52,52,54,51,48,42,48,48,48,48,48,48,46,28,30,31,30,30,29,28,28,35,36,36,36,36,35,34,32,0.0,0.0,0.0,0.0,0,0,0.0,0,0.0,-1,0.0,0,0.0,0.1403
8430,0,0.1405,,,,,,,,,,,,0.0,95.97,72.96,117.45,,,,,,,,,,,,,,,,,,,,,,,,,,,,,,,,,,,,,,,,,,,,,,,,,,,,,,,,,,,
8440,0,0.1407,,-0.0,0.05,-0.15,0,2,-1,0.16,0.18,90,,0.0,95.85,72.96,114.48,,,,,,,,,,,,,,48,52,52,52,52,54,51,48,42,48,48,48,48,48,48,46,28,30,31,30,30,29,28,28,34,36,36,36,36,35,34,32,,,,,,,,,,,,,,
8450,0,0.1408,,,,,,,,,,,,0.0,95.85,72.96,115.05,,,,,,,,,,,,,,,,,,,,,,,,,,,,,,,,,,,,,,,,,,,,,,,,,,,,,,,,,,,
8460,0,0.141,,,,,,,,,,,,0.0,95.85,72.96,117.12,,,,,,,,,,,,,,48,52,52,52,52,54,51,48,42,48,48,48,48,48,48,46,28,30,31,30,30,29,28,28,34,36,36,36,36,35,34,32,,,,,,,,,,,,,,
8470,0,0.1412,,,,,,,,,,,,0.0,95.85,72.96,121.29,,,,,,,,,,,,,,,,,,,,,,,,,,,,,,,,,,,,,,,,,,,,,,,,,,,,,,,,,,,
8480,0,0.1413,,0.06,0.08,-0.07,0,2,-1,0.12,0.18,66,,0.0,95.85,72.96,112.08,,,,,,,,,,,,,,48,52,52,52,52,54,51,48,42,48,48,48,48,48,48,46,28,30,31,30,30,29,28,28,34,36,36,36,36,35,34,32,,,,,,,,,,,,,,
8490,0,0.1415,,,,,,,,,,,,0.0,95.97,73.05,108.78,,,,,,,,,,,,,,,,,,,,,,,,,,,,,,,,,,,,,,,,,,,,,,,,,,,,,,,,,,,
8500,0,0.1417,,,,,,,,,,,,0.0,95.85,72.84,113.61,,,,,,,,,,,,,,48,52,52,52,52,54,51,49,42,48,48,48,48,48,48,46,28,30,31,30,30,29,28,28,34,36,36,36,36,35,34,32,,,,,,,,,,,,,,
8510,0,0.1418,,,,,,,,,,,,0.0,95.85,72.96,116.7,,,,,,,,,,,,,,,,,,,,,,,,,,,,,,,,,,,,,,,,,,,,,,,,,,,,,,,,,,,
8520,0,0.142,,0.05,0.09,0.01,0,2,-1,0.1,0.18,57,-3,0.0,95.85,72.96,119.01,2015,81.6,28.8,0,12.0,0.0,0.0,0.0,0.0,91.0,12.3,-319.6,181.75,48,52,52,52,52,54,51,49,42,48,48,48,48,48,48,46,29,30,31,30,30,30,28,28,34,36,36,36,36,35,34,32,0.0,0.0,0.0,0.0,0,0,0.0,0,0.0,-1,0.0,0,0.0,0.142
8530,0,0.1422,,,,,,,,,,,,0.0,95.85,72.96,110.76,,,,,,,,,,,,,,,,,,,,,,,,,,,,,,,,,,,,,,,,,,,,,,,,,,,,,,,,,,,
8540,0,0.1423,,,,,,,,,,,,0.0,95.85,72.96,111.3,,,,,,,,,,,,,,48,52,52,52,52,54,51,49,42,48,48,48,48,48,48,46,29,30,31,30,30,30,28,28,34,36,36,36,36,35,34,32,,,,,,,,,,,,,,
8550,0,0.1425,,,,,,,,,,,,0.0,95.85,72.96,112.74,,,,,,,,,,,,,,,,,,,,,,,,,,,,,,,,,,,,,,,,,,,,,,,,,,,,,,,,,,,
8560,0,0.1427,,0.05,0.07,-0.01,0,2,-1,0.09,0.18,49,,0.0,95.85,72.96,111.18,,,,,,,,,,,,,,48,52,52,52,52,54,51,48,42,48,48,48,48,48,48,46,29,30,31,30,30,30,28,28,34,36,36,36,36,35,34,32,,,,,,,,,,,,,,
8570,0,0.1428,,,,,,,,,,,,0.0,95.85,72.96,118.56,,,,,,,,,,,,,,,,,,,,,,,,,,,,,,,,,,,,,,,,,,,,,,,,,,,,,,,,,,,
8580,0,0.143,,,,,,,,,,,,0.0,95.85,72.96,119.22,,,,,,,,,,,,,,48,52,52,52,52,54,51,48,42,48,48,48,48,48,48,46,29,31,31,31,30,30,28,28,35,36,36,36,36,35,34,32,,,,,,,,,,,,,,
8590,0,0.1432,,,,,,,,,,,,0.0,95.85,73.05,108.57,,,,,,,,,,,,,,,,,,,,,,,,,,,,,,,,,,,,,,,,,,,,,,,,,,,,,,,,,,,
8600,0,0.1433,,0.08,0.08,-0.01,0,2,-1,0.12,0.18,64,,0.0,95.85,72.96,110.43,,,,,,,,,,,,,,48,52,52,52,52,54,51,48,42,48,48,48,48,48,48,46,29,31,31,31,30,30,28,28,35,36,36,36,36,35,34,32,,,,,,,,,,,,,,
8610,0,0.1435,,,,,,,,,,,,0.0,95.85,72.96,112.08,,,,,,,,,,,,,,,,,,,,,,,,,,,,,,,,,,,,,,,,,,,,,,,,,,,,,,,,,,,
8620,0,0.1437,,,,,,,,,,,-3,0.0,95.85,73.05,117.12,1931,81.0,28.8,0,11.0,0.0,0.0,0.0,0.0,91.0,12.4,-319.6,181.75,48,52,52,52,52,54,51,49,42,48,48,48,48,48,48,46,29,31,31,31,30,30,28,28,35,36,36,36,36,35,34,32,0.0,0.0,0.0,0.0,0,0,0.0,0,0.0,-1,0.0,0,0.0,0.1437
8630,0,0.1438,,,,,,,,,,,,0.0,95.85,72.96,117.9,,,,,,,,,,,,,,,,,,,,,,,,,,,,,,,,,,,,,,,,,,,,,,,,,,,,,,,,,,,
8640,0,0.144,,0.06,0.08,0.04,0,2,-1,0.11,0.18,61,,0.0,95.85,72.84,118.44,,,,,,,,,,,,,,48,52,52,52,52,54,51,49,42,48,48,48,48,48,48,46,29,30,31,30,30,30,28,28,34,36,36,36,36,35,34,32,,,,,,,,,,,,,,
8650,0,0.1442,,,,,,,,,,,,0.0,95.85,72.96,116.91,,,,,,,,,,,,,,,,,,,,,,,,,,,,,,,,,,,,,,,,,,,,,,,,,,,,,,,,,,,
8660,0,0.1443,,,,,,,,,,,,0.0,95.85,72.96,109.11,,,,,,,,,,,,,,48,52,52,52,52,54,51,49,42,48,48,48,48,48,48,46,29,30,31,30,30,30,28,28,34,36,36,36,36,35,34,32,,,,,,,,,,,,,,
8670,0,0.1445,,,,,,,,,,,,0.0,95.73,72.96,110.43,,,,,,,,,,,,,,,,,,,,,,,,,,,,,,,,,,,,,,,,,,,,,,,,,,,,,,,,,,,
8680,0,0.1447,,0.02,0.04,-0.08,0,2,-1,0.09,0.18,51,,0.0,95.85,73.05,120.09,,,,,,,,,,,,,,48,52,52,52,52,54,51,49,42,48,48,48,48,48,48,46,29,30,31,30,30,30,28,28,34,36,36,36,36,35,34,32,,,,,,,,,,,,,,
8690,0,0.1448,,,,,,,,,,,,0.0,95.85,72.84,115.92,,,,,,,,,,,,,,,,,,,,,,,,,,,,,,,,,,,,,,,,,,,,,,,,,,,,,,,,,,,
8700,0,0.145,,,,,,,,,,,,0.0,95.85,72.84,116.25,,,,,,,,,,,,,,48,52,52,52,52,54,51,49,42,48,48,48,48,48,48,46,29,30,31,30,30,29,28,28,34,36,36,36,36,36,34,32,,,,,,,,,,,,,,
8710,0,0.1452,,,,,,,,,,,,0.0,95.85,72.96,108.9,,,,,,,,,,,,,,,,,,,,,,,,,,,,,,,,,,,,,,,,,,,,,,,,,,,,,,,,,,,
8720,0,0.1453,,-0.0,0.04,-0.03,-0,2,-1,0.05,0.18,28,-3,0.0,95.85,72.96,112.41,2082,80.1,28.8,0,12.0,0.0,0.0,0.0,0.0,91.0,12.3,-319.6,181.75,48,52,52,52,52,54,51,49,42,48,48,48,48,48,48,46,29,30,31,30,30,29,28,28,34,36,36,36,36,36,34,32,0.0,0.0,0.0,0.0,0,0,0.0,0,0.0,-1,0.0,0,0.0,0.1453
8730,0,0.1455,,,,,,,,,,,,0.0,95.85,72.96,115.47,,,,,,,,,,,,,,,,,,,,,,,,,,,,,,,,,,,,,,,,,,,,,,,,,,,,,,,,,,,
8740,0,0.1457,,,,,,,,,,,,0.0,95.85,72.96,112.74,,,,,,,,,,,,,,48,52,52,52,52,54,51,49,42,48,48,48,48,48,48,46,29,30,31,30,30,29,28,28,34,36,36,36,36,36,34,32,,,,,,,,,,,,,,
8750,0,0.1458,,,,,,,,,,,,0.0,95.85,72.96,117.45,,,,,,,,,,,,,,,,,,,,,,,,,,,,,,,,,,,,,,,,,,,,,,,,,,,,,,,,,,,
8760,0,0.146,,-0.04,0.04,0.01,0,2,-1,0.06,0.18,32,,0.0,95.85,72.96,122.73,,,,,,,,,,,,,,48,52,52,52,52,53,50,48,42,48,48,48,48,48,48,46,29,30,31,30,30,29,28,28,34,36,36,36,36,35,34,32,,,,,,,,,,,,,,
8770,0,0.1462,,,,,,,,,,,,0.0,95.97,72.96,111.42,,,,,,,,,,,,,,,,,,,,,,,,,,,,,,,,,,,,,,,,,,,,,,,,,,,,,,,,,,,
8780,0,0.1463,,,,,,,,,,,,0.0,95.85,72.96,114.93,,,,,,,,,,,,,,48,52,52,52,52,53,50,48,42,48,48,48,48,48,48,46,29,30,31,30,30,29,28,28,34,36,36,36,36,35,34,32,,,,,,,,,,,,,,
8790,0,0.1465,,,,,,,,,,,,0.0,95.85,72.96,112.62,,,,,,,,,,,,,,,,,,,,,,,,,,,,,,,,,,,,,,,,,,,,,,,,,,,,,,,,,,,
8800,0,0.1467,,0.0,0.05,0.04,0,2,-1,0.06,0.18,36,,0.0,95.97,72.96,115.8,,,,,,,,,,,,,,48,52,52,52,52,53,50,48,42,48,48,48,48,48,48,46,29,30,31,30,30,29,28,28,34,36,36,36,36,35,34,32,,,,,,,,,,,,,,
8810,0,0.1468,,,,,,,,,,,,0.0,95.85,72.96,115.14,,,,,,,,,,,,,,,,,,,,,,,,,,,,,,,,,,,,,,,,,,,,,,,,,,,,,,,,,,,
8820,0,0.147,,,,,,,,,,,-3,0.0,95.85,72.84,119.43,1995,79.8,28.8,0,11.0,0.0,0.0,0.0,0.0,91.0,12.4,-319.6,181.75,48,52,52,52,51,53,50,48,42,48,48,48,48,48,48,46,29,30,31,30,30,29,28,28,34,36,36,36,36,35,34,32,0.0,0.0,0.0,0.0,0,0,0.0,0,0.0,-1,0.0,0,0.0,0.147
8830,0,0.1472,,,,,,,,,,,,0.0,95.85,73.05,113.49,,,,,,,,,,,,,,,,,,,,,,,,,,,,,,,,,,,,,,,,,,,,,,,,,,,,,,,,,,,
8840,0,0.1473,,-0.0,0.05,0.03,0,3,-1,0.06,0.18,31,,0.0,95.85,73.05,110.19,,,,,,,,,,,,,,48,52,52,52,51,53,50,48,42,48,48,48,48,48,48,46,28,30,31,30,30,30,28,28,34,36,36,36,36,35,34,32,,,,,,,,,,,,,,
8850,0,0.1475,,,,,,,,,,,,0.0,95.85,72.96,112.41,,,,,,,,,,,,,,,,,,,,,,,,,,,,,,,,,,,,,,,,,,,,,,,,,,,,,,,,,,,
8860,0,0.1477,,,,,,,,,,,,0.0,95.85,73.05,111.75,,,,,,,,,,,,,,48,52,52,52,51,53,50,48,42,48,48,48,48,48,48,46,28,30,31,30,30,30,28,28,34,36,36,36,36,35,34,32,,,,,,,,,,,,,,
8870,0,0.1478,,,,,,,,,,,,0.0,95.85,72.96,112.62,,,,,,,,,,,,,,,,,,,,,,,,,,,,,,,,,,,,,,,,,,,,,,,,,,,,,,,,,,,
8880,0,0.148,,0.02,0.06,0.02,0,3,-1,0.07,0.18,37,,0.0,95.85,73.05,117.57,,,,,,,,,,,,,,47,52,52,52,51,53,50,48,42,48,48,48,48,48,48,46,28,30,31,30,30,30,28,28,35,36,36,36,36,35,34,32,,,,,,,,,,,,,,
8890,0,0.1482,,,,,,,,,,,,0.0,95.85,73.05,122.85,,,,,,,,,,,,,,,,,,,,,,,,,,,,,,,,,,,,,,,,,,,,,,,,,,,,,,,,,,,
8900,0,0.1483,,,,,,,,,,,,0.0,95.85,73.05,114.93,,,,,,,,,,,,,,47,52,52,52,51,53,50,48,42,48,48,48,48,48,48,46,29,30,31,30,30,29,28,28,35,36,36,36,36,35,34,32,,,,,,,,,,,,,,
8910,0,0.1485,,,,,,,,,,,,0.0,95.85,72.96,117.36,,,,,,,,,,,,,,,,,,,,,,,,,,,,,,,,,,,,,,,,,,,,,,,,,,,,,,,,,,,
8920,0,0.1487,,0.02,0.06,0.04,0,2,-1,0.08,0.18,44,-3,0.0,95.85,73.05,111.18,1832,80.5,28.8,0,11.0,0.0,0.0,0.0,0.0,90.0,12.2,-322.16,181.75,47,52,52,52,51,53,50,48,42,48,48,48,48,48,48,46,29,30,31,30,30,29,28,28,35,36,36,36,36,35,34,32,0.0,0.0,0.0,0.0,0,0,0.0,0,0.0,-1,0.0,0,0.0,0.1487
8930,0,0.1488,,,,,,,,,,,,0.0,95.85,72.96,120.54,,,,,,,,,,,,,,,,,,,,,,,,,,,,,,,,,,,,,,,,,,,,,,,,,,,,,,,,,,,
8940,0,0.149,,,,,,,,,,,,0.0,95.85,72.96,123.72,,,,,,,,,,,,,,48,52,52,52,52,54,50,48,42,48,48,48,48,48,48,46,29,30,31,30,30,29,28,28,35,36,36,36,36,35,34,32,,,,,,,,,,,,,,
8950,0,0.1492,,,,,,,,,,,,0.0,95.85,73.05,112.41,,,,,,,,,,,,,,,,,,,,,,,,,,,,,,,,,,,,,,,,,,,,,,,,,,,,,,,,,,,
8960,0,0.1493,,0.01,0.09,0.1,0,3,-0,0.13,0.18,74,,0.0,95.85,72.96,110.43,,,,,,,,,,,,,,48,52,52,52,52,54,50,48,42,48,48,48,48,48,48,46,29,30,31,30,30,29,28,28,34,36,36,36,36,35,34,32,,,,,,,,,,,,,,
8970,0,0.1495,,,,,,,,,,,,0.0,95.73,72.96,111.3,,,,,,,,,,,,,,,,,,,,,,,,,,,,,,,,,,,,,,,,,,,,,,,,,,,,,,,,,,,
8980,0,0.1497,,,,,,,,,,,,0.0,95.85,73.05,119.34,,,,,,,,,,,,,,48,52,52,52,52,54,50,48,42,48,48,48,48,48,48,46,29,30,31,30,30,29,28,28,34,36,36,36,36,35,34,32,,,,,,,,,,,,,,
8990,0,0.1498,,,,,,,,,,,,0.0,95.85,72.84,116.58,,,,,,,,,,,,,,,,,,,,,,,,,,,,,,,,,,,,,,,,,,,,,,,,,,,,,,,,,,,
9000,0,0.15,,0.02,0.08,0.1,0,2,-1,0.13,0.18,71,,0.0,95.85,72.96,116.7,,,,,,,,,,,,,,47,51,52,52,51,53,50,48,42,48,48,48,48,48,48,46,29,30,31,30,30,29,28,28,34,36,36,36,36,35,34,32,,,,,,,,,,,,,,
9010,0,0.1502,,,,,,,,,,,,0.0,95.85,72.96,110.85,,,,,,,,,,,,,,,,,,,,,,,,,,,,,,,,,,,,,,,,,,,,,,,,,,,,,,,,,,,
9020,0,0.1503,,,,,,,,,,,-3,0.0,95.85,72.96,113.94,2229,80.2,28.8,0,13.0,0.0,0.0,0.0,0.0,90.0,12.4,-322.16,181.75,47,51,52,52,51,53,50,48,42,48,48,48,48,48,48,46,29,30,31,30,30,30,28,29,34,35,36,36,36,34,34,32,0.0,0.0,0.0,0.0,0,0,0.0,0,0.0,-1,0.0,0,0.0,0.1503
9030,0,0.1505,,,,,,,,,,,,0.0,95.85,72.96,114.15,,,,,,,,,,,,,,,,,,,,,,,,,,,,,,,,,,,,,,,,,,,,,,,,,,,,,,,,,,,
9040,0,0.1507,,0.05,0.08,0.14,0,3,-1,0.17,0.18,94,,0.0,95.85,72.96,112.83,,,,,,,,,,,,,,47,51,52,52,51,53,50,48,42,48,48,48,48,48,48,46,29,30,31,30,30,30,28,29,34,35,36,36,36,34,34,32,,,,,,,,,,,,,,
9050,0,0.1508,,,,,,,,,,,,0.0,95.85,72.84,120.87,,,,,,,,,,,,,,,,,,,,,,,,,,,,,,,,,,,,,,,,,,,,,,,,,,,,,,,,,,,
9060,0,0.151,,,,,,,,,,,,0.0,95.85,72.96,124.05,,,,,,,,,,,,,,47,51,52,52,51,53,50,48,42,48,48,48,48,48,48,46,29,30,31,30,30,30,28,29,34,35,36,36,36,34,34,32,,,,,,,,,,,,,,
9070,0,0.1512,,,,,,,,,,,,0.0,95.85,72.96,110.85,,,,,,,,,,,,,,,,,,,,,,,,,,,,,,,,,,,,,,,,,,,,,,,,,,,,,,,,,,,
9080,0,0.1513,,0.07,0.04,0.08,0,2,-1,0.12,0.18,65,,0.0,95.85,72.84,113.49,,,,,,,,,,,,,,47,51,52,52,51,53,50,48,42,48,48,48,48,48,48,46,29,30,31,30,30,30,28,29,34,36,36,36,36,35,34,32,,,,,,,,,,,,,,
9090,0,0.1515,,,,,,,,,,,,0.0,95.73,72.84,111.75,,,,,,,,,,,,,,,,,,,,,,,,,,,,,,,,,,,,,,,,,,,,,,,,,,,,,,,,,,,
9100,0,0.1517,,,,,,,,,,,,0.0,95.85,72.72,113.94,,,,,,,,,,,,,,47,51,52,52,51,53,50,48,42,48,48,48,48,48,48,46,29,31,31,30,30,30,28,28,34,36,36,36,36,35,34,32,,,,,,,,,,,,,,
9110,0,0.1518,,,,,,,,,,,,0.0,95.73,72.72,113.4,,,,,,,,,,,,,,,,,,,,,,,,,,,,,,,,,,,,,,,,,,,,,,,,,,,,,,,,,,,
9120,0,0.152,,0.08,0.02,0.03,0,2,-1,0.09,0.18,47,-3,0.0,95.85,72.84,117.45,2333,79.4,28.8,0,13.0,0.0,0.0,0.0,0.0,90.0,12.3,-322.16,181.75,47,51,52,52,51,53,50,48,42,48,48,48,48,48,48,46,29,31,31,30,30,30,28,28,34,36,36,36,36,35,34,32,0.0,0.0,0.0,0.0,0,0,0.0,0,0.0,-1,0.0,0,0.0,0.152
9130,0,0.1522,,,,,,,,,,,,0.0,95.85,72.72,115.92,,,,,,,,,,,,,,,,,,,,,,,,,,,,,,,,,,,,,,,,,,,,,,,,,,,,,,,,,,,
9140,0,0.1523,,,,,,,,,,,,0.0,95.85,72.63,114.15,,,,,,,,,,,,,,48,51,52,52,51,53,50,48,42,48,48,48,48,48,48,46,29,31,31,30,30,30,28,28,34,36,36,36,36,35,34,32,,,,,,,,,,,,,,
9150,0,0.1525,,,,,,,,,,,,0.0,95.73,72.96,116.91,,,,,,,,,,,,,,,,,,,,,,,,,,,,,,,,,,,,,,,,,,,,,,,,,,,,,,,,,,,
9160,0,0.1527,,0.06,0.04,0.03,0,2,-1,0.08,0.18,43,,0.0,95.85,72.72,113.61,,,,,,,,,,,,,,48,51,52,52,51,53,50,48,42,48,48,48,48,48,48,46,29,30,32,30,30,30,29,28,34,36,36,36,36,35,34,32,,,,,,,,,,,,,,
9170,0,0.1528,,,,,,,,,,,,0.0,95.85,72.72,114.81,,,,,,,,,,,,,,,,,,,,,,,,,,,,,,,,,,,,,,,,,,,,,,,,,,,,,,,,,,,
9180,0,0.153,,,,,,,,,,,,0.0,95.85,72.84,109.89,,,,,,,,,,,,,,48,51,52,52,51,53,50,48,42,48,48,48,48,48,48,46,29,30,32,30,30,30,29,28,34,36,36,36,36,35,34,32,,,,,,,,,,,,,,
9190,0,0.1532,,,,,,,,,,,,0.0,95.85,72.72,107.79,,,,,,,,,,,,,,,,,,,,,,,,,,,,,,,,,,,,,,,,,,,,,,,,,,,,,,,,,,,
9200,0,0.1533,,0.06,0.05,-0.04,0,2,-1,0.08,0.18,46,,0.0,95.85,72.72,109.89,,,,,,,,,,,,,,47,51,52,52,51,53,50,48,42,48,48,48,48,48,48,46,29,30,32,30,30,30,29,28,34,36,36,36,36,35,34,32,,,,,,,,,,,,,,
9210,0,0.1535,,,,,,,,,,,,0.0,95.85,72.84,120.42,,,,,,,,,,,,,,,,,,,,,,,,,,,,,,,,,,,,,,,,,,,,,,,,,,,,,,,,,,,
9220,0,0.1537,,,,,,,,,,,-3,0.0,95.85,72.72,115.38,2019,78.8,28.8,0,11.0,0.0,0.0,0.0,0.0,90.0,12.3,-322.16,181.75,47,51,52,52,51,53,50,48,42,48,48,48,48,48,48,46,29,30,31,30,30,29,28,28,34,36,36,36,36,35,34,32,0.0,0.0,0.0,0.0,0,0,0.0,0,0.0,-1,0.0,0,0.0,0.1537
9230,0,0.1538,,,,,,,,,,,,0.0,95.85,72.72,114.39,,,,,,,,,,,,,,,,,,,,,,,,,,,,,,,,,,,,,,,,,,,,,,,,,,,,,,,,,,,
9240,0,0.154,,0.08,0.04,-0.08,0,2,-1,0.12,0.18,64,,0.0,95.85,72.84,119.67,,,,,,,,,,,,,,47,51,52,52,51,53,50,48,42,48,48,48,48,48,48,46,29,30,31,30,30,29,28,28,34,36,36,36,36,35,34,32,,,,,,,,,,,,,,
9250,0,0.1542,,,,,,,,,,,,0.0,95.73,72.84,108.78,,,,,,,,,,,,,,,,,,,,,,,,,,,,,,,,,,,,,,,,,,,,,,,,,,,,,,,,,,,
9260,0,0.1543,,,,,,,,,,,,0.0,95.73,72.72,109.32,,,,,,,,,,,,,,48,51,52,52,51,53,50,48,42,48,48,48,48,48,48,46,29,30,31,30,30,29,28,28,34,36,36,36,36,35,34,32,,,,,,,,,,,,,,
9270,0,0.1545,,,,,,,,,,,,0.0,95.85,72.96,116.79,,,,,,,,,,,,,,,,,,,,,,,,,,,,,,,,,,,,,,,,,,,,,,,,,,,,,,,,,,,
9280,0,0.1547,,0.05,0.04,-0.07,0,2,-1,0.1,0.18,55,,0.0,95.73,72.84,118.11,,,,,,,,,,,,,,48,51,52,52,51,53,50,48,42,48,48,48,48,48,48,46,28,30,31,30,30,29,28,28,34,36,36,36,36,35,34,32,,,,,,,,,,,,,,
9290,0,0.1548,,,,,,,,,,,,0.0,95.73,72.72,121.74,,,,,,,,,,,,,,,,,,,,,,,,,,,,,,,,,,,,,,,,,,,,,,,,,,,,,,,,,,,
9300,0,0.155,,,,,,,,,,,,0.0,95.73,72.96,114.48,,,,,,,,,,,,,,48,51,52,52,51,53,50,48,42,48,48,48,48,48,48,46,28,30,31,30,30,29,28,28,34,36,36,36,36,35,34,32,,,,,,,,,,,,,,
9310,0,0.1552,,,,,,,,,,,,0.0,95.73,72.84,117.78,,,,,,,,,,,,,,,,,,,,,,,,,,,,,,,,,,,,,,,,,,,,,,,,,,,,,,,,,,,
9320,0,0.1553,12.64,0.03,0.04,-0.06,0,2,-1,0.08,0.18,46,-3,0.0,95.73,72.84,119.01,1884,78.7,28.8,0,10.0,0.0,0.0,0.0,0.0,90.0,12.3,-322.16,181.75,47,51,52,52,51,53,50,48,42,48,48,48,48,48,48,46,28,30,31,30,30,29,28,28,34,36,36,36,36,35,34,32,0.0,0.0,0.0,0.0,0,0,0.0,0,0.0,-1,0.0,0,0.0,0.1553
9330,0,0.1555,,,,,,,,,,,,0.0,95.73,72.72,113.49,,,,,,,,,,,,,,,,,,,,,,,,,,,,,,,,,,,,,,,,,,,,,,,,,,,,,,,,,,,
9340,0,0.1557,,,,,,,,,,,,0.0,95.73,72.84,121.41,,,,,,,,,,,,,,47,51,52,52,51,53,50,48,42,48,48,48,48,48,48,46,28,30,31,30,30,29,28,28,34,36,36,36,36,35,34,32,,,,,,,,,,,,,,
9350,0,0.1558,,,,,,,,,,,,0.0,95.73,72.84,122.4,,,,,,,,,,,,,,,,,,,,,,,,,,,,,,,,,,,,,,,,,,,,,,,,,,,,,,,,,,,
9360,0,0.156,,0.02,0.06,0.0,0,2,-1,0.06,0.18,32,,0.0,95.73,72.84,115.05,,,,,,,,,,,,,,47,51,52,52,51,53,50,48,42,48,48,48,48,48,48,46,28,30,31,30,30,29,28,28,34,36,36,36,36,35,34,32,,,,,,,,,,,,,,
9370,0,0.1562,,,,,,,,,,,,0.0,95.73,72.84,111.09,,,,,,,,,,,,,,,,,,,,,,,,,,,,,,,,,,,,,,,,,,,,,,,,,,,,,,,,,,,
9380,0,0.1563,,,,,,,,,,,,0.0,95.73,72.72,113.94,,,,,,,,,,,,,,47,51,52,52,51,53,50,48,42,48,48,48,48,48,48,46,28,30,31,30,30,29,28,28,34,36,36,36,36,35,34,32,,,,,,,,,,,,,,
9390,0,0.1565,,,,,,,,,,,,0.0,95.73,72.96,113.16,,,,,,,,,,,,,,,,,,,,,,,,,,,,,,,,,,,,,,,,,,,,,,,,,,,,,,,,,,,
9400,0,0.1567,,0.03,0.05,0.06,0,3,-1,0.08,0.18,45,,0.0,95.73,72.72,114.15,,,,,,,,,,,,,,47,51,52,52,51,53,50,48,42,48,48,48,48,48,48,46,29,30,31,30,30,29,28,28,34,36,36,36,36,35,34,32,,,,,,,,,,,,,,
9410,0,0.1568,,,,,,,,,,,,0.0,95.73,72.84,121.08,,,,,,,,,,,,,,,,,,,,,,,,,,,,,,,,,,,,,,,,,,,,,,,,,,,,,,,,,,,
9420,0,0.157,,,,,,,,,,,-3,0.0,95.73,72.84,124.5,1959,79.9,28.8,0,11.0,0.0,0.0,0.0,0.0,90.0,12.2,-322.16,181.75,47,51,52,52,51,53,50,48,42,48,48,48,48,48,48,46,29,30,31,30,30,29,28,28,34,36,36,36,36,35,34,32,0.0,0.0,0.0,0.0,0,0,0.0,0,0.0,-1,0.0,0,0.0,0.157
9430,0,0.1572,,,,,,,,,,,,0.0,95.73,72.72,114.48,,,,,,,,,,,,,,,,,,,,,,,,,,,,,,,,,,,,,,,,,,,,,,,,,,,,,,,,,,,
9440,0,0.1573,,0.02,0.05,0.01,0,2,-1,0.05,0.18,29,,0.0,95.73,72.84,114.6,,,,,,,,,,,,,,47,51,52,52,51,53,50,48,42,48,48,48,48,48,48,46,29,30,31,30,30,29,28,28,34,36,36,36,36,35,34,32,,,,,,,,,,,,,,
9450,0,0.1575,,,,,,,,,,,,0.0,95.73,72.84,110.52,,,,,,,,,,,,,,,,,,,,,,,,,,,,,,,,,,,,,,,,,,,,,,,,,,,,,,,,,,,
9460,0,0.1577,,,,,,,,,,,,0.0,95.73,72.72,113.4,,,,,,,,,,,,,,47,51,52,52,51,53,50,48,42,48,48,48,48,48,48,46,29,30,31,30,30,29,28,28,34,36,36,36,36,35,34,32,,,,,,,,,,,,,,
9470,0,0.1578,,,,,,,,,,,,0.0,95.73,72.84,119.01,,,,,,,,,,,,,,,,,,,,,,,,,,,,,,,,,,,,,,,,,,,,,,,,,,,,,,,,,,,
9480,0,0.158,,-0.03,0.04,0.01,-0,2,-1,0.05,0.18,28,,0.0,95.73,72.84,120.63,,,,,,,,,,,,,,47,51,52,52,51,53,50,48,42,48,48,48,48,48,48,46,29,30,31,30,30,29,28,28,34,36,36,36,36,35,34,32,,,,,,,,,,,,,,
9490,0,0.1582,,,,,,,,,,,,0.0,95.73,72.84,114.6,,,,,,,,,,,,,,,,,,,,,,,,,,,,,,,,,,,,,,,,,,,,,,,,,,,,,,,,,,,
9500,0,0.1583,,,,,,,,,,,,0.0,95.73,72.84,109.65,,,,,,,,,,,,,,47,51,52,52,51,53,50,48,42,48,48,48,48,48,48,46,29,30,31,30,30,29,28,28,34,36,36,36,36,35,34,32,,,,,,,,,,,,,,
9510,0,0.1585,,,,,,,,,,,,0.0,95.73,72.96,114.06,,,,,,,,,,,,,,,,,,,,,,,,,,,,,,,,,,,,,,,,,,,,,,,,,,,,,,,,,,,
9520,0,0.1587,,0.02,0.06,0.0,0,2,-1,0.06,0.18,35,-3,0.0,95.73,72.72,112.17,2023,80.3,28.8,0,11.0,0.0,0.0,0.0,0.0,89.0,12.3,-324.72,181.75,48,51,52,52,51,53,50,48,42,48,48,48,48,48,48,46,29,30,31,30,30,29,28,28,34,36,36,36,36,35,34,32,0.0,0.0,0.0,0.0,0,0,0.0,0,0.0,-1,0.0,0,0.0,0.1587
9530,0,0.1588,,,,,,,,,,,,0.0,95.73,72.84,118.35,,,,,,,,,,,,,,,,,,,,,,,,,,,,,,,,,,,,,,,,,,,,,,,,,,,,,,,,,,,
9540,0,0.159,,,,,,,,,,,,0.0,95.73,72.84,118.11,,,,,,,,,,,,,,48,51,52,52,51,53,50,48,42,48,48,48,48,48,48,46,29,30,31,30,30,30,28,28,34,36,36,36,36,35,34,32,,,,,,,,,,,,,,
9550,0,0.1592,,,,,,,,,,,,0.0,95.73,72.84,116.37,,,,,,,,,,,,,,,,,,,,,,,,,,,,,,,,,,,,,,,,,,,,,,,,,,,,,,,,,,,
9560,0,0.1593,,-0.01,0.05,0.05,0,2,-1,0.07,0.18,40,,0.0,95.73,72.84,115.92,,,,,,,,,,,,,,48,51,52,52,51,53,50,48,42,48,48,48,48,48,48,46,29,30,31,30,30,30,28,28,34,36,36,36,36,35,34,32,,,,,,,,,,,,,,
9570,0,0.1595,,,,,,,,,,,,0.0,95.73,72.84,109.89,,,,,,,,,,,,,,,,,,,,,,,,,,,,,,,,,,,,,,,,,,,,,,,,,,,,,,,,,,,
9580,0,0.1597,,,,,,,,,,,,0.0,95.73,72.72,113.82,,,,,,,,,,,,,,47,51,52,52,51,53,50,48,42,48,48,48,48,48,48,46,29,30,31,30,30,30,28,28,35,36,36,36,36,35,34,32,,,,,,,,,,,,,,
9590,0,0.1598,,,,,,,,,,,,0.0,95.73,72.84,118.35,,,,,,,,,,,,,,,,,,,,,,,,,,,,,,,,,,,,,,,,,,,,,,,,,,,,,,,,,,,
9600,0,0.16,,-0.04,0.06,0.02,0,2,-1,0.08,0.18,43,,0.0,95.73,72.84,120.42,,,,,,,,,,,,,,47,51,52,52,51,53,50,48,42,48,48,48,48,48,48,46,29,30,31,30,30,30,28,28,35,36,36,36,36,35,34,32,,,,,,,,,,,,,,
9610,0,0.1602,,,,,,,,,,,,0.0,95.73,72.84,115.05,,,,,,,,,,,,,,,,,,,,,,,,,,,,,,,,,,,,,,,,,,,,,,,,,,,,,,,,,,,
9620,0,0.1603,,,,,,,,,,,-3,0.0,95.73,72.63,109.44,2158,79.3,28.8,0,12.0,0.0,0.0,0.0,0.0,89.0,12.3,-324.72,181.75,47,51,52,52,51,53,50,48,42,48,48,48,48,48,48,46,29,30,31,30,30,30,28,28,35,36,36,36,36,35,34,32,0.0,0.0,0.0,0.0,0,0,0.0,0,0.0,-1,0.0,0,0.0,0.1603
9630,0,0.1605,,,,,,,,,,,,0.0,95.73,72.96,108.9,,,,,,,,,,,,,,,,,,,,,,,,,,,,,,,,,,,,,,,,,,,,,,,,,,,,,,,,,,,
9640,0,0.1607,,-0.03,0.07,-0.08,-0,3,-1,0.11,0.18,62,,0.0,95.73,72.72,113.16,,,,,,,,,,,,,,48,51,52,52,51,53,50,48,42,48,48,48,48,48,48,46,29,30,31,30,30,30,28,28,34,36,36,36,36,35,34,32,,,,,,,,,,,,,,
9650,0,0.1608,,,,,,,,,,,,0.0,95.73,72.84,110.97,,,,,,,,,,,,,,,,,,,,,,,,,,,,,,,,,,,,,,,,,,,,,,,,,,,,,,,,,,,
9660,0,0.161,,,,,,,,,,,,0.0,95.73,72.96,119.01,,,,,,,,,,,,,,48,51,52,52,51,53,50,48,42,48,48,48,48,48,48,46,29,30,31,30,30,29,28,28,34,36,36,36,36,35,34,32,,,,,,,,,,,,,,
9670,0,0.1612,,,,,,,,,,,,0.0,95.73,72.84,119.97,,,,,,,,,,,,,,,,,,,,,,,,,,,,,,,,,,,,,,,,,,,,,,,,,,,,,,,,,,,
9680,0,0.1613,,-0.01,0.04,-0.01,-0,2,-1,0.04,0.18,21,,0.0,95.64,72.96,118.68,,,,,,,,,,,,,,48,51,52,52,51,53,50,48,42,48,48,48,48,48,48,46,29,30,31,30,30,29,28,28,34,36,36,36,36,35,34,32,,,,,,,,,,,,,,
9690,0,0.1615,,,,,,,,,,,,0.0,95.73,72.96,112.95,,,,,,,,,,,,,,,,,,,,,,,,,,,,,,,,,,,,,,,,,,,,,,,,,,,,,,,,,,,
9700,0,0.1617,,,,,,,,,,,,0.0,95.73,72.72,119.97,,,,,,,,,,,,,,47,51,52,52,51,53,50,48,42,48,48,48,48,48,48,46,29,30,31,30,30,29,28,28,34,36,36,36,36,35,34,32,,,,,,,,,,,,,,
9710,0,0.1618,,,,,,,,,,,,0.0,95.73,73.05,114.06,,,,,,,,,,,,,,,,,,,,,,,,,,,,,,,,,,,,,,,,,,,,,,,,,,,,,,,,,,,
9720,0,0.162,,-0.02,0.08,0.03,-0,3,-1,0.08,0.18,47,-4,0.0,95.73,72.84,109.32,2102,77.8,28.8,0,11.0,0.0,0.0,0.0,0.0,89.0,12.4,-324.72,181.75,47,51,52,52,51,53,50,48,42,48,48,48,48,48,48,46,29,30,31,30,30,29,28,28,34,35,36,36,36,35,34,32,0.0,0.0,0.0,0.0,0,0,0.0,0,0.0,-1,0.0,0,0.0,0.162
9730,0,0.1622,,,,,,,,,,,,0.0,95.73,72.84,110.1,,,,,,,,,,,,,,,,,,,,,,,,,,,,,,,,,,,,,,,,,,,,,,,,,,,,,,,,,,,
9740,0,0.1623,,,,,,,,,,,,0.0,95.73,72.72,117.9,,,,,,,,,,,,,,47,51,52,52,51,53,50,48,42,48,48,48,48,48,48,46,29,30,31,30,30,29,28,28,34,35,36,36,36,35,34,32,,,,,,,,,,,,,,
9750,0,0.1625,,,,,,,,,,,,0.0,95.73,72.84,115.26,,,,,,,,,,,,,,,,,,,,,,,,,,,,,,,,,,,,,,,,,,,,,,,,,,,,,,,,,,,
9760,0,0.1627,,-0.06,0.07,0.05,0,3,-1,0.11,0.18,59,,0.0,95.73,72.96,110.1,,,,,,,,,,,,,,47,51,52,52,51,53,50,48,42,48,48,48,48,48,48,46,29,30,31,30,30,29,28,28,34,35,36,36,36,35,34,32,,,,,,,,,,,,,,
9770,0,0.1628,,,,,,,,,,,,0.0,95.73,72.84,109.65,,,,,,,,,,,,,,,,,,,,,,,,,,,,,,,,,,,,,,,,,,,,,,,,,,,,,,,,,,,
9780,0,0.163,,,,,,,,,,,,0.0,95.73,72.96,108.66,,,,,,,,,,,,,,47,51,52,52,51,53,50,48,42,48,48,48,48,48,48,46,29,30,31,30,30,30,28,28,34,36,36,36,36,35,34,32,,,,,,,,,,,,,,
9790,0,0.1632,,,,,,,,,,,,0.0,95.73,72.84,116.91,,,,,,,,,,,,,,,,,,,,,,,,,,,,,,,,,,,,,,,,,,,,,,,,,,,,,,,,,,,
9800,0,0.1633,,-0.03,0.12,0.07,0,3,-0,0.14,0.18,78,,0.0,95.73,72.84,111.84,,,,,,,,,,,,,,47,51,52,52,51,53,50,48,42,48,48,48,48,48,48,46,29,30,31,30,30,30,28,28,34,36,36,36,36,35,34,32,,,,,,,,,,,,,,
9810,0,0.1635,,,,,,,,,,,,0.0,95.73,72.96,116.13,,,,,,,,,,,,,,,,,,,,,,,,,,,,,,,,,,,,,,,,,,,,,,,,,,,,,,,,,,,
9820,0,0.1637,,,,,,,,,,,-4,0.0,95.73,72.84,115.8,2372,77.2,28.8,0,12.0,0.0,0.0,0.0,0.0,89.0,12.3,-324.72,181.75,47,51,52,52,51,53,50,48,42,48,48,48,48,48,48,46,29,30,31,30,30,30,28,28,34,36,36,36,36,35,34,32,0.0,0.0,0.0,0.0,0,0,0.0,0,0.0,-1,0.0,0,0.0,0.1637
9830,0,0.1638,,,,,,,,,,,,0.0,95.73,72.84,116.37,,,,,,,,,,,,,,,,,,,,,,,,,,,,,,,,,,,,,,,,,,,,,,,,,,,,,,,,,,,
9840,0,0.164,,-0.03,0.06,0.02,0,3,-0,0.07,0.18,40,,0.0,95.73,73.05,110.43,,,,,,,,,,,,,,47,51,52,52,51,53,50,48,42,48,48,48,48,48,48,46,29,30,31,30,30,30,28,28,34,36,36,36,36,35,34,32,,,,,,,,,,,,,,
9850,0,0.1642,,,,,,,,,,,,0.0,95.73,72.84,115.05,,,,,,,,,,,,,,,,,,,,,,,,,,,,,,,,,,,,,,,,,,,,,,,,,,,,,,,,,,,
9860,0,0.1643,,,,,,,,,,,,0.0,95.73,72.84,117.69,,,,,,,,,,,,,,47,51,52,52,51,53,50,48,42,48,48,48,48,48,48,46,29,30,31,30,30,30,28,28,34,36,36,36,36,35,34,32,,,,,,,,,,,,,,
9870,0,0.1645,,,,,,,,,,,,0.0,95.73,72.96,115.47,,,,,,,,,,,,,,,,,,,,,,,,,,,,,,,,,,,,,,,,,,,,,,,,,,,,,,,,,,,
9880,0,0.1647,,-0.03,0.06,0.0,0,3,-0,0.07,0.18,40,,0.0,95.73,72.84,115.14,,,,,,,,,,,,,,47,51,52,52,51,53,50,48,42,48,48,48,48,48,48,46,29,30,31,30,30,30,28,28,34,36,36,36,36,35,34,32,,,,,,,,,,,,,,
9890,0,0.1648,,,,,,,,,,,,0.0,95.73,72.72,108.0,,,,,,,,,,,,,,,,,,,,,,,,,,,,,,,,,,,,,,,,,,,,,,,,,,,,,,,,,,,
9900,0,0.165,,,,,,,,,,,,0.0,95.73,72.96,117.03,,,,,,,,,,,,,,47,52,52,52,51,53,50,48,42,48,48,48,48,48,48,46,29,30,31,30,30,30,28,28,34,36,36,36,36,35,34,32,,,,,,,,,,,,,,
9910,0,0.1652,,,,,,,,,,,,0.0,95.73,72.84,115.05,,,,,,,,,,,,,,,,,,,,,,,,,,,,,,,,,,,,,,,,,,,,,,,,,,,,,,,,,,,
9920,0,0.1653,,-0.01,0.09,0.06,0,3,-0,0.11,0.18,58,-3,0.0,95.73,72.84,116.25,2134,77.2,28.8,0,11.0,0.0,0.0,0.0,0.0,88.0,12.4,-327.28,181.75,47,52,52,52,51,53,50,48,42,48,48,48,48,48,48,46,29,30,31,30,30,30,28,28,34,36,36,36,36,35,34,32,0.0,0.0,0.0,0.0,0,0,0.0,0,0.0,-1,0.0,0,0.0,0.1653
9930,0,0.1655,,,,,,,,,,,,0.0,95.73,72.96,110.19,,,,,,,,,,,,,,,,,,,,,,,,,,,,,,,,,,,,,,,,,,,,,,,,,,,,,,,,,,,
9940,0,0.1657,,,,,,,,,,,,0.0,95.73,72.84,110.19,,,,,,,,,,,,,,47,52,52,52,51,53,50,48,42,48,48,48,48,48,48,46,29,30,31,30,30,30,28,28,34,36,36,36,36,35,34,32,,,,,,,,,,,,,,
9950,0,0.1658,,,,,,,,,,,,0.0,95.73,72.84,108.9,,,,,,,,,,,,,,,,,,,,,,,,,,,,,,,,,,,,,,,,,,,,,,,,,,,,,,,,,,,
9960,0,0.166,,0.01,0.06,0.07,0,3,-0,0.09,0.18,49,,0.0,95.73,72.96,115.8,,,,,,,,,,,,,,47,52,52,52,51,54,50,48,42,48,48,48,48,48,48,46,29,30,31,30,30,30,28,28,34,36,36,36,36,35,34,32,,,,,,,,,,,,,,
9970,0,0.1662,,,,,,,,,,,,0.0,95.64,72.84,120.21,,,,,,,,,,,,,,,,,,,,,,,,,,,,,,,,,,,,,,,,,,,,,,,,,,,,,,,,,,,
9980,0,0.1663,,,,,,,,,,,,0.0,95.73,72.84,115.92,,,,,,,,,,,,,,47,52,52,52,51,54,50,48,42,48,48,48,48,48,48,46,28,30,31,30,30,29,28,28,34,36,36,36,36,35,34,32,,,,,,,,,,,,,,
9990,0,0.1665,,,,,,,,,,,,0.0,95.73,72.84,118.23,,,,,,,,,,,,,,,,,,,,,,,,,,,,,,,,,,,,,,,,,,,,,,,,,,,,,,,,,,,
10000,0,0.1667,,0.03,0.09,0.16,0,2,-1,0.19,0.19,100,,0.0,95.73,72.84,118.56,,,,,,,,,,,,,,47,52,52,52,51,54,50,48,42,48,48,48,48,48,48,46,28,30,31,30,30,29,28,28,34,36,36,36,36,35,34,32,,,,,,,,,,,,,,
10010,0,0.1668,,,,,,,,,,,,0.0,95.64,72.63,114.06,,,,,,,,,,,,,,,,,,,,,,,,,,,,,,,,,,,,,,,,,,,,,,,,,,,,,,,,,,,
10020,0,0.167,,,,,,,,,,,-3,0.0,95.64,72.96,117.12,2122,77.8,28.8,0,11.0,0.0,0.0,0.0,0.0,88.0,12.2,-327.28,181.75,48,51,52,52,51,53,50,48,42,48,48,48,48,48,48,46,28,30,31,30,30,29,28,28,34,36,36,36,36,35,34,32,0.0,0.0,0.0,0.0,0,0,0.0,0,0.0,-1,0.0,0,0.0,0.167
10030,0,0.1672,,,,,,,,,,,,0.0,95.64,72.84,110.76,,,,,,,,,,,,,,,,,,,,,,,,,,,,,,,,,,,,,,,,,,,,,,,,,,,,,,,,,,,
10040,0,0.1673,,0.01,0.08,0.16,0,2,-1,0.18,0.19,95,,0.0,95.64,72.96,111.18,,,,,,,,,,,,,,48,51,52,52,51,53,50,48,42,48,48,48,48,48,48,46,29,30,31,30,30,30,28,28,34,36,36,36,36,35,34,32,,,,,,,,,,,,,,
10050,0,0.1675,,,,,,,,,,,,0.0,95.64,72.96,110.1,,,,,,,,,,,,,,,,,,,,,,,,,,,,,,,,,,,,,,,,,,,,,,,,,,,,,,,,,,,
10060,0,0.1677,,,,,,,,,,,,0.0,95.64,72.84,110.43,,,,,,,,,,,,,,48,51,52,52,51,53,50,48,42,48,48,48,48,48,48,46,29,30,31,30,30,30,28,28,34,36,36,36,36,35,34,32,,,,,,,,,,,,,,
10070,0,0.1678,,,,,,,,,,,,0.0,95.64,73.05,108.45,,,,,,,,,,,,,,,,,,,,,,,,,,,,,,,,,,,,,,,,,,,,,,,,,,,,,,,,,,,
10080,0,0.168,,-0.0,0.08,0.16,0,2,-1,0.18,0.19,96,,0.0,95.64,72.84,111.75,,,,,,,,,,,,,,47,51,52,52,51,53,50,48,42,48,48,48,48,48,48,46,29,30,31,30,30,30,28,28,34,36,36,36,36,35,34,32,,,,,,,,,,,,,,
10090,0,0.1682,,,,,,,,,,,,0.0,95.64,72.72,113.28,,,,,,,,,,,,,,,,,,,,,,,,,,,,,,,,,,,,,,,,,,,,,,,,,,,,,,,,,,,
10100,0,0.1683,,,,,,,,,,,,0.0,95.64,73.05,108.66,,,,,,,,,,,,,,47,51,52,52,51,53,50,48,42,48,48,48,48,48,48,46,28,30,31,30,30,30,28,28,34,36,36,36,36,35,34,32,,,,,,,,,,,,,,
10110,0,0.1685,,,,,,,,,,,,0.0,95.64,72.72,111.18,,,,,,,,,,,,,,,,,,,,,,,,,,,,,,,,,,,,,,,,,,,,,,,,,,,,,,,,,,,
10120,0,0.1687,,-0.03,0.08,0.04,-0,3,-1,0.09,0.19,51,-3,0.0,95.64,73.05,112.74,2404,76.6,28.8,0,12.0,0.0,0.0,0.0,0.0,88.0,12.4,-327.28,181.75,47,51,52,52,51,53,50,48,42,48,48,48,48,48,48,46,28,30,31,30,30,30,28,28,34,36,36,36,36,35,34,32,0.0,0.0,0.0,0.0,0,0,0.0,0,0.0,-1,0.0,0,0.0,0.1687
10130,0,0.1688,,,,,,,,,,,,0.0,95.64,72.84,109.77,,,,,,,,,,,,,,,,,,,,,,,,,,,,,,,,,,,,,,,,,,,,,,,,,,,,,,,,,,,
10140,0,0.169,,,,,,,,,,,,0.0,95.52,72.72,107.58,,,,,,,,,,,,,,47,51,52,52,51,53,50,48,42,48,48,48,48,48,48,46,28,30,31,30,30,30,28,28,34,36,36,36,36,35,34,32,,,,,,,,,,,,,,
10150,0,0.1692,,,,,,,,,,,,0.0,95.64,72.72,119.34,,,,,,,,,,,,,,,,,,,,,,,,,,,,,,,,,,,,,,,,,,,,,,,,,,,,,,,,,,,
10160,0,0.1693,,-0.02,0.08,0.12,0,2,-0,0.14,0.19,77,,0.0,95.52,73.05,111.51,,,,,,,,,,,,,,47,51,52,52,51,53,50,48,42,48,48,48,48,48,48,46,28,30,31,30,30,30,28,28,34,36,36,36,36,35,34,32,,,,,,,,,,,,,,
10170,0,0.1695,,,,,,,,,,,,0.0,95.73,72.96,110.97,,,,,,,,,,,,,,,,,,,,,,,,,,,,,,,,,,,,,,,,,,,,,,,,,,,,,,,,,,,
10180,0,0.1697,,,,,,,,,,,,0.0,95.64,72.72,114.39,,,,,,,,,,,,,,47,51,52,52,51,53,50,48,42,48,48,48,48,48,48,46,29,30,31,30,30,29,28,28,34,36,36,36,36,35,34,32,,,,,,,,,,,,,,
10190,0,0.1698,,,,,,,,,,,,0.0,95.64,73.05,110.31,,,,,,,,,,,,,,,,,,,,,,,,,,,,,,,,,,,,,,,,,,,,,,,,,,,,,,,,,,,
10200,0,0.17,,0.0,0.09,0.16,0,2,-0,0.18,0.19,98,,0.0,95.64,72.72,109.32,,,,,,,,,,,,,,47,51,52,52,51,53,50,48,42,48,48,48,48,48,48,46,29,30,31,30,30,29,28,28,34,36,36,36,36,35,34,32,,,,,,,,,,,,,,
10210,0,0.1702,,,,,,,,,,,,0.0,95.64,72.84,110.19,,,,,,,,,,,,,,,,,,,,,,,,,,,,,,,,,,,,,,,,,,,,,,,,,,,,,,,,,,,
10220,0,0.1703,,,,,,,,,,,-4,0.0,95.64,72.96,109.98,2428,75.0,28.8,0,11.0,0.0,0.0,0.0,0.0,88.0,12.2,-327.28,181.75,47,51,52,52,51,53,50,48,42,48,48,48,48,48,48,46,29,30,31,30,30,29,28,28,34,36,36,36,36,35,34,32,0.0,0.0,0.0,0.0,0,0,0.0,0,0.0,-1,0.0,0,0.0,0.1703
10230,0,0.1705,,,,,,,,,,,,0.0,95.64,72.72,106.68,,,,,,,,,,,,,,,,,,,,,,,,,,,,,,,,,,,,,,,,,,,,,,,,,,,,,,,,,,,
10240,0,0.1707,,0.05,0.08,0.14,0,2,-1,0.17,0.19,92,,0.0,95.52,73.05,118.77,,,,,,,,,,,,,,47,51,52,52,51,53,50,48,42,48,48,48,48,48,48,46,28,30,30,30,30,29,28,28,34,36,36,36,36,35,34,32,,,,,,,,,,,,,,
10250,0,0.1708,,,,,,,,,,,,0.0,95.64,72.72,110.85,,,,,,,,,,,,,,,,,,,,,,,,,,,,,,,,,,,,,,,,,,,,,,,,,,,,,,,,,,,
10260,0,0.171,,,,,,,,,,,,0.0,95.52,72.96,110.97,,,,,,,,,,,,,,47,51,52,52,51,53,50,48,42,48,48,48,48,48,48,46,28,30,30,30,30,29,28,28,34,36,36,36,36,35,34,32,,,,,,,,,,,,,,
10270,0,0.1712,,,,,,,,,,,,0.0,95.64,73.05,110.1,,,,,,,,,,,,,,,,,,,,,,,,,,,,,,,,,,,,,,,,,,,,,,,,,,,,,,,,,,,
10280,0,0.1713,,0.04,0.06,0.18,0,2,-1,0.19,0.19,100,,0.0,95.52,72.63,114.06,,,,,,,,,,,,,,47,51,52,52,51,54,50,48,42,48,48,48,48,48,48,46,28,30,30,30,30,29,28,28,34,36,36,36,36,35,34,32,,,,,,,,,,,,,,
10290,0,0.1715,,,,,,,,,,,,0.0,95.52,73.05,111.51,,,,,,,,,,,,,,,,,,,,,,,,,,,,,,,,,,,,,,,,,,,,,,,,,,,,,,,,,,,
10300,0,0.1717,,,,,,,,,,,,0.0,95.64,72.84,108.9,,,,,,,,,,,,,,47,51,52,52,51,54,50,48,42,48,48,48,48,48,48,46,28,30,31,30,30,29,28,28,34,36,36,36,36,35,34,32,,,,,,,,,,,,,,
10310,0,0.1718,,,,,,,,,,,,0.0,95.64,72.72,109.44,,,,,,,,,,,,,,,,,,,,,,,,,,,,,,,,,,,,,,,,,,,,,,,,,,,,,,,,,,,
10320,0,0.172,12.55,0.05,0.07,0.16,0,2,-1,0.18,0.19,96,-4,0.0,95.64,72.96,115.8,2416,74.1,28.8,0,11.0,0.0,0.0,0.0,0.0,87.0,12.4,325.52,181.75,47,51,52,52,51,54,50,48,42,48,48,48,48,48,48,46,28,30,31,30,30,29,28,28,34,36,36,36,36,35,34,32,0.0,0.0,0.0,0.0,0,0,0.0,0,0.0,-1,0.0,0,0.0,0.172
10330,0,0.1722,,,,,,,,,,,,0.0,95.64,72.72,117.57,,,,,,,,,,,,,,,,,,,,,,,,,,,,,,,,,,,,,,,,,,,,,,,,,,,,,,,,,,,
10340,0,0.1723,,,,,,,,,,,,0.0,95.52,73.05,116.25,,,,,,,,,,,,,,47,51,52,52,51,53,50,48,42,48,48,48,48,48,48,45,28,30,31,30,30,29,28,28,34,36,36,36,36,35,34,32,,,,,,,,,,,,,,
10350,0,0.1725,,,,,,,,,,,,0.0,95.64,72.72,111.42,,,,,,,,,,,,,,,,,,,,,,,,,,,,,,,,,,,,,,,,,,,,,,,,,,,,,,,,,,,
10360,0,0.1727,,0.06,0.08,0.07,0,3,-1,0.12,0.19,62,,0.0,95.52,72.96,107.91,,,,,,,,,,,,,,47,51,52,52,51,53,50,48,42,48,48,48,48,48,48,45,28,30,31,30,30,29,28,28,34,36,36,36,36,35,34,32,,,,,,,,,,,,,,
10370,0,0.1728,,,,,,,,,,,,0.0,95.73,73.05,111.3,,,,,,,,,,,,,,,,,,,,,,,,,,,,,,,,,,,,,,,,,,,,,,,,,,,,,,,,,,,
10380,0,0.173,,,,,,,,,,,,0.0,95.64,72.72,112.17,,,,,,,,,,,,,,47,51,52,52,51,53,50,48,42,48,48,48,48,48,48,45,28,30,31,30,30,29,28,28,34,36,36,36,36,35,34,32,,,,,,,,,,,,,,
10390,0,0.1732,,,,,,,,,,,,0.0,95.64,73.05,111.42,,,,,,,,,,,,,,,,,,,,,,,,,,,,,,,,,,,,,,,,,,,,,,,,,,,,,,,,,,,
10400,0,0.1733,,0.05,0.08,-0.01,0,1,-1,0.09,0.19,50,,0.0,95.64,72.72,109.44,,,,,,,,,,,,,,48,52,52,52,51,54,50,48,42,48,48,48,48,48,48,46,28,30,31,30,30,29,28,28,34,35,36,36,36,35,34,32,,,,,,,,,,,,,,
10410,0,0.1735,,,,,,,,,,,,0.0,95.64,72.84,112.17,,,,,,,,,,,,,,,,,,,,,,,,,,,,,,,,,,,,,,,,,,,,,,,,,,,,,,,,,,,
10420,0,0.1737,,,,,,,,,,,-4,0.0,95.64,72.84,110.1,2444,73.3,28.8,0,11.0,0.0,0.0,0.0,0.0,87.0,12.3,325.52,181.75,48,52,52,52,51,54,50,48,42,48,48,48,48,48,48,46,29,30,31,30,30,29,28,28,34,35,36,36,36,35,34,32,0.0,0.0,0.0,0.0,0,0,0.0,0,0.0,-1,0.0,0,0.0,0.1737
10430,0,0.1738,,,,,,,,,,,,0.0,95.64,72.63,107.79,,,,,,,,,,,,,,,,,,,,,,,,,,,,,,,,,,,,,,,,,,,,,,,,,,,,,,,,,,,
10440,0,0.174,,0.05,0.08,0.08,0,2,-1,0.13,0.19,67,,0.0,95.64,72.84,120.54,,,,,,,,,,,,,,48,52,52,52,51,54,50,48,42,48,48,48,48,48,48,46,29,30,31,30,30,29,28,28,34,35,36,36,36,35,34,32,,,,,,,,,,,,,,
10450,0,0.1742,,,,,,,,,,,,0.0,95.64,72.63,110.85,,,,,,,,,,,,,,,,,,,,,,,,,,,,,,,,,,,,,,,,,,,,,,,,,,,,,,,,,,,
10460,0,0.1743,,,,,,,,,,,,0.0,95.52,72.72,109.11,,,,,,,,,,,,,,48,52,52,52,51,54,50,48,42,48,48,48,48,48,48,46,29,30,31,30,30,29,28,28,34,35,36,36,36,35,34,32,,,,,,,,,,,,,,
10470,0,0.1745,,,,,,,,,,,,0.0,95.64,72.84,112.62,,,,,,,,,,,,,,,,,,,,,,,,,,,,,,,,,,,,,,,,,,,,,,,,,,,,,,,,,,,
10480,0,0.1747,,-0.03,0.06,0.0,0,2,-1,0.06,0.19,33,,0.0,95.64,72.63,112.41,,,,,,,,,,,,,,48,52,52,52,51,54,50,48,42,48,48,48,48,48,48,46,29,30,31,30,30,29,28,28,34,36,36,36,36,35,34,32,,,,,,,,,,,,,,
10490,0,0.1748,,,,,,,,,,,,0.0,95.52,72.96,109.77,,,,,,,,,,,,,,,,,,,,,,,,,,,,,,,,,,,,,,,,,,,,,,,,,,,,,,,,,,,
10500,0,0.175,,,,,,,,,,,,0.0,95.64,72.63,109.98,,,,,,,,,,,,,,48,52,52,52,51,54,50,48,42,48,48,48,48,48,48,46,29,30,31,30,30,29,28,28,34,36,36,36,36,35,34,32,,,,,,,,,,,,,,
10510,0,0.1752,,,,,,,,,,,,0.0,95.52,72.72,111.3,,,,,,,,,,,,,,,,,,,,,,,,,,,,,,,,,,,,,,,,,,,,,,,,,,,,,,,,,,,
10520,0,0.1753,,-0.06,0.02,-0.08,-0,3,-1,0.1,0.19,55,-4,0.0,95.64,72.63,111.63,2690,72.6,28.8,0,11.0,0.0,0.0,0.0,0.0,86.0,12.4,322.96,181.75,48,52,52,52,51,54,50,48,42,48,48,48,48,48,48,46,29,30,31,30,30,29,28,28,34,36,36,36,36,35,34,32,0.0,0.0,0.0,0.0,0,0,0.0,0,0.0,-1,0.0,0,0.0,0.1753
10530,0,0.1755,,,,,,,,,,,,0.0,95.52,72.42,108.57,,,,,,,,,,,,,,,,,,,,,,,,,,,,,,,,,,,,,,,,,,,,,,,,,,,,,,,,,,,
10540,0,0.1757,,,,,,,,,,,,0.0,95.52,72.63,116.79,,,,,,,,,,,,,,48,52,52,52,51,54,50,48,42,48,48,48,48,48,48,46,29,30,31,30,30,29,28,28,34,36,36,36,36,35,34,32,,,,,,,,,,,,,,
10550,0,0.1758,,,,,,,,,,,,0.0,95.52,72.42,117.69,,,,,,,,,,,,,,,,,,,,,,,,,,,,,,,,,,,,,,,,,,,,,,,,,,,,,,,,,,,
10560,0,0.176,,0.04,0.01,-0.06,0,3,-1,0.07,0.19,37,,0.0,95.52,72.51,116.79,,,,,,,,,,,,,,48,52,52,52,51,54,50,48,42,48,48,48,48,48,48,46,28,30,31,30,30,29,28,28,34,36,36,36,36,35,34,32,,,,,,,,,,,,,,
10570,0,0.1762,,,,,,,,,,,,0.0,95.4,72.42,110.43,,,,,,,,,,,,,,,,,,,,,,,,,,,,,,,,,,,,,,,,,,,,,,,,,,,,,,,,,,,
10580,0,0.1763,,,,,,,,,,,,0.0,95.64,72.51,117.36,,,,,,,,,,,,,,48,52,52,52,51,54,50,48,42,48,48,48,48,48,48,46,28,30,31,30,30,29,28,28,34,36,36,36,36,35,34,32,,,,,,,,,,,,,,
10590,0,0.1765,,,,,,,,,,,,0.0,95.4,72.63,112.95,,,,,,,,,,,,,,,,,,,,,,,,,,,,,,,,,,,,,,,,,,,,,,,,,,,,,,,,,,,
10600,0,0.1767,,0.01,0.08,0.03,0,3,-1,0.09,0.19,45,,0.0,95.64,72.51,110.19,,,,,,,,,,,,,,48,52,52,52,51,53,50,48,42,48,48,48,48,48,48,46,28,30,31,30,30,29,28,28,34,36,36,36,36,35,34,32,,,,,,,,,,,,,,
10610,0,0.1768,,,,,,,,,,,,0.0,95.4,72.63,113.82,,,,,,,,,,,,,,,,,,,,,,,,,,,,,,,,,,,,,,,,,,,,,,,,,,,,,,,,,,,
10620,0,0.177,,,,,,,,,,,-4,0.0,95.52,72.51,119.76,2615,71.3,28.8,0,11.0,0.0,0.0,0.0,0.0,86.0,12.3,322.96,181.75,48,52,52,52,51,53,50,48,42,48,48,48,48,48,48,46,29,30,31,30,30,29,28,28,34,36,36,36,36,35,34,32,0.0,0.0,0.0,0.0,0,0,0.0,0,0.0,-1,0.0,0,0.0,0.177
10630,0,0.1772,,,,,,,,,,,,0.0,95.52,72.51,119.76,,,,,,,,,,,,,,,,,,,,,,,,,,,,,,,,,,,,,,,,,,,,,,,,,,,,,,,,,,,
10640,0,0.1773,,0.07,0.06,-0.05,0,1,-1,0.1,0.19,53,,0.0,95.52,72.63,117.45,,,,,,,,,,,,,,48,52,52,52,51,53,50,48,42,48,48,48,48,48,48,46,29,30,31,30,30,29,28,28,34,36,36,36,36,35,34,32,,,,,,,,,,,,,,
10650,0,0.1775,,,,,,,,,,,,0.0,95.64,72.3,111.75,,,,,,,,,,,,,,,,,,,,,,,,,,,,,,,,,,,,,,,,,,,,,,,,,,,,,,,,,,,
10660,0,0.1777,,,,,,,,,,,,0.0,95.52,72.72,111.42,,,,,,,,,,,,,,48,52,52,52,51,54,50,48,42,48,48,48,48,48,48,46,29,30,31,30,30,29,28,28,34,36,36,36,36,35,34,32,,,,,,,,,,,,,,
10670,0,0.1778,,,,,,,,,,,,0.0,95.73,72.3,115.38,,,,,,,,,,,,,,,,,,,,,,,,,,,,,,,,,,,,,,,,,,,,,,,,,,,,,,,,,,,
10680,0,0.178,,0.06,0.05,0.18,0,2,-1,0.19,0.19,100,,0.0,95.52,72.72,112.83,,,,,,,,,,,,,,48,52,52,52,51,54,50,48,42,48,48,48,48,48,48,46,29,30,31,30,30,29,28,29,34,36,36,36,36,35,34,32,,,,,,,,,,,,,,
10690,0,0.1782,,,,,,,,,,,,0.0,95.64,72.42,112.62,,,,,,,,,,,,,,,,,,,,,,,,,,,,,,,,,,,,,,,,,,,,,,,,,,,,,,,,,,,
10700,0,0.1783,,,,,,,,,,,,0.0,95.52,72.63,110.85,,,,,,,,,,,,,,48,52,52,52,51,54,50,48,42,48,48,48,48,48,48,46,29,30,31,30,30,29,28,29,34,36,36,36,36,35,34,32,,,,,,,,,,,,,,
10710,0,0.1785,,,,,,,,,,,,0.0,95.64,72.63,110.64,,,,,,,,,,,,,,,,,,,,,,,,,,,,,,,,,,,,,,,,,,,,,,,,,,,,,,,,,,,
10720,0,0.1787,,-0.01,0.09,0.23,0,4,-1,0.25,0.25,100,-4,0.0,95.4,72.51,111.96,2817,69.8,28.8,0,11.0,0.0,0.0,0.0,0.0,85.0,12.4,320.4,181.75,47,51,52,52,51,53,50,48,42,48,48,48,48,48,48,46,29,30,31,30,30,29,28,29,35,36,36,36,36,35,34,32,0.0,0.0,0.0,0.0,0,0,0.0,0,0.0,-1,0.0,0,0.0,0.1787
10730,0,0.1788,,,,,,,,,,,,0.0,95.52,72.63,115.05,,,,,,,,,,,,,,,,,,,,,,,,,,,,,,,,,,,,,,,,,,,,,,,,,,,,,,,,,,,
10740,0,0.179,,,,,,,,,,,,0.0,95.4,72.42,116.79,,,,,,,,,,,,,,47,51,52,52,51,53,50,48,42,48,48,48,48,48,48,46,29,30,31,30,30,30,28,28,35,36,36,36,36,35,34,32,,,,,,,,,,,,,,
10750,0,0.1792,,,,,,,,,,,,0.0,95.4,72.51,117.69,,,,,,,,,,,,,,,,,,,,,,,,,,,,,,,,,,,,,,,,,,,,,,,,,,,,,,,,,,,
10760,0,0.1793,,-0.07,0.06,0.05,0,5,-1,0.1,0.25,41,,0.0,95.52,72.42,112.5,,,,,,,,,,,,,,47,51,52,52,51,53,50,48,42,48,48,48,48,48,48,46,29,30,31,30,30,30,28,28,35,36,36,36,36,35,34,32,,,,,,,,,,,,,,
10770,0,0.1795,,,,,,,,,,,,0.0,95.4,72.51,114.81,,,,,,,,,,,,,,,,,,,,,,,,,,,,,,,,,,,,,,,,,,,,,,,,,,,,,,,,,,,
10780,0,0.1797,,,,,,,,,,,,0.0,95.52,72.42,112.74,,,,,,,,,,,,,,47,51,52,52,51,53,50,48,42,48,48,48,48,48,48,45,29,30,31,30,30,30,28,28,34,36,36,36,36,35,34,32,,,,,,,,,,,,,,
10790,0,0.1798,,,,,,,,,,,,0.0,95.4,72.42,114.48,,,,,,,,,,,,,,,,,,,,,,,,,,,,,,,,,,,,,,,,,,,,,,,,,,,,,,,,,,,
10800,0,0.18,,-0.07,0.12,-0.01,-0,4,-1,0.14,0.25,55,,0.0,95.52,72.42,113.94,,,,,,,,,,,,,,47,51,52,52,51,53,50,48,42,48,48,48,48,48,48,45,29,30,31,30,30,29,28,28,34,36,36,36,36,35,34,32,,,,,,,,,,,,,,
10810,0,0.1802,,,,,,,,,,,,0.0,95.52,72.63,116.04,,,,,,,,,,,,,,,,,,,,,,,,,,,,,,,,,,,,,,,,,,,,,,,,,,,,,,,,,,,
10820,0,0.1803,,,,,,,,,,,-4,0.0,95.52,72.51,112.5,3175,68.2,28.8,0,12.0,0.0,0.0,0.0,0.0,85.0,12.3,320.4,181.75,47,51,52,52,51,53,50,48,42,48,48,48,48,48,48,45,29,30,31,30,30,29,28,28,34,36,36,36,36,35,34,32,0.0,0.0,0.0,0.0,0,0,0.0,0,0.0,-1,0.0,0,0.0,0.1803
10830,0,0.1805,,,,,,,,,,,,0.0,95.52,72.63,113.82,,,,,,,,,,,,,,,,,,,,,,,,,,,,,,,,,,,,,,,,,,,,,,,,,,,,,,,,,,,
10840,0,0.1807,,-0.1,0.09,-0.0,-0,4,-1,0.13,0.25,52,,0.0,95.4,72.42,113.82,,,,,,,,,,,,,,48,51,52,52,51,54,50,48,42,48,48,48,48,48,48,45,29,30,31,30,30,29,28,28,34,36,36,36,36,35,34,32,,,,,,,,,,,,,,
10850,0,0.1808,,,,,,,,,,,,0.0,95.52,72.51,116.04,,,,,,,,,,,,,,,,,,,,,,,,,,,,,,,,,,,,,,,,,,,,,,,,,,,,,,,,,,,
10860,0,0.181,,,,,,,,,,,,0.0,95.52,72.42,113.16,,,,,,,,,,,,,,48,51,52,52,51,54,50,48,42,48,48,48,48,48,48,45,29,30,31,30,30,29,28,28,34,36,36,36,36,35,34,32,,,,,,,,,,,,,,
10870,0,0.1812,,,,,,,,,,,,0.0,95.52,72.51,114.93,,,,,,,,,,,,,,,,,,,,,,,,,,,,,,,,,,,,,,,,,,,,,,,,,,,,,,,,,,,
10880,0,0.1813,,-0.01,0.12,0.15,0,3,-1,0.19,0.25,75,,0.0,95.4,72.42,113.61,,,,,,,,,,,,,,48,51,52,52,51,54,50,48,42,48,48,48,48,48,48,45,29,30,31,30,30,29,28,28,34,36,36,36,36,35,34,32,,,,,,,,,,,,,,
10890,0,0.1815,,,,,,,,,,,,0.0,95.64,72.42,115.92,,,,,,,,,,,,,,,,,,,,,,,,,,,,,,,,,,,,,,,,,,,,,,,,,,,,,,,,,,,
10900,0,0.1817,,,,,,,,,,,,0.0,95.52,72.51,113.73,,,,,,,,,,,,,,47,52,52,52,51,54,50,48,42,48,48,48,48,48,48,45,29,30,31,30,30,29,28,28,34,36,36,36,36,35,34,32,,,,,,,,,,,,,,
10910,0,0.1818,,,,,,,,,,,,0.0,95.64,72.42,112.5,,,,,,,,,,,,,,,,,,,,,,,,,,,,,,,,,,,,,,,,,,,,,,,,,,,,,,,,,,,
10920,0,0.182,,0.06,0.06,-0.16,0,0,-1,0.18,0.25,71,-4,0.0,95.52,72.63,115.05,3306,65.3,28.8,0,13.0,0.0,0.0,0.0,0.0,85.0,12.3,320.4,181.75,47,52,52,52,51,54,50,48,42,48,48,48,48,48,48,45,29,30,31,30,30,29,28,28,34,35,36,36,36,35,34,32,0.0,0.0,0.0,0.0,0,0,0.0,0,0.0,-1,0.0,0,0.0,0.182
10930,0,0.1822,,,,,,,,,,,,0.0,95.64,72.42,112.41,,,,,,,,,,,,,,,,,,,,,,,,,,,,,,,,,,,,,,,,,,,,,,,,,,,,,,,,,,,
10940,0,0.1823,,,,,,,,,,,,0.0,95.64,72.63,119.34,,,,,,,,,,,,,,47,52,52,52,51,54,50,48,42,48,48,48,48,48,48,45,29,30,30,30,30,29,28,28,34,35,36,36,36,35,34,32,,,,,,,,,,,,,,
10950,0,0.1825,,,,,,,,,,,,0.0,95.64,72.3,117.69,,,,,,,,,,,,,,,,,,,,,,,,,,,,,,,,,,,,,,,,,,,,,,,,,,,,,,,,,,,
10960,0,0.1827,,-0.03,0.06,-0.04,0,4,-1,0.08,0.25,31,,0.0,95.64,72.51,117.69,,,,,,,,,,,,,,47,52,52,52,51,54,50,48,42,48,48,48,48,48,48,45,29,30,30,30,30,29,28,28,34,35,36,36,36,35,34,32,,,,,,,,,,,,,,
10970,0,0.1828,,,,,,,,,,,,0.0,95.64,72.42,116.37,,,,,,,,,,,,,,,,,,,,,,,,,,,,,,,,,,,,,,,,,,,,,,,,,,,,,,,,,,,
10980,0,0.183,,,,,,,,,,,,0.0,95.73,72.51,117.9,,,,,,,,,,,,,,47,51,52,52,51,53,50,48,42,48,48,47,48,48,48,46,29,30,30,30,30,29,28,28,34,36,36,36,36,35,34,32,,,,,,,,,,,,,,
10990,0,0.1832,,,,,,,,,,,,0.0,95.73,72.42,114.81,,,,,,,,,,,,,,,,,,,,,,,,,,,,,,,,,,,,,,,,,,,,,,,,,,,,,,,,,,,
11000,0,0.1833,,0.01,0.02,-0.14,-0,3,-1,0.15,0.25,59,,0.0,95.52,72.3,116.25,,,,,,,,,,,,,,47,51,52,52,51,53,50,48,42,48,48,47,48,48,48,46,28,30,31,30,30,29,28,28,34,36,36,36,36,35,34,32,,,,,,,,,,,,,,
11010,0,0.1835,,,,,,,,,,,,0.0,95.64,72.42,113.61,,,,,,,,,,,,,,,,,,,,,,,,,,,,,,,,,,,,,,,,,,,,,,,,,,,,,,,,,,,
11020,0,0.1837,,,,,,,,,,,-4,0.0,95.52,72.51,115.8,3386,62.1,28.8,0,13.0,0.0,0.0,0.0,0.0,84.0,12.3,317.84,181.75,47,51,52,52,51,53,50,48,42,48,48,47,48,48,48,46,28,30,31,30,30,29,28,28,34,36,36,36,36,35,34,32,0.0,0.0,0.0,0.0,0,0,0.0,0,0.0,-1,0.0,0,0.0,0.1837
11030,0,0.1838,,,,,,,,,,,,0.0,95.73,72.42,115.26,,,,,,,,,,,,,,,,,,,,,,,,,,,,,,,,,,,,,,,,,,,,,,,,,,,,,,,,,,,
11040,0,0.184,,0.06,0.11,0.19,0,3,0,0.23,0.25,91,,0.0,95.64,72.63,114.06,,,,,,,,,,,,,,47,52,52,52,51,54,50,48,42,48,48,47,48,48,48,45,28,30,31,30,30,29,28,28,35,36,36,36,36,35,34,32,,,,,,,,,,,,,,
11050,0,0.1842,,,,,,,,,,,,0.0,95.64,72.42,118.68,,,,,,,,,,,,,,,,,,,,,,,,,,,,,,,,,,,,,,,,,,,,,,,,,,,,,,,,,,,
11060,0,0.1843,,,,,,,,,,,,0.0,95.73,72.63,117.69,,,,,,,,,,,,,,47,52,52,52,51,54,50,48,42,48,48,47,48,48,48,45,29,30,31,30,30,29,28,28,35,36,36,36,36,35,34,32,,,,,,,,,,,,,,
11070,0,0.1845,,,,,,,,,,,,0.0,95.73,72.42,114.72,,,,,,,,,,,,,,,,,,,,,,,,,,,,,,,,,,,,,,,,,,,,,,,,,,,,,,,,,,,
11080,0,0.1847,,0.11,0.15,0.1,0,-0,-1,0.21,0.25,83,,0.0,95.73,72.51,114.48,,,,,,,,,,,,,,47,52,52,52,51,54,50,48,42,48,48,47,48,48,48,45,29,30,31,30,30,29,28,28,35,36,36,36,36,35,34,32,,,,,,,,,,,,,,
11090,0,0.1848,,,,,,,,,,,,0.0,95.64,72.51,114.06,,,,,,,,,,,,,,,,,,,,,,,,,,,,,,,,,,,,,,,,,,,,,,,,,,,,,,,,,,,
11100,0,0.185,,,,,,,,,,,,0.0,95.73,72.42,115.05,,,,,,,,,,,,,,47,51,52,52,51,53,50,48,42,48,48,47,48,48,48,45,29,30,31,30,30,29,28,28,35,36,36,36,36,35,34,32,,,,,,,,,,,,,,
11110,0,0.1852,,,,,,,,,,,,0.0,95.64,72.51,116.58,,,,,,,,,,,,,,,,,,,,,,,,,,,,,,,,,,,,,,,,,,,,,,,,,,,,,,,,,,,
11120,0,0.1853,,0.04,0.19,0.2,0,5,-1,0.28,0.28,100,-4,0.0,95.73,72.3,114.81,3374,59.7,28.8,0,12.0,0.0,0.0,0.0,0.0,84.0,12.3,317.84,181.75,47,51,52,52,51,53,50,48,42,48,48,47,48,48,48,45,29,30,31,30,30,29,28,28,35,36,36,36,36,35,34,32,0.0,0.0,0.0,0.0,0,0,0.0,0,0.0,-1,0.0,0,0.0,0.1853
11130,0,0.1855,,,,,,,,,,,,0.0,95.64,72.63,116.7,,,,,,,,,,,,,,,,,,,,,,,,,,,,,,,,,,,,,,,,,,,,,,,,,,,,,,,,,,,
11140,0,0.1857,,,,,,,,,,,,0.0,95.64,72.3,118.11,,,,,,,,,,,,,,47,51,52,52,51,53,50,48,42,48,48,47,48,48,48,45,29,30,31,30,30,29,28,28,35,36,36,36,36,35,34,32,,,,,,,,,,,,,,
11150,0,0.1858,,,,,,,,,,,,0.0,95.64,72.63,116.37,,,,,,,,,,,,,,,,,,,,,,,,,,,,,,,,,,,,,,,,,,,,,,,,,,,,,,,,,,,
11160,0,0.186,,0.06,0.17,0.05,-0,4,-1,0.19,0.28,68,,0.0,95.64,72.3,118.44,,,,,,,,,,,,,,48,52,52,52,51,54,50,48,42,48,48,48,48,48,48,46,29,30,31,30,30,29,28,28,34,36,36,36,36,35,34,32,,,,,,,,,,,,,,
11170,0,0.1862,,,,,,,,,,,,0.0,95.73,72.42,120.42,,,,,,,,,,,,,,,,,,,,,,,,,,,,,,,,,,,,,,,,,,,,,,,,,,,,,,,,,,,
11180,0,0.1863,,,,,,,,,,,,0.0,95.64,72.3,118.11,,,,,,,,,,,,,,48,52,52,52,51,54,50,48,42,48,48,48,48,48,48,46,29,30,31,30,30,29,28,28,34,36,36,36,36,35,34,32,,,,,,,,,,,,,,
11190,0,0.1865,,,,,,,,,,,,0.0,95.64,72.42,116.25,,,,,,,,,,,,,,,,,,,,,,,,,,,,,,,,,,,,,,,,,,,,,,,,,,,,,,,,,,,
11200,0,0.1867,,0.03,0.15,0.18,0,3,-1,0.24,0.28,87,,0.0,95.52,72.51,117.9,,,,,,,,,,,,,,48,52,52,52,51,54,50,48,42,48,48,48,48,48,48,46,29,30,31,30,30,29,28,28,34,36,36,36,36,35,34,32,,,,,,,,,,,,,,
11210,0,0.1868,,,,,,,,,,,,0.0,95.73,72.42,114.6,,,,,,,,,,,,,,,,,,,,,,,,,,,,,,,,,,,,,,,,,,,,,,,,,,,,,,,,,,,
11220,0,0.187,,,,,,,,,,,-4,0.0,95.64,72.51,115.71,3354,58.2,28.8,0,12.0,0.0,0.0,0.0,0.0,83.0,12.3,315.28,181.75,47,51,52,52,51,53,50,48,42,48,48,48,48,48,48,46,29,30,31,30,30,29,28,28,34,36,36,36,36,35,34,32,0.0,0.0,0.0,0.0,0,0,0.0,0,0.0,-1,0.0,0,0.0,0.187
11230,0,0.1872,,,,,,,,,,,,0.0,95.64,72.3,115.71,,,,,,,,,,,,,,,,,,,,,,,,,,,,,,,,,,,,,,,,,,,,,,,,,,,,,,,,,,,
11240,0,0.1873,,0.1,0.08,-0.06,0,0,-1,0.14,0.28,51,,0.0,95.52,72.63,116.04,,,,,,,,,,,,,,47,51,52,52,51,53,50,48,42,48,48,48,48,48,48,46,29,30,31,30,30,29,28,28,34,36,36,36,36,35,34,32,,,,,,,,,,,,,,
11250,0,0.1875,,,,,,,,,,,,0.0,95.73,72.42,119.1,,,,,,,,,,,,,,,,,,,,,,,,,,,,,,,,,,,,,,,,,,,,,,,,,,,,,,,,,,,
11260,0,0.1877,,,,,,,,,,,,0.0,95.64,72.63,114.48,,,,,,,,,,,,,,47,51,52,52,51,53,50,48,42,48,48,48,48,48,48,46,28,30,31,30,30,29,28,28,34,36,36,36,36,35,34,32,,,,,,,,,,,,,,
11270,0,0.1878,,,,,,,,,,,,0.0,95.64,72.3,118.89,,,,,,,,,,,,,,,,,,,,,,,,,,,,,,,,,,,,,,,,,,,,,,,,,,,,,,,,,,,
11280,0,0.188,,-0.0,0.11,-0.1,0,1,-1,0.15,0.28,55,,0.0,95.73,72.51,117.57,,,,,,,,,,,,,,47,51,52,52,51,53,50,48,42,48,48,48,48,48,48,46,28,30,31,30,30,29,28,28,34,36,36,36,36,35,34,32,,,,,,,,,,,,,,
11290,0,0.1882,,,,,,,,,,,,0.0,95.64,72.3,119.1,,,,,,,,,,,,,,,,,,,,,,,,,,,,,,,,,,,,,,,,,,,,,,,,,,,,,,,,,,,
11300,0,0.1883,,,,,,,,,,,,0.0,95.73,72.51,117.12,,,,,,,,,,,,,,47,51,52,52,51,53,50,48,42,48,48,48,48,48,48,46,28,30,31,30,30,29,28,28,34,35,36,36,36,35,34,32,,,,,,,,,,,,,,
11310,0,0.1885,,,,,,,,,,,,0.0,95.64,72.42,117.9,,,,,,,,,,,,,,,,,,,,,,,,,,,,,,,,,,,,,,,,,,,,,,,,,,,,,,,,,,,
11320,0,0.1887,12.62,-0.05,0.12,0.12,0,4,-1,0.18,0.28,64,-4,0.0,95.85,72.51,118.89,3219,57.6,28.7,0,12.0,0.0,0.0,0.0,0.0,83.0,12.3,315.28,181.75,47,51,52,52,51,53,50,48,42,48,48,48,48,48,48,46,28,30,31,30,30,29,28,28,34,35,36,36,36,35,34,32,0.0,0.0,0.0,0.0,0,0,0.0,0,0.0,-1,0.0,0,0.0,0.1887
11330,0,0.1888,,,,,,,,,,,,0.0,95.64,72.3,118.23,,,,,,,,,,,,,,,,,,,,,,,,,,,,,,,,,,,,,,,,,,,,,,,,,,,,,,,,,,,
11340,0,0.189,,,,,,,,,,,,0.0,95.73,72.42,116.58,,,,,,,,,,,,,,47,51,52,52,51,53,50,48,42,48,48,48,48,48,48,46,28,30,31,30,30,29,28,28,34,35,36,36,36,35,34,32,,,,,,,,,,,,,,
11350,0,0.1892,,,,,,,,,,,,0.0,95.52,72.3,117.03,,,,,,,,,,,,,,,,,,,,,,,,,,,,,,,,,,,,,,,,,,,,,,,,,,,,,,,,,,,
11360,0,0.1893,,0.06,0.08,0.05,0,3,-1,0.11,0.28,40,,0.0,95.73,72.51,119.34,,,,,,,,,,,,,,47,51,52,52,50,53,50,48,42,48,48,48,48,48,48,46,28,30,31,30,30,29,28,28,35,36,36,36,36,35,34,32,,,,,,,,,,,,,,
11370,0,0.1895,,,,,,,,,,,,0.0,95.64,72.3,118.35,,,,,,,,,,,,,,,,,,,,,,,,,,,,,,,,,,,,,,,,,,,,,,,,,,,,,,,,,,,
11380,0,0.1897,,,,,,,,,,,,0.0,95.73,72.51,116.37,,,,,,,,,,,,,,47,51,52,52,50,53,50,48,42,48,48,48,48,48,48,46,29,30,31,30,30,29,28,28,35,36,36,36,36,35,34,32,,,,,,,,,,,,,,
11390,0,0.1898,,,,,,,,,,,,0.0,95.64,72.3,118.11,,,,,,,,,,,,,,,,,,,,,,,,,,,,,,,,,,,,,,,,,,,,,,,,,,,,,,,,,,,
11400,0,0.19,,0.08,0.03,-0.06,0,1,-1,0.1,0.28,37,,0.0,95.64,72.3,117.36,,,,,,,,,,,,,,47,51,52,52,50,53,50,48,42,48,48,48,48,48,48,46,29,30,31,30,30,29,28,28,35,36,36,36,36,35,34,32,,,,,,,,,,,,,,
11410,0,0.1902,,,,,,,,,,,,0.0,95.64,72.51,118.68,,,,,,,,,,,,,,,,,,,,,,,,,,,,,,,,,,,,,,,,,,,,,,,,,,,,,,,,,,,
11420,0,0.1903,,,,,,,,,,,-4,0.0,95.52,72.3,118.89,3084,57.8,28.7,0,11.0,0.0,0.0,0.0,0.0,82.0,12.3,312.72,181.75,47,51,52,52,51,54,50,48,42,48,48,48,48,48,48,46,29,30,31,30,30,29,28,28,34,36,36,36,36,35,34,32,0.0,0.0,0.0,0.0,0,0,0.0,0,0.0,-1,0.0,0,0.0,0.1903
11430,0,0.1905,,,,,,,,,,,,0.0,95.73,72.51,122.07,,,,,,,,,,,,,,,,,,,,,,,,,,,,,,,,,,,,,,,,,,,,,,,,,,,,,,,,,,,
11440,0,0.1907,,0.08,0.06,-0.19,-0,0,-1,0.22,0.28,78,,0.0,95.52,72.3,118.68,,,,,,,,,,,,,,47,51,52,52,51,54,50,48,42,48,48,48,48,48,48,46,29,30,31,30,30,29,28,28,34,36,36,36,36,35,34,32,,,,,,,,,,,,,,
11450,0,0.1908,,,,,,,,,,,,0.0,95.64,72.51,117.36,,,,,,,,,,,,,,,,,,,,,,,,,,,,,,,,,,,,,,,,,,,,,,,,,,,,,,,,,,,
11460,0,0.191,,,,,,,,,,,,0.0,95.52,72.3,119.88,,,,,,,,,,,,,,47,51,52,52,51,54,50,48,42,48,48,48,48,48,48,46,29,30,31,30,30,29,28,28,34,36,36,36,36,35,34,32,,,,,,,,,,,,,,
11470,0,0.1912,,,,,,,,,,,,0.0,95.64,72.42,119.43,,,,,,,,,,,,,,,,,,,,,,,,,,,,,,,,,,,,,,,,,,,,,,,,,,,,,,,,,,,
11480,0,0.1913,,0.02,0.12,-0.2,0,0,-0,0.24,0.28,85,,0.0,95.52,72.3,119.67,,,,,,,,,,,,,,47,51,52,52,51,54,50,48,42,48,48,48,48,48,48,46,29,30,31,30,30,29,28,28,34,36,36,36,36,35,34,32,,,,,,,,,,,,,,
11490,0,0.1915,,,,,,,,,,,,0.0,95.52,72.51,116.58,,,,,,,,,,,,,,,,,,,,,,,,,,,,,,,,,,,,,,,,,,,,,,,,,,,,,,,,,,,
11500,0,0.1917,,,,,,,,,,,,0.0,95.52,72.3,119.76,,,,,,,,,,,,,,47,51,52,52,51,54,50,48,42,48,48,48,48,48,48,46,28,30,31,30,30,29,28,28,34,36,36,36,36,35,34,32,,,,,,,,,,,,,,
11510,0,0.1918,,,,,,,,,,,,0.0,95.52,72.42,117.36,,,,,,,,,,,,,,,,,,,,,,,,,,,,,,,,,,,,,,,,,,,,,,,,,,,,,,,,,,,
11520,0,0.192,,0.0,0.11,-0.25,0,0,-1,0.27,0.28,97,-4,0.0,95.52,72.42,118.77,2877,58.7,28.6,0,10.0,0.0,0.0,0.0,0.0,82.0,12.3,312.72,181.75,47,51,52,52,51,54,50,48,42,48,48,48,48,48,48,46,28,30,31,30,30,29,28,28,34,36,36,36,36,35,34,32,0.0,0.0,0.0,0.0,0,0,0.0,0,0.0,-1,0.0,0,0.0,0.192
11530,0,0.1922,,,,,,,,,,,,0.0,95.52,72.42,114.72,,,,,,,,,,,,,,,,,,,,,,,,,,,,,,,,,,,,,,,,,,,,,,,,,,,,,,,,,,,
11540,0,0.1923,,,,,,,,,,,,0.0,95.52,72.3,114.39,,,,,,,,,,,,,,47,52,52,52,51,54,50,48,42,48,48,48,48,48,48,46,28,30,31,30,30,29,28,28,34,36,36,36,36,35,34,32,,,,,,,,,,,,,,
11550,0,0.1925,,,,,,,,,,,,0.0,95.4,72.63,114.39,,,,,,,,,,,,,,,,,,,,,,,,,,,,,,,,,,,,,,,,,,,,,,,,,,,,,,,,,,,
11560,0,0.1927,,0.09,0.08,-0.16,0,-1,-1,0.2,0.28,71,,0.0,95.52,72.3,117.45,,,,,,,,,,,,,,47,52,52,52,51,54,50,48,42,48,48,48,48,48,48,46,29,30,31,30,30,30,29,28,34,35,36,36,36,34,34,32,,,,,,,,,,,,,,
11570,0,0.1928,,,,,,,,,,,,0.0,95.31,72.63,118.56,,,,,,,,,,,,,,,,,,,,,,,,,,,,,,,,,,,,,,,,,,,,,,,,,,,,,,,,,,,
