"Interval"|"ms"|0|0|1,"Utc"|"ms"|0|0|1,"ElapsedTime"|"Min"|0.0|0.0|10,"Battery"|"Volts"|0.0|20.0|1,"AccelX"|"G"|-3.0|3.0|25,"AccelY"|"G"|-3.0|3.0|25,"AccelZ"|"G"|-3.0|3.0|25,"Yaw"|"Deg/Sec"|-120|120|25,"Pitch"|"Deg/Sec"|-120|120|25,"Roll"|"Deg/Sec"|-120|120|25,"Gsum"|"G"|0.0|3.0|25,"GsumMax"|"G"|0.0|3.0|25,"GsumPct"|"%"|0|100|25,"StAngle"|"Deg"|-100|100|10,"SuspPosFL"|"mm"|0.0|150.0|100,"SuspPosRL"|"mm"|0.0|150.0|100,"SuspPosFR"|"mm"|0.0|150.0|100,"SuspPosRR"|"mm"|0.0|150.0|100,"RPM"|"RPM"|0|15000|10,"MAP"|"kPa"|0.0|200.0|10,"IAT"|"C"|0.0|200.0|10,"TPS"|"%"|0|100|10,"FuelDC"|"%"|0.0|100.0|10,"WheelSpdFL"|"km/h"|0.0|200.0|10,"WheelSpdFR"|"km/h"|0.0|200.0|10,"WheelSpdRL"|"km/h"|0.0|200.0|10,"WheelSpdRR"|"km/h"|0.0|200.0|10,"EngineTemp"|"C"|0.0|200.0|10,"ECU_BAT"|"V"|0.0|20.0|10,"BP-F"|"Bar"|-200.0|200.0|10,"BP-R"|"Bar"|-200.0|200.0|10,"TireTmpLF1"|"C"|-40|200|50,"TireTmpLF2"|"C"|-40|200|50,"TireTmpLF3"|"C"|-40|200|50,"TireTmpLF4"|"C"|-40|200|50,"TireTmpLF5"|"C"|-40|200|50,"TireTmpLF6"|"C"|-40|200|50,"TireTmpLF7"|"C"|-40|200|50,"TireTmpLF8"|"C"|-40|200|50,"TireTmpRF1"|"C"|-40|200|50,"TireTmpRF2"|"C"|-40|200|50,"TireTmpRF3"|"C"|-40|200|50,"TireTmpRF4"|"C"|-40|200|50,"TireTmpRF5"|"C"|-40|200|50,"TireTmpRF6"|"C"|-40|200|50,"TireTmpRF7"|"C"|-40|200|50,"TireTmpRF8"|"C"|-40|200|50,"TireTmpLR1"|"C"|-40|200|50,"TireTmpLR2"|"C"|-40|200|50,"TireTmpLR3"|"C"|-40|200|50,"TireTmpLR4"|"C"|-40|200|50,"TireTmpLR5"|"C"|-40|200|50,"TireTmpLR6"|"C"|-40|200|50,"TireTmpLR7"|"C"|-40|200|50,"TireTmpLR8"|"C"|-40|200|50,"TireTmpRR1"|"C"|-40|200|50,"TireTmpRR2"|"C"|-40|200|50,"TireTmpRR3"|"C"|-40|200|50,"TireTmpRR4"|"C"|-40|200|50,"TireTmpRR5"|"C"|-40|200|50,"TireTmpRR6"|"C"|-40|200|50,"TireTmpRR7"|"C"|-40|200|50,"TireTmpRR8"|"C"|-40|200|50,"Latitude"|"Degrees"|-180.0|180.0|10,"Longitude"|"Degrees"|-180.0|180.0|10,"Speed"|"kph"|0.0|150.0|10,"Altitude"|"m"|0.0|4000.0|10,"GPSSats"|""|0|20|10,"GPSQual"|""|0|5|10,"GPSDOP"|""|0.0|20.0|10,"LapCount"|""|0|0|10,"LapTime"|"Min"|0.0|0.0|10,"Sector"|""|0|0|10,"SectorTime"|"Min"|0.0|0.0|10,"CurrentLap"|""|0|0|10,"Distance"|"mi"|0.0|0.0|10,"SessionTime"|"Min"|0.0|0.0|10
69504,0,1.1584,,,,,,,,,,,,0.0,89.7,79.2,120.09,,,,,,,,,,,,,,,,,,,,,,,,,,,,,,,,,,,,,,,,,,,,,,,,,,,,,,,,,,,
69514,0,1.1586,,,,,,,,,,,,0.0,89.82,79.44,120.96,,,,,,,,,,,,,,0,0,0,0,0,0,0,0,0,0,0,0,0,0,0,0,0,0,0,0,0,0,0,0,0,0,0,0,0,0,0,0,,,,,,,,,,,,,,
69524,0,1.1587,,,,,,,,,,,,0.0,89.82,79.2,115.8,,,,,,,,,,,,,,,,,,,,,,,,,,,,,,,,,,,,,,,,,,,,,,,,,,,,,,,,,,,
69534,0,1.1589,,0.02,-0.01,-0.33,0,-0,0,0.34,0.34,100,,0.0,89.7,79.44,119.01,,,,,,,,,,,,,,0,0,0,0,0,0,0,0,0,0,0,0,0,0,0,0,0,0,0,0,0,0,0,0,0,0,0,0,0,0,0,0,,,,,,,,,,,,,,
69544,0,1.1591,,,,,,,,,,,,0.0,89.82,79.2,115.26,,,,,,,,,,,,,,,,,,,,,,,,,,,,,,,,,,,,,,,,,,,,,,,,,,,,,,,,,,,
69554,0,1.1592,,,,,,,,,,,1,0.0,89.7,79.53,116.13,2766,62.7,18.7,0,11.0,0.0,0.0,0.0,0.0,65.0,12.0,269.2,181.75,0,0,0,0,0,0,0,0,0,0,0,0,0,0,0,0,0,0,0,0,0,0,0,0,0,0,0,0,0,0,0,0,0.0,0.0,0.0,0.0,0,0,0.0,0,0.0,-1,0.0,0,0.0,1.1592
69564,0,1.1594,,,,,,,,,,,,0.0,89.82,79.32,116.25,,,,,,,,,,,,,,,,,,,,,,,,,,,,,,,,,,,,,,,,,,,,,,,,,,,,,,,,,,,
69574,0,1.1596,,0.05,0.01,-0.24,0,0,0,0.25,0.34,73,,0.0,89.7,79.44,115.59,,,,,,,,,,,,,,0,0,0,0,0,0,0,0,0,0,0,0,0,0,0,0,0,0,0,0,0,0,0,0,0,0,0,0,0,0,0,0,,,,,,,,,,,,,,
69584,0,1.1597,,,,,,,,,,,,0.0,89.82,79.44,119.01,,,,,,,,,,,,,,,,,,,,,,,,,,,,,,,,,,,,,,,,,,,,,,,,,,,,,,,,,,,
69594,0,1.1599,,,,,,,,,,,,0.0,89.7,79.2,120.09,,,,,,,,,,,,,,0,0,0,0,0,0,0,0,0,0,0,0,0,0,0,0,0,0,0,0,0,0,0,0,0,0,0,0,0,0,0,0,,,,,,,,,,,,,,
69604,0,1.1601,,,,,,,,,,,,0.0,89.7,79.44,116.46,,,,,,,,,,,,,,,,,,,,,,,,,,,,,,,,,,,,,,,,,,,,,,,,,,,,,,,,,,,
69614,0,1.1602,,-0.08,0.02,-0.32,0,1,0,0.33,0.34,98,,0.0,89.82,79.2,117.9,,,,,,,,,,,,,,0,0,0,0,0,0,0,0,0,0,0,0,0,0,0,0,0,0,0,0,0,0,0,0,0,0,0,0,0,0,0,0,,,,,,,,,,,,,,
69624,0,1.1604,,,,,,,,,,,,0.0,89.82,79.44,116.37,,,,,,,,,,,,,,,,,,,,,,,,,,,,,,,,,,,,,,,,,,,,,,,,,,,,,,,,,,,
69634,0,1.1606,,,,,,,,,,,,0.0,89.91,79.32,117.78,,,,,,,,,,,,,,0,0,0,0,0,0,0,0,0,0,0,0,0,0,0,0,0,0,0,0,0,0,0,0,0,0,0,0,0,0,0,0,,,,,,,,,,,,,,
69644,0,1.1607,,,,,,,,,,,,0.0,89.7,79.32,117.69,,,,,,,,,,,,,,,,,,,,,,,,,,,,,,,,,,,,,,,,,,,,,,,,,,,,,,,,,,,
69654,0,1.1609,,-0.02,-0.01,-0.47,0,1,0,0.47,0.47,100,1,0.0,89.82,79.32,117.69,2817,62.9,18.7,0,11.0,0.0,0.0,0.0,0.0,65.0,12.0,269.2,181.75,0,0,0,0,0,0,0,0,0,0,0,0,0,0,0,0,0,0,0,0,0,0,0,0,0,0,0,0,0,0,0,0,0.0,0.0,0.0,0.0,0,0,0.0,0,0.0,-1,0.0,0,0.0,1.1609
69664,0,1.1611,,,,,,,,,,,,0.0,89.7,79.32,117.9,,,,,,,,,,,,,,,,,,,,,,,,,,,,,,,,,,,,,,,,,,,,,,,,,,,,,,,,,,,
69674,0,1.1612,,,,,,,,,,,,0.0,89.82,79.32,118.44,,,,,,,,,,,,,,0,0,0,0,0,0,0,0,0,0,0,0,0,0,0,0,0,0,0,0,0,0,0,0,0,0,0,0,0,0,0,0,,,,,,,,,,,,,,
69684,0,1.1614,,,,,,,,,,,,0.0,89.7,79.2,121.74,,,,,,,,,,,,,,,,,,,,,,,,,,,,,,,,,,,,,,,,,,,,,,,,,,,,,,,,,,,
69694,0,1.1616,,0.08,-0.03,-0.31,0,1,0,0.32,0.47,69,,0.0,89.82,79.44,122.73,,,,,,,,,,,,,,0,0,0,0,0,0,0,0,0,0,0,0,0,0,0,0,0,0,0,0,0,0,0,0,0,0,0,0,0,0,0,0,,,,,,,,,,,,,,
69704,0,1.1617,,,,,,,,,,,,0.0,89.82,79.2,115.38,,,,,,,,,,,,,,,,,,,,,,,,,,,,,,,,,,,,,,,,,,,,,,,,,,,,,,,,,,,
69714,0,1.1619,,,,,,,,,,,,0.0,89.82,79.44,119.67,,,,,,,,,,,,,,0,0,0,0,0,0,0,0,0,0,0,0,0,0,0,0,0,0,0,0,0,0,0,0,0,0,0,0,0,0,0,0,,,,,,,,,,,,,,
69724,0,1.1621,,,,,,,,,,,,0.0,89.7,79.11,114.15,,,,,,,,,,,,,,,,,,,,,,,,,,,,,,,,,,,,,,,,,,,,,,,,,,,,,,,,,,,
69734,0,1.1622,,0.09,0.02,-0.1,0,1,-0,0.14,0.47,30,,0.0,89.82,79.2,114.81,,,,,,,,,,,,,,0,0,0,0,0,0,0,0,0,0,0,0,0,0,0,0,0,0,0,0,0,0,0,0,0,0,0,0,0,0,0,0,,,,,,,,,,,,,,
69744,0,1.1624,,,,,,,,,,,,0.0,89.7,79.53,119.34,,,,,,,,,,,,,,,,,,,,,,,,,,,,,,,,,,,,,,,,,,,,,,,,,,,,,,,,,,,
69754,0,1.1626,,,,,,,,,,,1,0.0,89.82,79.44,119.67,2726,62.9,18.6,0,10.0,0.0,0.0,0.0,0.0,65.0,11.9,269.2,181.75,0,0,0,0,0,0,0,0,0,0,0,0,0,0,0,0,0,0,0,0,0,0,0,0,0,0,0,0,0,0,0,0,0.0,0.0,0.0,0.0,0,0,0.0,0,0.0,-1,0.0,0,0.0,1.1626
69764,0,1.1627,,,,,,,,,,,,0.0,89.7,79.32,117.57,,,,,,,,,,,,,,,,,,,,,,,,,,,,,,,,,,,,,,,,,,,,,,,,,,,,,,,,,,,
69774,0,1.1629,,0.11,0.02,-0.08,0,-1,-1,0.14,0.47,30,,0.0,89.82,79.44,120.87,,,,,,,,,,,,,,0,0,0,0,0,0,0,0,0,0,0,0,0,0,0,0,0,0,0,0,0,0,0,0,0,0,0,0,0,0,0,0,,,,,,,,,,,,,,
69784,0,1.1631,,,,,,,,,,,,0.0,89.7,79.2,117.03,,,,,,,,,,,,,,,,,,,,,,,,,,,,,,,,,,,,,,,,,,,,,,,,,,,,,,,,,,,
69794,0,1.1632,,,,,,,,,,,,0.0,89.82,79.44,120.09,,,,,,,,,,,,,,0,0,0,0,0,0,0,0,0,0,0,0,0,0,0,0,0,0,0,0,0,0,0,0,0,0,0,0,0,0,0,0,,,,,,,,,,,,,,
69804,0,1.1634,,,,,,,,,,,,0.0,89.82,79.44,120.09,,,,,,,,,,,,,,,,,,,,,,,,,,,,,,,,,,,,,,,,,,,,,,,,,,,,,,,,,,,
69814,0,1.1636,,0.12,-0.02,-0.08,0,-0,-1,0.15,0.47,32,,0.0,89.7,79.44,117.36,,,,,,,,,,,,,,0,0,0,0,0,0,0,0,0,0,0,0,0,0,0,0,0,0,0,0,0,0,0,0,0,0,0,0,0,0,0,0,,,,,,,,,,,,,,
69824,0,1.1637,,,,,,,,,,,,0.0,89.82,79.32,120.3,,,,,,,,,,,,,,,,,,,,,,,,,,,,,,,,,,,,,,,,,,,,,,,,,,,,,,,,,,,
69834,0,1.1639,,,,,,,,,,,,0.0,89.7,79.44,118.23,,,,,,,,,,,,,,0,0,0,0,0,0,0,0,0,0,0,0,0,0,0,0,0,0,0,0,0,0,0,0,0,0,0,0,0,0,0,0,,,,,,,,,,,,,,
69844,0,1.1641,,,,,,,,,,,,0.0,89.82,79.32,117.57,,,,,,,,,,,,,,,,,,,,,,,,,,,,,,,,,,,,,,,,,,,,,,,,,,,,,,,,,,,
69854,0,1.1642,,0.03,0.0,0.03,0,-1,-1,0.04,0.47,9,1,0.0,89.7,79.32,118.02,2738,63.0,18.6,0,10.0,0.0,0.0,0.0,0.0,65.0,11.8,269.2,181.75,0,0,0,0,0,0,0,0,0,0,0,0,0,0,0,0,0,0,0,0,0,0,0,0,0,0,0,0,0,0,0,0,0.0,0.0,0.0,0.0,0,0,0.0,0,0.0,-1,0.0,0,0.0,1.1642
69864,0,1.1644,,,,,,,,,,,,0.0,89.82,79.32,121.86,,,,,,,,,,,,,,,,,,,,,,,,,,,,,,,,,,,,,,,,,,,,,,,,,,,,,,,,,,,
69874,0,1.1646,,,,,,,,,,,,0.0,89.7,79.2,120.54,,,,,,,,,,,,,,0,0,0,0,0,0,0,0,0,0,0,0,0,0,0,0,0,0,0,0,0,0,0,0,0,0,0,0,0,0,0,0,,,,,,,,,,,,,,
69884,0,1.1647,,,,,,,,,,,,0.0,89.82,79.32,121.41,,,,,,,,,,,,,,,,,,,,,,,,,,,,,,,,,,,,,,,,,,,,,,,,,,,,,,,,,,,
69894,0,1.1649,,0.0,0.02,0.09,0,0,0,0.09,0.47,19,,0.0,89.82,79.11,117.03,,,,,,,,,,,,,,0,0,0,0,0,0,0,0,0,0,0,0,0,0,0,0,0,0,0,0,0,0,0,0,0,0,0,0,0,0,0,0,,,,,,,,,,,,,,
69904,0,1.1651,,,,,,,,,,,,0.0,89.82,79.53,117.24,,,,,,,,,,,,,,,,,,,,,,,,,,,,,,,,,,,,,,,,,,,,,,,,,,,,,,,,,,,
69914,0,1.1652,,,,,,,,,,,,0.0,89.82,79.2,118.68,,,,,,,,,,,,,,0,0,0,0,0,0,0,0,0,0,0,0,0,0,0,0,0,0,0,0,0,0,0,0,0,0,0,0,0,0,0,0,,,,,,,,,,,,,,
69924,0,1.1654,,,,,,,,,,,,0.0,89.7,79.53,114.93,,,,,,,,,,,,,,,,,,,,,,,,,,,,,,,,,,,,,,,,,,,,,,,,,,,,,,,,,,,
69934,0,1.1656,,0.1,0.03,-0.02,0,0,-0,0.11,0.47,23,,0.0,89.82,79.32,119.97,,,,,,,,,,,,,,0,0,0,0,0,0,0,0,0,0,0,0,0,0,0,0,0,0,0,0,0,0,0,0,0,0,0,0,0,0,0,0,,,,,,,,,,,,,,
69944,0,1.1657,,,,,,,,,,,,0.0,89.7,79.44,115.26,,,,,,,,,,,,,,,,,,,,,,,,,,,,,,,,,,,,,,,,,,,,,,,,,,,,,,,,,,,
69954,0,1.1659,,,,,,,,,,,1,0.0,89.82,79.44,116.37,2801,62.9,18.6,0,11.0,0.0,0.0,0.0,0.0,65.0,12.0,269.2,181.75,0,0,0,0,0,0,0,0,0,0,0,0,0,0,0,0,0,0,0,0,0,0,0,0,0,0,0,0,0,0,0,0,0.0,0.0,0.0,0.0,0,0,0.0,0,0.0,-1,0.0,0,0.0,1.1659
69964,0,1.1661,,,,,,,,,,,,0.0,89.7,79.2,116.91,,,,,,,,,,,,,,,,,,,,,,,,,,,,,,,,,,,,,,,,,,,,,,,,,,,,,,,,,,,
69974,0,1.1662,,0.08,0.05,0.09,0,-1,-0,0.13,0.47,28,,0.0,89.82,79.44,118.77,,,,,,,,,,,,,,0,0,0,0,0,0,0,0,0,0,0,0,0,0,0,0,0,0,0,0,0,0,0,0,0,0,0,0,0,0,0,0,,,,,,,,,,,,,,
69984,0,1.1664,,,,,,,,,,,,0.0,89.7,79.2,119.43,,,,,,,,,,,,,,,,,,,,,,,,,,,,,,,,,,,,,,,,,,,,,,,,,,,,,,,,,,,
69994,0,1.1666,,,,,,,,,,,,0.0,89.82,79.53,120.21,,,,,,,,,,,,,,0,0,0,0,0,0,0,0,0,0,0,0,0,0,0,0,0,0,0,0,0,0,0,0,0,0,0,0,0,0,0,0,,,,,,,,,,,,,,
70004,0,1.1667,,,,,,,,,,,,0.0,89.82,79.11,116.58,,,,,,,,,,,,,,,,,,,,,,,,,,,,,,,,,,,,,,,,,,,,,,,,,,,,,,,,,,,
70014,0,1.1669,,0.07,0.05,0.14,0,0,0,0.16,0.47,35,,0.0,89.7,79.53,114.39,,,,,,,,,,,,,,0,0,0,0,0,0,0,0,0,0,0,0,0,0,0,0,0,0,0,0,0,0,0,0,0,0,0,0,0,0,0,0,,,,,,,,,,,,,,
70024,0,1.1671,,,,,,,,,,,,0.0,89.82,79.32,119.01,,,,,,,,,,,,,,,,,,,,,,,,,,,,,,,,,,,,,,,,,,,,,,,,,,,,,,,,,,,
70034,0,1.1672,,,,,,,,,,,,0.0,89.7,79.44,115.47,,,,,,,,,,,,,,0,0,0,0,0,0,0,0,0,0,0,0,0,0,0,0,0,0,0,0,0,0,0,0,0,0,0,0,0,0,0,0,,,,,,,,,,,,,,
70044,0,1.1674,,,,,,,,,,,,0.0,89.82,79.32,117.36,,,,,,,,,,,,,,,,,,,,,,,,,,,,,,,,,,,,,,,,,,,,,,,,,,,,,,,,,,,
70054,0,1.1676,12.36,0.1,0.01,0.08,0,1,1,0.13,0.47,28,1,0.0,89.7,79.2,116.7,2690,63.1,18.6,0,10.0,0.0,0.0,0.0,0.0,65.0,12.0,269.2,181.75,0,0,0,0,0,0,0,0,0,0,0,0,0,0,0,0,0,0,0,0,0,0,0,0,0,0,0,0,0,0,0,0,0.0,0.0,0.0,0.0,0,0,0.0,0,0.0,-1,0.0,0,0.0,1.1676
70064,0,1.1677,,,,,,,,,,,,0.0,89.7,79.32,121.95,,,,,,,,,,,,,,,,,,,,,,,,,,,,,,,,,,,,,,,,,,,,,,,,,,,,,,,,,,,
70074,0,1.1679,,,,,,,,,,,,0.0,89.7,79.2,119.22,,,,,,,,,,,,,,0,0,0,0,0,0,0,0,0,0,0,0,0,0,0,0,0,0,0,0,0,0,0,0,0,0,0,0,0,0,0,0,,,,,,,,,,,,,,
70084,0,1.1681,,,,,,,,,,,,0.0,89.7,79.44,118.89,,,,,,,,,,,,,,,,,,,,,,,,,,,,,,,,,,,,,,,,,,,,,,,,,,,,,,,,,,,
70094,0,1.1682,,-0.02,0.03,-0.12,0,1,-0,0.13,0.47,27,,0.0,89.82,79.2,118.23,,,,,,,,,,,,,,0,0,0,0,0,0,0,0,0,0,0,0,0,0,0,0,0,0,0,0,0,0,0,0,0,0,0,0,0,0,0,0,,,,,,,,,,,,,,
70104,0,1.1684,,,,,,,,,,,,0.0,89.7,79.44,116.91,,,,,,,,,,,,,,,,,,,,,,,,,,,,,,,,,,,,,,,,,,,,,,,,,,,,,,,,,,,
70114,0,1.1686,,,,,,,,,,,,0.0,89.82,79.32,119.76,,,,,,,,,,,,,,0,0,0,0,0,0,0,0,0,0,0,0,0,0,0,0,0,0,0,0,0,0,0,0,0,0,0,0,0,0,0,0,,,,,,,,,,,,,,
70124,0,1.1687,,,,,,,,,,,,0.0,89.7,79.32,118.77,,,,,,,,,,,,,,,,,,,,,,,,,,,,,,,,,,,,,,,,,,,,,,,,,,,,,,,,,,,
70134,0,1.1689,,0.07,-0.01,-0.04,0,1,0,0.08,0.47,17,,0.0,89.7,79.32,118.56,,,,,,,,,,,,,,0,0,0,0,0,0,0,0,0,0,0,0,0,0,0,0,0,0,0,0,0,0,0,0,0,0,0,0,0,0,0,0,,,,,,,,,,,,,,
70144,0,1.1691,,,,,,,,,,,,0.0,89.7,79.2,115.59,,,,,,,,,,,,,,,,,,,,,,,,,,,,,,,,,,,,,,,,,,,,,,,,,,,,,,,,,,,
70154,0,1.1692,,,,,,,,,,,1,0.0,89.7,79.44,121.41,2670,63.5,18.6,0,10.0,0.0,0.0,0.0,0.0,65.0,12.0,269.2,181.75,0,0,0,0,0,0,0,0,0,0,0,0,0,0,0,0,0,0,0,0,0,0,0,0,0,0,0,0,0,0,0,0,0.0,0.0,0.0,0.0,0,0,0.0,0,0.0,-1,0.0,0,0.0,1.1692
70164,0,1.1694,,,,,,,,,,,,0.0,89.7,79.53,116.25,,,,,,,,,,,,,,,,,,,,,,,,,,,,,,,,,,,,,,,,,,,,,,,,,,,,,,,,,,,
70174,0,1.1696,,0.07,-0.0,-0.2,0,1,-0,0.21,0.47,45,,0.0,89.82,79.2,117.45,,,,,,,,,,,,,,0,0,0,0,0,0,0,0,0,0,0,0,0,0,0,0,0,0,0,0,0,0,0,0,0,0,0,0,0,0,0,0,,,,,,,,,,,,,,
70184,0,1.1697,,,,,,,,,,,,0.0,89.7,79.44,112.17,,,,,,,,,,,,,,,,,,,,,,,,,,,,,,,,,,,,,,,,,,,,,,,,,,,,,,,,,,,
70194,0,1.1699,,,,,,,,,,,,0.0,89.82,79.32,118.23,,,,,,,,,,,,,,0,0,0,0,0,0,0,0,0,0,0,0,0,0,0,0,0,0,0,0,0,0,0,0,0,0,0,0,0,0,0,0,,,,,,,,,,,,,,
70204,0,1.1701,,,,,,,,,,,,0.0,89.7,79.32,122.73,,,,,,,,,,,,,,,,,,,,,,,,,,,,,,,,,,,,,,,,,,,,,,,,,,,,,,,,,,,
70214,0,1.1702,,0.09,-0.0,-0.18,0,1,0,0.2,0.47,43,,0.0,89.7,79.32,118.89,,,,,,,,,,,,,,0,0,0,0,0,0,0,0,0,0,0,0,0,0,0,0,0,0,0,0,0,0,0,0,0,0,0,0,0,0,0,0,,,,,,,,,,,,,,
70224,0,1.1704,,,,,,,,,,,,0.0,89.7,79.11,115.59,,,,,,,,,,,,,,,,,,,,,,,,,,,,,,,,,,,,,,,,,,,,,,,,,,,,,,,,,,,
70234,0,1.1706,,,,,,,,,,,,0.0,89.7,79.53,116.91,,,,,,,,,,,,,,0,0,0,0,0,0,0,0,0,0,0,0,0,0,0,0,0,0,0,0,0,0,0,0,0,0,0,0,0,0,0,0,,,,,,,,,,,,,,
70244,0,1.1707,,,,,,,,,,,,0.0,89.82,79.2,120.96,,,,,,,,,,,,,,,,,,,,,,,,,,,,,,,,,,,,,,,,,,,,,,,,,,,,,,,,,,,
70254,0,1.1709,,0.04,0.03,-0.1,0,1,-0,0.11,0.47,23,1,0.0,89.7,79.44,116.91,2730,63.6,18.6,0,11.0,0.0,0.0,0.0,0.0,65.0,11.6,269.2,181.75,0,0,0,0,0,0,0,0,0,0,0,0,0,0,0,0,0,0,0,0,0,0,0,0,0,0,0,0,0,0,0,0,0.0,0.0,0.0,0.0,0,0,0.0,0,0.0,-1,0.0,0,0.0,1.1709
70264,0,1.1711,,,,,,,,,,,,0.0,89.82,79.2,116.91,,,,,,,,,,,,,,,,,,,,,,,,,,,,,,,,,,,,,,,,,,,,,,,,,,,,,,,,,,,
70274,0,1.1712,,,,,,,,,,,,0.0,89.7,79.2,115.59,,,,,,,,,,,,,,0,0,0,0,0,0,0,0,0,0,0,0,0,0,0,0,0,0,0,0,0,0,0,0,0,0,0,0,0,0,0,0,,,,,,,,,,,,,,
70284,0,1.1714,,,,,,,,,,,,0.0,89.7,79.32,119.1,,,,,,,,,,,,,,,,,,,,,,,,,,,,,,,,,,,,,,,,,,,,,,,,,,,,,,,,,,,
70294,0,1.1716,,-0.03,0.06,-0.2,0,1,-0,0.21,0.47,46,,0.0,89.7,79.2,120.75,,,,,,,,,,,,,,0,0,0,0,0,0,0,0,0,0,0,0,0,0,0,0,0,0,0,0,0,0,0,0,0,0,0,0,0,0,0,0,,,,,,,,,,,,,,
70304,0,1.1717,,,,,,,,,,,,0.0,89.7,79.44,121.53,,,,,,,,,,,,,,,,,,,,,,,,,,,,,,,,,,,,,,,,,,,,,,,,,,,,,,,,,,,
70314,0,1.1719,,,,,,,,,,,,0.0,89.7,79.11,116.04,,,,,,,,,,,,,,0,0,0,0,0,0,0,0,0,0,0,0,0,0,0,0,0,0,0,0,0,0,0,0,0,0,0,0,0,0,0,0,,,,,,,,,,,,,,
70324,0,1.1721,,,,,,,,,,,,0.0,89.7,79.53,117.9,,,,,,,,,,,,,,,,,,,,,,,,,,,,,,,,,,,,,,,,,,,,,,,,,,,,,,,,,,,
70334,0,1.1722,,0.01,0.05,-0.02,0,1,0,0.06,0.47,12,,0.0,89.82,79.2,116.25,,,,,,,,,,,,,,0,0,0,0,0,0,0,0,0,0,0,0,0,0,0,0,0,0,0,0,0,0,0,0,0,0,0,0,0,0,0,0,,,,,,,,,,,,,,
70344,0,1.1724,,,,,,,,,,,,0.0,89.7,79.44,118.11,,,,,,,,,,,,,,,,,,,,,,,,,,,,,,,,,,,,,,,,,,,,,,,,,,,,,,,,,,,
70354,0,1.1726,,,,,,,,,,,1,0.0,89.82,79.32,117.03,2718,63.5,18.6,0,11.0,0.0,0.0,0.0,0.0,65.0,11.7,269.2,181.75,0,0,0,0,0,0,0,0,0,0,0,0,0,0,0,0,0,0,0,0,0,0,0,0,0,0,0,0,0,0,0,0,0.0,0.0,0.0,0.0,0,0,0.0,0,0.0,-1,0.0,0,0.0,1.1726
70364,0,1.1727,,,,,,,,,,,,0.0,89.58,79.2,116.37,,,,,,,,,,,,,,,,,,,,,,,,,,,,,,,,,,,,,,,,,,,,,,,,,,,,,,,,,,,
70374,0,1.1729,,0.04,0.02,-0.08,0,-0,0,0.09,0.47,20,,0.0,89.82,79.44,118.68,,,,,,,,,,,,,,0,0,0,0,0,0,0,0,0,0,0,0,0,0,0,0,0,0,0,0,0,0,0,0,0,0,0,0,0,0,0,0,,,,,,,,,,,,,,
70384,0,1.1731,,,,,,,,,,,,0.0,89.7,79.32,121.41,,,,,,,,,,,,,,,,,,,,,,,,,,,,,,,,,,,,,,,,,,,,,,,,,,,,,,,,,,,
70394,0,1.1732,,,,,,,,,,,,0.0,89.7,79.44,120.42,,,,,,,,,,,,,,0,0,0,0,0,0,0,0,0,0,0,0,0,0,0,0,0,0,0,0,0,0,0,0,0,0,0,0,0,0,0,0,,,,,,,,,,,,,,
70404,0,1.1734,,,,,,,,,,,,0.0,89.82,79.2,116.13,,,,,,,,,,,,,,,,,,,,,,,,,,,,,,,,,,,,,,,,,,,,,,,,,,,,,,,,,,,
70414,0,1.1736,,0.04,0.04,-0.03,0,1,0,0.07,0.47,14,,0.0,89.7,79.53,117.36,,,,,,,,,,,,,,0,0,0,0,0,0,0,0,0,0,0,0,0,0,0,0,0,0,0,0,0,0,0,0,0,0,0,0,0,0,0,0,,,,,,,,,,,,,,
70424,0,1.1737,,,,,,,,,,,,0.0,89.82,79.2,119.1,,,,,,,,,,,,,,,,,,,,,,,,,,,,,,,,,,,,,,,,,,,,,,,,,,,,,,,,,,,
70434,0,1.1739,,,,,,,,,,,,0.0,89.7,79.44,116.79,,,,,,,,,,,,,,0,0,0,0,0,0,0,0,0,0,0,0,0,0,0,0,0,0,0,0,0,0,0,0,0,0,0,0,0,0,0,0,,,,,,,,,,,,,,
70444,0,1.1741,,,,,,,,,,,,0.0,89.82,79.32,115.38,,,,,,,,,,,,,,,,,,,,,,,,,,,,,,,,,,,,,,,,,,,,,,,,,,,,,,,,,,,
70454,0,1.1742,,0.06,0.03,-0.11,0,0,-0,0.13,0.47,28,1,0.0,89.58,79.32,116.04,2833,63.5,18.6,0,11.0,0.0,0.0,0.0,0.0,65.0,11.7,269.2,181.75,0,0,0,0,0,0,0,0,0,0,0,0,0,0,0,0,0,0,0,0,0,0,0,0,0,0,0,0,0,0,0,0,0.0,0.0,0.0,0.0,0,0,0.0,0,0.0,-1,0.0,0,0.0,1.1742
70464,0,1.1744,,,,,,,,,,,,0.0,89.7,79.32,115.92,,,,,,,,,,,,,,,,,,,,,,,,,,,,,,,,,,,,,,,,,,,,,,,,,,,,,,,,,,,
70474,0,1.1746,,,,,,,,,,,,0.0,89.58,79.32,115.8,,,,,,,,,,,,,,0,0,0,0,0,0,0,0,0,0,0,0,0,0,0,0,0,0,0,0,0,0,0,0,0,0,0,0,0,0,0,0,,,,,,,,,,,,,,
70484,0,1.1747,,,,,,,,,,,,0.0,89.7,79.44,119.43,,,,,,,,,,,,,,,,,,,,,,,,,,,,,,,,,,,,,,,,,,,,,,,,,,,,,,,,,,,
70494,0,1.1749,,0.11,0.01,-0.17,0,0,-0,0.2,0.47,44,,0.0,89.58,79.2,117.69,,,,,,,,,,,,,,0,0,0,0,0,0,0,0,0,0,0,0,0,0,0,0,0,0,0,0,0,0,0,0,0,0,0,0,0,0,0,0,,,,,,,,,,,,,,
70504,0,1.1751,,,,,,,,,,,,0.0,89.7,79.44,123.18,,,,,,,,,,,,,,,,,,,,,,,,,,,,,,,,,,,,,,,,,,,,,,,,,,,,,,,,,,,
70514,0,1.1752,,,,,,,,,,,,0.0,89.7,79.2,117.36,,,,,,,,,,,,,,0,0,0,0,0,0,0,0,0,0,0,0,0,0,0,0,0,0,0,0,0,0,0,0,0,0,0,0,0,0,0,0,,,,,,,,,,,,,,
70524,0,1.1754,,,,,,,,,,,,0.0,89.7,79.44,119.67,,,,,,,,,,,,,,,,,,,,,,,,,,,,,,,,,,,,,,,,,,,,,,,,,,,,,,,,,,,
70534,0,1.1756,,0.02,0.03,0.1,0,0,0,0.11,0.47,23,,0.0,89.7,79.2,116.25,,,,,,,,,,,,,,0,0,0,0,0,0,0,0,0,0,0,0,0,0,0,0,0,0,0,0,0,0,0,0,0,0,0,0,0,0,0,0,,,,,,,,,,,,,,
70544,0,1.1757,,,,,,,,,,,,0.0,89.7,79.53,114.15,,,,,,,,,,,,,,,,,,,,,,,,,,,,,,,,,,,,,,,,,,,,,,,,,,,,,,,,,,,
70554,0,1.1759,,,,,,,,,,,1,0.0,89.82,79.32,119.22,2750,63.3,18.6,0,11.0,0.0,0.0,0.0,0.0,65.0,11.7,269.2,181.75,0,0,0,0,0,0,0,0,0,0,0,0,0,0,0,0,0,0,0,0,0,0,0,0,0,0,0,0,0,0,0,0,0.0,0.0,0.0,0.0,0,0,0.0,0,0.0,-1,0.0,0,0.0,1.1759
70564,0,1.1761,,,,,,,,,,,,0.0,89.58,79.44,116.58,,,,,,,,,,,,,,,,,,,,,,,,,,,,,,,,,,,,,,,,,,,,,,,,,,,,,,,,,,,
70574,0,1.1762,,0.01,0.05,0.03,0,1,0,0.06,0.47,13,,0.0,89.58,79.2,115.47,,,,,,,,,,,,,,0,0,0,0,0,0,0,0,0,0,0,0,0,0,0,0,0,0,0,0,0,0,0,0,0,0,0,0,0,0,0,0,,,,,,,,,,,,,,
70584,0,1.1764,,,,,,,,,,,,0.0,89.7,79.44,120.87,,,,,,,,,,,,,,,,,,,,,,,,,,,,,,,,,,,,,,,,,,,,,,,,,,,,,,,,,,,
70594,0,1.1766,,,,,,,,,,,,0.0,89.58,79.2,121.53,,,,,,,,,,,,,,0,0,0,0,0,0,0,0,0,0,0,0,0,0,0,0,0,0,0,0,0,0,0,0,0,0,0,0,0,0,0,0,,,,,,,,,,,,,,
70604,0,1.1767,,,,,,,,,,,,0.0,89.7,79.44,121.53,,,,,,,,,,,,,,,,,,,,,,,,,,,,,,,,,,,,,,,,,,,,,,,,,,,,,,,,,,,
70614,0,1.1769,,0.07,0.06,0.14,0,2,1,0.16,0.47,35,,0.0,89.7,79.2,115.14,,,,,,,,,,,,,,0,0,0,0,0,0,0,0,0,0,0,0,0,0,0,0,0,0,0,0,0,0,0,0,0,0,0,0,0,0,0,0,,,,,,,,,,,,,,
70624,0,1.1771,,,,,,,,,,,,0.0,89.7,79.53,119.1,,,,,,,,,,,,,,,,,,,,,,,,,,,,,,,,,,,,,,,,,,,,,,,,,,,,,,,,,,,
70634,0,1.1772,,,,,,,,,,,,0.0,89.7,79.32,114.6,,,,,,,,,,,,,,0,0,0,0,0,0,0,0,0,0,0,0,0,0,0,0,0,0,0,0,0,0,0,0,0,0,0,0,0,0,0,0,,,,,,,,,,,,,,
70644,0,1.1774,,,,,,,,,,,,0.0,89.7,79.53,114.93,,,,,,,,,,,,,,,,,,,,,,,,,,,,,,,,,,,,,,,,,,,,,,,,,,,,,,,,,,,
70654,0,1.1776,,0.05,0.06,0.27,0,1,1,0.28,0.47,60,1,0.0,89.7,79.32,115.59,2746,63.0,18.6,0,11.0,0.0,0.0,0.0,0.0,65.0,11.7,269.2,181.75,0,0,0,0,0,0,0,0,0,0,0,0,0,0,0,0,0,0,0,0,0,0,0,0,0,0,0,0,0,0,0,0,0.0,0.0,0.0,0.0,0,0,0.0,0,0.0,-1,0.0,0,0.0,1.1776
70664,0,1.1777,,,,,,,,,,,,0.0,89.58,79.44,115.47,,,,,,,,,,,,,,,,,,,,,,,,,,,,,,,,,,,,,,,,,,,,,,,,,,,,,,,,,,,
70674,0,1.1779,,,,,,,,,,,,0.0,89.7,79.44,117.78,,,,,,,,,,,,,,0,0,0,0,0,0,0,0,0,0,0,0,0,0,0,0,0,0,0,0,0,0,0,0,0,0,0,0,0,0,0,0,,,,,,,,,,,,,,
70684,0,1.1781,,,,,,,,,,,,0.0,89.58,79.32,119.43,,,,,,,,,,,,,,,,,,,,,,,,,,,,,,,,,,,,,,,,,,,,,,,,,,,,,,,,,,,
70694,0,1.1782,,0.07,0.06,0.27,0,1,1,0.29,0.47,62,,0.0,89.7,79.44,121.62,,,,,,,,,,,,,,0,0,0,0,0,0,0,0,0,0,0,0,0,0,0,0,0,0,0,0,0,0,0,0,0,0,0,0,0,0,0,0,,,,,,,,,,,,,,
70704,0,1.1784,,,,,,,,,,,,0.0,89.7,79.2,116.37,,,,,,,,,,,,,,,,,,,,,,,,,,,,,,,,,,,,,,,,,,,,,,,,,,,,,,,,,,,
70714,0,1.1786,,,,,,,,,,,,0.0,89.7,79.44,121.62,,,,,,,,,,,,,,0,0,0,0,0,0,0,0,0,0,0,0,0,0,0,0,0,0,0,0,0,0,0,0,0,0,0,0,0,0,0,0,,,,,,,,,,,,,,
70724,0,1.1787,,,,,,,,,,,,0.0,89.7,79.11,115.26,,,,,,,,,,,,,,,,,,,,,,,,,,,,,,,,,,,,,,,,,,,,,,,,,,,,,,,,,,,
70734,0,1.1789,,0.11,0.07,0.14,0,1,1,0.2,0.47,42,,0.0,89.58,79.53,114.27,,,,,,,,,,,,,,0,0,0,0,0,0,0,0,0,0,0,0,0,0,0,0,0,0,0,0,0,0,0,0,0,0,0,0,0,0,0,0,,,,,,,,,,,,,,
70744,0,1.1791,,,,,,,,,,,,0.0,89.7,79.2,119.1,,,,,,,,,,,,,,,,,,,,,,,,,,,,,,,,,,,,,,,,,,,,,,,,,,,,,,,,,,,
70754,0,1.1792,,,,,,,,,,,1,0.0,89.58,79.53,117.9,2829,63.1,18.6,0,11.0,0.0,0.0,0.0,0.0,65.0,11.8,269.2,181.75,0,0,0,0,0,0,0,0,0,0,0,0,0,0,0,0,0,0,0,0,0,0,0,0,0,0,0,0,0,0,0,0,0.0,0.0,0.0,0.0,0,0,0.0,0,0.0,-1,0.0,0,0.0,1.1792
70764,0,1.1794,,,,,,,,,,,,0.0,89.7,79.32,116.91,,,,,,,,,,,,,,,,,,,,,,,,,,,,,,,,,,,,,,,,,,,,,,,,,,,,,,,,,,,
70774,0,1.1796,,0.13,0.06,0.15,0,1,1,0.21,0.47,45,,0.0,89.58,79.44,115.59,,,,,,,,,,,,,,0,0,0,0,0,0,0,0,0,0,0,0,0,0,0,0,0,0,0,0,0,0,0,0,0,0,0,0,0,0,0,0,,,,,,,,,,,,,,
70784,0,1.1797,,,,,,,,,,,,0.0,89.58,79.32,116.79,,,,,,,,,,,,,,,,,,,,,,,,,,,,,,,,,,,,,,,,,,,,,,,,,,,,,,,,,,,
70794,0,1.1799,,,,,,,,,,,,0.0,89.58,79.32,115.14,,,,,,,,,,,,,,0,0,0,0,0,0,0,0,0,0,0,0,0,0,0,0,0,0,0,0,0,0,0,0,0,0,0,0,0,0,0,0,,,,,,,,,,,,,,
70804,0,1.1801,,,,,,,,,,,,0.0,89.7,79.44,120.54,,,,,,,,,,,,,,,,,,,,,,,,,,,,,,,,,,,,,,,,,,,,,,,,,,,,,,,,,,,
70814,0,1.1802,,0.04,0.03,0.04,0,0,0,0.07,0.47,14,,0.0,89.58,79.32,121.74,,,,,,,,,,,,,,0,0,0,0,0,0,0,0,0,0,0,0,0,0,0,0,0,0,0,0,0,0,0,0,0,0,0,0,0,0,0,0,,,,,,,,,,,,,,
70824,0,1.1804,,,,,,,,,,,,0.0,89.7,79.44,121.62,,,,,,,,,,,,,,,,,,,,,,,,,,,,,,,,,,,,,,,,,,,,,,,,,,,,,,,,,,,
70834,0,1.1806,,,,,,,,,,,,0.0,89.7,79.11,114.6,,,,,,,,,,,,,,0,0,0,0,0,0,0,0,0,0,0,0,0,0,0,0,0,0,0,0,0,0,0,0,0,0,0,0,0,0,0,0,,,,,,,,,,,,,,
70844,0,1.1807,,,,,,,,,,,,0.0,89.7,79.44,118.89,,,,,,,,,,,,,,,,,,,,,,,,,,,,,,,,,,,,,,,,,,,,,,,,,,,,,,,,,,,
70854,0,1.1809,,-0.03,0.06,-0.15,0,-1,-1,0.17,0.47,36,1,0.0,89.58,79.2,116.04,2873,63.0,18.6,0,11.0,0.0,0.0,0.0,0.0,65.0,11.9,269.2,181.75,0,0,0,0,0,0,0,0,0,0,0,0,0,0,0,0,0,0,0,0,0,0,0,0,0,0,0,0,0,0,0,0,0.0,0.0,0.0,0.0,0,0,0.0,0,0.0,-1,0.0,0,0.0,1.1809
70864,0,1.1811,,,,,,,,,,,,0.0,89.7,79.53,115.38,,,,,,,,,,,,,,,,,,,,,,,,,,,,,,,,,,,,,,,,,,,,,,,,,,,,,,,,,,,
70874,0,1.1812,,,,,,,,,,,,0.0,89.7,79.32,117.69,,,,,,,,,,,,,,0,0,0,0,0,0,0,0,0,0,0,0,0,0,0,0,0,0,0,0,0,0,0,0,0,0,0,0,0,0,0,0,,,,,,,,,,,,,,
70884,0,1.1814,,,,,,,,,,,,0.0,89.58,79.53,118.44,,,,,,,,,,,,,,,,,,,,,,,,,,,,,,,,,,,,,,,,,,,,,,,,,,,,,,,,,,,
70894,0,1.1816,,-0.02,0.05,-0.03,0,1,0,0.06,0.47,13,,0.0,89.7,79.32,116.7,,,,,,,,,,,,,,0,0,0,0,0,0,0,0,0,0,0,0,0,0,0,0,0,0,0,0,0,0,0,0,0,0,0,0,0,0,0,0,,,,,,,,,,,,,,
70904,0,1.1817,,,,,,,,,,,,0.0,89.58,79.44,116.46,,,,,,,,,,,,,,,,,,,,,,,,,,,,,,,,,,,,,,,,,,,,,,,,,,,,,,,,,,,
70914,0,1.1819,,,,,,,,,,,,0.0,89.7,79.44,120.09,,,,,,,,,,,,,,0,0,0,0,0,0,0,0,0,0,0,0,0,0,0,0,0,0,0,0,0,0,0,0,0,0,0,0,0,0,0,0,,,,,,,,,,,,,,
70924,0,1.1821,,,,,,,,,,,,0.0,89.58,79.2,116.58,,,,,,,,,,,,,,,,,,,,,,,,,,,,,,,,,,,,,,,,,,,,,,,,,,,,,,,,,,,
70934,0,1.1822,,0.07,0.05,-0.09,0,1,0,0.13,0.47,27,,0.0,89.7,79.44,121.95,,,,,,,,,,,,,,0,0,0,0,0,0,0,0,0,0,0,0,0,0,0,0,0,0,0,0,0,0,0,0,0,0,0,0,0,0,0,0,,,,,,,,,,,,,,
70944,0,1.1824,,,,,,,,,,,,0.0,89.58,79.2,118.77,,,,,,,,,,,,,,,,,,,,,,,,,,,,,,,,,,,,,,,,,,,,,,,,,,,,,,,,,,,
70954,0,1.1826,,,,,,,,,,,1,0.0,89.7,79.44,120.63,2789,62.6,18.6,0,11.0,0.0,0.0,0.0,0.0,65.0,11.8,269.2,181.75,0,0,0,0,0,0,0,0,0,0,0,0,0,0,0,0,0,0,0,0,0,0,0,0,0,0,0,0,0,0,0,0,0.0,0.0,0.0,0.0,0,0,0.0,0,0.0,-1,0.0,0,0.0,1.1826
70964,0,1.1827,,,,,,,,,,,,0.0,89.7,79.11,115.38,,,,,,,,,,,,,,,,,,,,,,,,,,,,,,,,,,,,,,,,,,,,,,,,,,,,,,,,,,,
70974,0,1.1829,,0.05,0.03,0.03,0,-0,0,0.07,0.47,14,,0.0,89.7,79.53,119.1,,,,,,,,,,,,,,0,0,0,0,0,0,0,0,0,0,0,0,0,0,0,0,0,0,0,0,0,0,0,0,0,0,0,0,0,0,0,0,,,,,,,,,,,,,,
70984,0,1.1831,,,,,,,,,,,,0.0,89.58,79.44,117.24,,,,,,,,,,,,,,,,,,,,,,,,,,,,,,,,,,,,,,,,,,,,,,,,,,,,,,,,,,,
70994,0,1.1832,,,,,,,,,,,,0.0,89.7,79.32,116.25,,,,,,,,,,,,,,0,0,0,0,0,0,0,0,0,0,0,0,0,0,0,0,0,0,0,0,0,0,0,0,0,0,0,0,0,0,0,0,,,,,,,,,,,,,,
71004,0,1.1834,,,,,,,,,,,,0.0,89.58,79.32,116.37,,,,,,,,,,,,,,,,,,,,,,,,,,,,,,,,,,,,,,,,,,,,,,,,,,,,,,,,,,,
71014,0,1.1836,,0.02,0.04,-0.17,0,-0,-1,0.17,0.47,37,,0.0,89.7,79.32,117.45,,,,,,,,,,,,,,0,0,0,0,0,0,0,0,0,0,0,0,0,0,0,0,0,0,0,0,0,0,0,0,0,0,0,0,0,0,0,0,,,,,,,,,,,,,,
71024,0,1.1837,,,,,,,,,,,,0.0,89.58,79.32,118.77,,,,,,,,,,,,,,,,,,,,,,,,,,,,,,,,,,,,,,,,,,,,,,,,,,,,,,,,,,,
71034,0,1.1839,,,,,,,,,,,,0.0,89.58,79.44,123.39,,,,,,,,,,,,,,0,0,0,0,0,0,0,0,0,0,0,0,0,0,0,0,0,0,0,0,0,0,0,0,0,0,0,0,0,0,0,0,,,,,,,,,,,,,,
71044,0,1.1841,,,,,,,,,,,,0.0,89.58,79.2,117.57,,,,,,,,,,,,,,,,,,,,,,,,,,,,,,,,,,,,,,,,,,,,,,,,,,,,,,,,,,,
71054,0,1.1842,12.18,0.06,0.01,-0.21,0,-1,-1,0.22,0.47,47,1,0.0,89.58,79.2,117.57,2718,62.7,18.6,0,10.0,0.0,0.0,0.0,0.0,65.0,11.7,269.2,181.75,0,0,0,0,0,0,0,0,0,0,0,0,0,0,0,0,0,0,0,0,0,0,0,0,0,0,0,0,0,0,0,0,0.0,0.0,0.0,0.0,0,0,0.0,0,0.0,-1,0.0,0,0.0,1.1842
71064,0,1.1844,,,,,,,,,,,,0.0,89.7,79.2,116.46,,,,,,,,,,,,,,,,,,,,,,,,,,,,,,,,,,,,,,,,,,,,,,,,,,,,,,,,,,,
71074,0,1.1846,,,,,,,,,,,,0.0,89.58,79.44,117.24,,,,,,,,,,,,,,0,0,0,0,0,0,0,0,0,0,0,0,0,0,0,0,0,0,0,0,0,0,0,0,0,0,0,0,0,0,0,0,,,,,,,,,,,,,,
71084,0,1.1847,,,,,,,,,,,,0.0,89.7,79.32,118.11,,,,,,,,,,,,,,,,,,,,,,,,,,,,,,,,,,,,,,,,,,,,,,,,,,,,,,,,,,,
71094,0,1.1849,,-0.0,0.05,0.01,0,-1,-0,0.05,0.47,11,,0.0,89.58,79.44,116.13,,,,,,,,,,,,,,0,0,0,0,0,0,0,0,0,0,0,0,0,0,0,0,0,0,0,0,0,0,0,0,0,0,0,0,0,0,0,0,,,,,,,,,,,,,,
71104,0,1.1851,,,,,,,,,,,,0.0,89.7,79.32,118.23,,,,,,,,,,,,,,,,,,,,,,,,,,,,,,,,,,,,,,,,,,,,,,,,,,,,,,,,,,,
71114,0,1.1852,,,,,,,,,,,,0.0,89.58,79.2,120.63,,,,,,,,,,,,,,0,0,0,0,0,0,0,0,0,0,0,0,0,0,0,0,0,0,0,0,0,0,0,0,0,0,0,0,0,0,0,0,,,,,,,,,,,,,,
71124,0,1.1854,,,,,,,,,,,,0.0,89.58,79.44,123.93,,,,,,,,,,,,,,,,,,,,,,,,,,,,,,,,,,,,,,,,,,,,,,,,,,,,,,,,,,,
71134,0,1.1856,,-0.05,0.06,0.04,0,1,0,0.08,0.47,18,,0.0,89.58,79.2,118.56,,,,,,,,,,,,,,0,0,0,0,0,0,0,0,0,0,0,0,0,0,0,0,0,0,0,0,0,0,0,0,0,0,0,0,0,0,0,0,,,,,,,,,,,,,,
71144,0,1.1857,,,,,,,,,,,,0.0,89.7,79.44,122.07,,,,,,,,,,,,,,,,,,,,,,,,,,,,,,,,,,,,,,,,,,,,,,,,,,,,,,,,,,,
71154,0,1.1859,,,,,,,,,,,1,0.0,89.7,79.11,116.58,2770,63.1,18.6,0,11.0,0.0,0.0,0.0,0.0,65.0,11.8,269.2,181.75,0,0,0,0,0,0,0,0,0,0,0,0,0,0,0,0,0,0,0,0,0,0,0,0,0,0,0,0,0,0,0,0,0.0,0.0,0.0,0.0,0,0,0.0,0,0.0,-1,0.0,0,0.0,1.1859
71164,0,1.1861,,,,,,,,,,,,0.0,89.58,79.53,116.25,,,,,,,,,,,,,,,,,,,,,,,,,,,,,,,,,,,,,,,,,,,,,,,,,,,,,,,,,,,
71174,0,1.1862,,0.04,0.03,0.09,0,1,1,0.1,0.47,21,,0.0,89.58,79.32,118.89,,,,,,,,,,,,,,0,0,0,0,0,0,0,0,0,0,0,0,0,0,0,0,0,0,0,0,0,0,0,0,0,0,0,0,0,0,0,0,,,,,,,,,,,,,,
71184,0,1.1864,,,,,,,,,,,,0.0,89.58,79.44,117.57,,,,,,,,,,,,,,,,,,,,,,,,,,,,,,,,,,,,,,,,,,,,,,,,,,,,,,,,,,,
71194,0,1.1866,,,,,,,,,,,,0.0,89.7,79.32,118.02,,,,,,,,,,,,,,0,0,0,0,0,0,0,0,0,0,0,0,0,0,0,0,0,0,0,0,0,0,0,0,0,0,0,0,0,0,0,0,,,,,,,,,,,,,,
71204,0,1.1867,,,,,,,,,,,,0.0,89.58,79.32,119.22,,,,,,,,,,,,,,,,,,,,,,,,,,,,,,,,,,,,,,,,,,,,,,,,,,,,,,,,,,,
71214,0,1.1869,,0.04,0.01,-0.06,0,1,0,0.08,0.47,17,,0.0,89.58,79.44,124.83,,,,,,,,,,,,,,0,0,0,0,0,0,0,0,0,0,0,0,0,0,0,0,0,0,0,0,0,0,0,0,0,0,0,0,0,0,0,0,,,,,,,,,,,,,,
71224,0,1.1871,,,,,,,,,,,,0.0,89.7,79.11,115.92,,,,,,,,,,,,,,,,,,,,,,,,,,,,,,,,,,,,,,,,,,,,,,,,,,,,,,,,,,,
71234,0,1.1872,,,,,,,,,,,,0.0,89.58,79.53,120.21,,,,,,,,,,,,,,0,0,0,0,0,0,0,0,0,0,0,0,0,0,0,0,0,0,0,0,0,0,0,0,0,0,0,0,0,0,0,0,,,,,,,,,,,,,,
71244,0,1.1874,,,,,,,,,,,,0.0,89.7,79.2,119.67,,,,,,,,,,,,,,,,,,,,,,,,,,,,,,,,,,,,,,,,,,,,,,,,,,,,,,,,,,,
71254,0,1.1876,,0.06,0.03,-0.13,0,1,0,0.15,0.47,32,1,0.0,89.58,79.32,119.22,2662,63.3,18.6,0,10.0,0.0,0.0,0.0,0.0,65.0,11.9,269.2,181.75,0,0,0,0,0,0,0,0,0,0,0,0,0,0,0,0,0,0,0,0,0,0,0,0,0,0,0,0,0,0,0,0,0.0,0.0,0.0,0.0,0,0,0.0,0,0.0,-1,0.0,0,0.0,1.1876
71264,0,1.1877,,,,,,,,,,,,0.0,89.7,79.32,119.1,,,,,,,,,,,,,,,,,,,,,,,,,,,,,,,,,,,,,,,,,,,,,,,,,,,,,,,,,,,
71274,0,1.1879,,,,,,,,,,,,0.0,89.58,79.2,117.12,,,,,,,,,,,,,,0,0,0,0,0,0,0,0,0,0,0,0,0,0,0,0,0,0,0,0,0,0,0,0,0,0,0,0,0,0,0,0,,,,,,,,,,,,,,
71284,0,1.1881,,,,,,,,,,,,0.0,89.58,79.44,124.5,,,,,,,,,,,,,,,,,,,,,,,,,,,,,,,,,,,,,,,,,,,,,,,,,,,,,,,,,,,
71294,0,1.1882,,0.04,0.01,-0.09,0,1,0,0.1,0.47,21,,0.0,89.7,79.2,120.21,,,,,,,,,,,,,,0,0,0,0,0,0,0,0,0,0,0,0,0,0,0,0,0,0,0,0,0,0,0,0,0,0,0,0,0,0,0,0,,,,,,,,,,,,,,
71304,0,1.1884,,,,,,,,,,,,0.0,89.58,79.44,117.57,,,,,,,,,,,,,,,,,,,,,,,,,,,,,,,,,,,,,,,,,,,,,,,,,,,,,,,,,,,
71314,0,1.1886,,,,,,,,,,,,0.0,89.7,79.2,116.58,,,,,,,,,,,,,,0,0,0,0,0,0,0,0,0,0,0,0,0,0,0,0,0,0,0,0,0,0,0,0,0,0,0,0,0,0,0,0,,,,,,,,,,,,,,
71324,0,1.1887,,,,,,,,,,,,0.0,89.58,79.44,114.48,,,,,,,,,,,,,,,,,,,,,,,,,,,,,,,,,,,,,,,,,,,,,,,,,,,,,,,,,,,
71334,0,1.1889,,0.02,0.04,0.05,0,1,1,0.07,0.47,14,,0.0,89.7,79.32,117.12,,,,,,,,,,,,,,0,0,0,0,0,0,0,0,0,0,0,0,0,0,0,0,0,0,0,0,0,0,0,0,0,0,0,0,0,0,0,0,,,,,,,,,,,,,,
71344,0,1.1891,,,,,,,,,,,,0.0,89.58,79.32,122.07,,,,,,,,,,,,,,,,,,,,,,,,,,,,,,,,,,,,,,,,,,,,,,,,,,,,,,,,,,,
71354,0,1.1892,,,,,,,,,,,1,0.0,89.58,79.32,123.93,2762,63.5,18.6,0,11.0,0.0,0.0,0.0,0.0,65.0,11.8,269.2,181.75,0,0,0,0,0,0,0,0,0,0,0,0,0,0,0,0,0,0,0,0,0,0,0,0,0,0,0,0,0,0,0,0,0.0,0.0,0.0,0.0,0,0,0.0,0,0.0,-1,0.0,0,0.0,1.1892
71364,0,1.1894,,,,,,,,,,,,0.0,89.58,79.2,123.51,,,,,,,,,,,,,,,,,,,,,,,,,,,,,,,,,,,,,,,,,,,,,,,,,,,,,,,,,,,
71374,0,1.1896,,0.11,0.02,0.13,0,2,1,0.17,0.47,37,,0.0,89.7,79.44,122.19,,,,,,,,,,,,,,0,0,0,0,0,0,0,0,0,0,0,0,0,0,0,0,0,0,0,0,0,0,0,0,0,0,0,0,0,0,0,0,,,,,,,,,,,,,,
71384,0,1.1897,,,,,,,,,,,,0.0,89.7,79.2,118.89,,,,,,,,,,,,,,,,,,,,,,,,,,,,,,,,,,,,,,,,,,,,,,,,,,,,,,,,,,,
71394,0,1.1899,,,,,,,,,,,,0.0,89.58,79.53,115.92,,,,,,,,,,,,,,0,0,0,0,0,0,0,0,0,0,0,0,0,0,0,0,0,0,0,0,0,0,0,0,0,0,0,0,0,0,0,0,,,,,,,,,,,,,,
71404,0,1.1901,,,,,,,,,,,,0.0,89.58,79.53,115.8,,,,,,,,,,,,,,,,,,,,,,,,,,,,,,,,,,,,,,,,,,,,,,,,,,,,,,,,,,,
71414,0,1.1902,,0.04,0.04,0.14,0,1,0,0.15,0.47,32,,0.0,89.7,79.32,119.55,,,,,,,,,,,,,,0,0,0,0,0,0,0,0,0,0,0,0,0,0,0,0,0,0,0,0,0,0,0,0,0,0,0,0,0,0,0,0,,,,,,,,,,,,,,
71424,0,1.1904,,,,,,,,,,,,0.0,89.58,79.32,118.02,,,,,,,,,,,,,,,,,,,,,,,,,,,,,,,,,,,,,,,,,,,,,,,,,,,,,,,,,,,
71434,0,1.1906,,,,,,,,,,,,0.0,89.58,79.44,121.53,,,,,,,,,,,,,,0,0,0,0,0,0,0,0,0,0,0,0,0,0,0,0,0,0,0,0,0,0,0,0,0,0,0,0,0,0,0,0,,,,,,,,,,,,,,
71444,0,1.1907,,,,,,,,,,,,0.0,89.58,79.2,119.67,,,,,,,,,,,,,,,,,,,,,,,,,,,,,,,,,,,,,,,,,,,,,,,,,,,,,,,,,,,
71454,0,1.1909,,0.07,0.03,0.17,0,1,1,0.19,0.47,41,1,0.0,89.7,79.44,123.93,2805,63.6,18.6,0,11.0,0.0,0.0,0.0,0.0,65.0,11.8,269.2,181.75,0,0,0,0,0,0,0,0,0,0,0,0,0,0,0,0,0,0,0,0,0,0,0,0,0,0,0,0,0,0,0,0,0.0,0.0,0.0,0.0,0,0,0.0,0,0.0,-1,0.0,0,0.0,1.1909
71464,0,1.1911,,,,,,,,,,,,0.0,89.58,79.2,118.44,,,,,,,,,,,,,,,,,,,,,,,,,,,,,,,,,,,,,,,,,,,,,,,,,,,,,,,,,,,
71474,0,1.1912,,,,,,,,,,,,0.0,89.7,79.53,120.63,,,,,,,,,,,,,,0,0,0,0,0,0,0,0,0,0,0,0,0,0,0,0,0,0,0,0,0,0,0,0,0,0,0,0,0,0,0,0,,,,,,,,,,,,,,
71484,0,1.1914,,,,,,,,,,,,0.0,89.58,79.11,116.79,,,,,,,,,,,,,,,,,,,,,,,,,,,,,,,,,,,,,,,,,,,,,,,,,,,,,,,,,,,
71494,0,1.1916,,0.11,0.04,0.05,0,1,0,0.12,0.47,27,,0.0,89.7,79.44,117.9,,,,,,,,,,,,,,0,0,0,0,0,0,0,0,0,0,0,0,0,0,0,0,0,0,0,0,0,0,0,0,0,0,0,0,0,0,0,0,,,,,,,,,,,,,,
71504,0,1.1917,,,,,,,,,,,,0.0,89.58,79.2,116.37,,,,,,,,,,,,,,,,,,,,,,,,,,,,,,,,,,,,,,,,,,,,,,,,,,,,,,,,,,,
71514,0,1.1919,,,,,,,,,,,,0.0,89.58,79.53,115.8,,,,,,,,,,,,,,0,0,0,0,0,0,0,0,0,0,0,0,0,0,0,0,0,0,0,0,0,0,0,0,0,0,0,0,0,0,0,0,,,,,,,,,,,,,,
71524,0,1.1921,,,,,,,,,,,,0.0,89.58,79.32,118.44,,,,,,,,,,,,,,,,,,,,,,,,,,,,,,,,,,,,,,,,,,,,,,,,,,,,,,,,,,,
71534,0,1.1922,,0.16,0.02,-0.05,0,1,-0,0.17,0.47,36,,0.0,89.58,79.44,118.23,,,,,,,,,,,,,,0,0,0,0,0,0,0,0,0,0,0,0,0,0,0,0,0,0,0,0,0,0,0,0,0,0,0,0,0,0,0,0,,,,,,,,,,,,,,
71544,0,1.1924,,,,,,,,,,,,0.0,89.58,79.32,117.57,,,,,,,,,,,,,,,,,,,,,,,,,,,,,,,,,,,,,,,,,,,,,,,,,,,,,,,,,,,
71554,0,1.1926,,,,,,,,,,,1,0.0,89.58,79.44,115.59,2877,63.1,18.6,0,11.0,0.0,0.0,0.0,0.0,65.0,11.9,269.2,181.75,0,0,0,0,0,0,0,0,0,0,0,0,0,0,0,0,0,0,0,0,0,0,0,0,0,0,0,0,0,0,0,0,0.0,0.0,0.0,0.0,0,0,0.0,0,0.0,-1,0.0,0,0.0,1.1926
71564,0,1.1927,,,,,,,,,,,,0.0,89.58,79.44,118.44,,,,,,,,,,,,,,,,,,,,,,,,,,,,,,,,,,,,,,,,,,,,,,,,,,,,,,,,,,,
71574,0,1.1929,,0.09,0.03,0.17,0,1,1,0.2,0.47,42,,0.0,89.49,79.32,116.46,,,,,,,,,,,,,,0,0,0,0,0,0,0,0,0,0,0,0,0,0,0,0,0,0,0,0,0,0,0,0,0,0,0,0,0,0,0,0,,,,,,,,,,,,,,
71584,0,1.1931,,,,,,,,,,,,0.0,89.58,79.32,120.09,,,,,,,,,,,,,,,,,,,,,,,,,,,,,,,,,,,,,,,,,,,,,,,,,,,,,,,,,,,
71594,0,1.1932,,,,,,,,,,,,0.0,89.58,79.32,120.96,,,,,,,,,,,,,,0,0,0,0,0,0,0,0,0,0,0,0,0,0,0,0,0,0,0,0,0,0,0,0,0,0,0,0,0,0,0,0,,,,,,,,,,,,,,
71604,0,1.1934,,,,,,,,,,,,0.0,89.58,79.44,122.19,,,,,,,,,,,,,,,,,,,,,,,,,,,,,,,,,,,,,,,,,,,,,,,,,,,,,,,,,,,
71614,0,1.1936,,-0.02,0.02,-0.03,0,1,0,0.04,0.47,8,,0.0,89.58,79.2,116.25,,,,,,,,,,,,,,0,0,0,0,0,0,0,0,0,0,0,0,0,0,0,0,0,0,0,0,0,0,0,0,0,0,0,0,0,0,0,0,,,,,,,,,,,,,,
71624,0,1.1937,,,,,,,,,,,,0.0,89.7,79.44,121.29,,,,,,,,,,,,,,,,,,,,,,,,,,,,,,,,,,,,,,,,,,,,,,,,,,,,,,,,,,,
71634,0,1.1939,,,,,,,,,,,,0.0,89.58,79.2,116.79,,,,,,,,,,,,,,0,0,0,0,0,0,0,0,0,0,0,0,0,0,0,0,0,0,0,0,0,0,0,0,0,0,0,0,0,0,0,0,,,,,,,,,,,,,,
71644,0,1.1941,,,,,,,,,,,,0.0,89.58,79.53,116.37,,,,,,,,,,,,,,,,,,,,,,,,,,,,,,,,,,,,,,,,,,,,,,,,,,,,,,,,,,,
71654,0,1.1942,,0.02,-0.0,-0.18,0,0,-0,0.18,0.47,39,1,0.0,89.7,79.32,119.34,2758,62.7,18.6,0,10.0,0.0,0.0,0.0,0.0,65.0,11.8,269.2,181.75,0,0,0,0,0,0,0,0,0,0,0,0,0,0,0,0,0,0,0,0,0,0,0,0,0,0,0,0,0,0,0,0,0.0,0.0,0.0,0.0,0,0,0.0,0,0.0,-1,0.0,0,0.0,1.1942
71664,0,1.1944,,,,,,,,,,,,0.0,89.58,79.44,118.44,,,,,,,,,,,,,,,,,,,,,,,,,,,,,,,,,,,,,,,,,,,,,,,,,,,,,,,,,,,
71674,0,1.1946,,,,,,,,,,,,0.0,89.7,79.44,117.24,,,,,,,,,,,,,,0,0,0,0,0,0,0,0,0,0,0,0,0,0,0,0,0,0,0,0,0,0,0,0,0,0,0,0,0,0,0,0,,,,,,,,,,,,,,
71684,0,1.1947,,,,,,,,,,,,0.0,89.58,79.32,117.45,,,,,,,,,,,,,,,,,,,,,,,,,,,,,,,,,,,,,,,,,,,,,,,,,,,,,,,,,,,
71694,0,1.1949,,0.04,-0.01,-0.19,0,-1,-0,0.19,0.47,41,,0.0,89.58,79.44,122.28,,,,,,,,,,,,,,0,0,0,0,0,0,0,0,0,0,0,0,0,0,0,0,0,0,0,0,0,0,0,0,0,0,0,0,0,0,0,0,,,,,,,,,,,,,,
71704,0,1.1951,,,,,,,,,,,,0.0,89.58,79.2,118.44,,,,,,,,,,,,,,,,,,,,,,,,,,,,,,,,,,,,,,,,,,,,,,,,,,,,,,,,,,,
71714,0,1.1952,,,,,,,,,,,,0.0,89.7,79.44,122.07,,,,,,,,,,,,,,0,0,0,0,0,0,0,0,0,0,0,0,0,0,0,0,0,0,0,0,0,0,0,0,0,0,0,0,0,0,0,0,,,,,,,,,,,,,,
71724,0,1.1954,,,,,,,,,,,,0.0,89.58,79.11,116.91,,,,,,,,,,,,,,,,,,,,,,,,,,,,,,,,,,,,,,,,,,,,,,,,,,,,,,,,,,,
71734,0,1.1956,,0.04,0.01,-0.2,0,-1,-0,0.2,0.47,44,,0.0,89.58,79.53,119.55,,,,,,,,,,,,,,0,0,0,0,0,0,0,0,0,0,0,0,0,0,0,0,0,0,0,0,0,0,0,0,0,0,0,0,0,0,0,0,,,,,,,,,,,,,,
71744,0,1.1957,,,,,,,,,,,,0.0,89.58,79.2,118.56,,,,,,,,,,,,,,,,,,,,,,,,,,,,,,,,,,,,,,,,,,,,,,,,,,,,,,,,,,,
71754,0,1.1959,,,,,,,,,,,1,0.0,89.58,79.53,116.04,2730,62.9,18.6,0,10.0,0.0,0.0,0.0,0.0,65.0,12.0,269.2,181.75,0,0,0,0,0,0,0,0,0,0,0,0,0,0,0,0,0,0,0,0,0,0,0,0,0,0,0,0,0,0,0,0,0.0,0.0,0.0,0.0,0,0,0.0,0,0.0,-1,0.0,0,0.0,1.1959
71764,0,1.1961,,,,,,,,,,,,0.0,89.7,79.32,122.07,,,,,,,,,,,,,,,,,,,,,,,,,,,,,,,,,,,,,,,,,,,,,,,,,,,,,,,,,,,
71774,0,1.1962,,0.08,0.04,-0.22,0,-0,-0,0.24,0.47,52,,0.0,89.58,79.32,118.56,,,,,,,,,,,,,,0,0,0,0,0,0,0,0,0,0,0,0,0,0,0,0,0,0,0,0,0,0,0,0,0,0,0,0,0,0,0,0,,,,,,,,,,,,,,
71784,0,1.1964,,,,,,,,,,,,0.0,89.58,79.44,121.74,,,,,,,,,,,,,,,,,,,,,,,,,,,,,,,,,,,,,,,,,,,,,,,,,,,,,,,,,,,
71794,0,1.1966,,,,,,,,,,,,0.0,89.58,79.2,118.56,,,,,,,,,,,,,,0,0,0,0,0,0,0,0,0,0,0,0,0,0,0,0,0,0,0,0,0,0,0,0,0,0,0,0,0,0,0,0,,,,,,,,,,,,,,
71804,0,1.1967,,,,,,,,,,,,0.0,89.58,79.32,123.93,,,,,,,,,,,,,,,,,,,,,,,,,,,,,,,,,,,,,,,,,,,,,,,,,,,,,,,,,,,
71814,0,1.1969,,0.1,0.03,-0.12,0,0,0,0.16,0.47,34,,0.0,89.58,79.11,117.78,,,,,,,,,,,,,,0,0,0,0,0,0,0,0,0,0,0,0,0,0,0,0,0,0,0,0,0,0,0,0,0,0,0,0,0,0,0,0,,,,,,,,,,,,,,
71824,0,1.1971,,,,,,,,,,,,0.0,89.58,79.2,116.7,,,,,,,,,,,,,,,,,,,,,,,,,,,,,,,,,,,,,,,,,,,,,,,,,,,,,,,,,,,
71834,0,1.1972,,,,,,,,,,,,0.0,89.58,79.53,114.93,,,,,,,,,,,,,,0,0,0,0,0,0,0,0,0,0,0,0,0,0,0,0,0,0,0,0,0,0,0,0,0,0,0,0,0,0,0,0,,,,,,,,,,,,,,
71844,0,1.1974,,,,,,,,,,,,0.0,89.7,79.32,120.09,,,,,,,,,,,,,,,,,,,,,,,,,,,,,,,,,,,,,,,,,,,,,,,,,,,,,,,,,,,
71854,0,1.1976,,0.03,0.02,-0.11,0,0,0,0.12,0.47,26,1,0.0,89.58,79.32,115.38,2746,63.0,18.6,0,10.0,0.0,0.0,0.0,0.0,65.0,11.9,269.2,181.75,0,0,0,0,0,0,0,0,0,0,0,0,0,0,0,0,0,0,0,0,0,0,0,0,0,0,0,0,0,0,0,0,0.0,0.0,0.0,0.0,0,0,0.0,0,0.0,-1,0.0,0,0.0,1.1976
71864,0,1.1977,,,,,,,,,,,,0.0,89.58,79.32,117.57,,,,,,,,,,,,,,,,,,,,,,,,,,,,,,,,,,,,,,,,,,,,,,,,,,,,,,,,,,,
71874,0,1.1979,,,,,,,,,,,,0.0,89.58,79.2,118.68,,,,,,,,,,,,,,0,0,0,0,0,0,0,0,0,0,0,0,0,0,0,0,0,0,0,0,0,0,0,0,0,0,0,0,0,0,0,0,,,,,,,,,,,,,,
71884,0,1.1981,,,,,,,,,,,,0.0,89.58,79.44,121.08,,,,,,,,,,,,,,,,,,,,,,,,,,,,,,,,,,,,,,,,,,,,,,,,,,,,,,,,,,,
71894,0,1.1982,,-0.02,0.02,-0.18,0,1,1,0.18,0.47,39,,0.0,89.58,79.2,119.67,,,,,,,,,,,,,,0,0,0,0,0,0,0,0,0,0,0,0,0,0,0,0,0,0,0,0,0,0,0,0,0,0,0,0,0,0,0,0,,,,,,,,,,,,,,
71904,0,1.1984,,,,,,,,,,,,0.0,89.58,79.44,121.86,,,,,,,,,,,,,,,,,,,,,,,,,,,,,,,,,,,,,,,,,,,,,,,,,,,,,,,,,,,
71914,0,1.1986,,,,,,,,,,,,0.0,89.7,79.2,115.8,,,,,,,,,,,,,,0,0,0,0,0,0,0,0,0,0,0,0,0,0,0,0,0,0,0,0,0,0,0,0,0,0,0,0,0,0,0,0,,,,,,,,,,,,,,
71924,0,1.1987,,,,,,,,,,,,0.0,89.58,79.53,117.57,,,,,,,,,,,,,,,,,,,,,,,,,,,,,,,,,,,,,,,,,,,,,,,,,,,,,,,,,,,
71934,0,1.1989,,0.07,0.03,-0.13,0,1,0,0.15,0.47,31,,0.0,89.7,79.32,119.76,,,,,,,,,,,,,,0,0,0,0,0,0,0,0,0,0,0,0,0,0,0,0,0,0,0,0,0,0,0,0,0,0,0,0,0,0,0,0,,,,,,,,,,,,,,
71944,0,1.1991,,,,,,,,,,,,0.0,89.58,79.32,118.56,,,,,,,,,,,,,,,,,,,,,,,,,,,,,,,,,,,,,,,,,,,,,,,,,,,,,,,,,,,
71954,0,1.1992,,,,,,,,,,,1,0.0,89.58,79.32,118.89,2658,63.0,18.6,0,10.0,0.0,0.0,0.0,0.0,65.0,11.9,269.2,181.75,0,0,0,0,0,0,0,0,0,0,0,0,0,0,0,0,0,0,0,0,0,0,0,0,0,0,0,0,0,0,0,0,0.0,0.0,0.0,0.0,0,0,0.0,0,0.0,-1,0.0,0,0.0,1.1992
71964,0,1.1994,,,,,,,,,,,,0.0,89.58,79.2,117.24,,,,,,,,,,,,,,,,,,,,,,,,,,,,,,,,,,,,,,,,,,,,,,,,,,,,,,,,,,,
71974,0,1.1996,,0.01,0.03,-0.15,0,0,-0,0.15,0.47,32,,0.0,89.58,79.32,124.17,,,,,,,,,,,,,,0,0,0,0,0,0,0,0,0,0,0,0,0,0,0,0,0,0,0,0,0,0,0,0,0,0,0,0,0,0,0,0,,,,,,,,,,,,,,
71984,0,1.1997,,,,,,,,,,,,0.0,89.58,79.32,119.88,,,,,,,,,,,,,,,,,,,,,,,,,,,,,,,,,,,,,,,,,,,,,,,,,,,,,,,,,,,
71994,0,1.1999,,,,,,,,,,,,0.0,89.58,79.44,121.95,,,,,,,,,,,,,,0,0,0,0,0,0,0,0,0,0,0,0,0,0,0,0,0,0,0,0,0,0,0,0,0,0,0,0,0,0,0,0,,,,,,,,,,,,,,
72004,0,1.2001,,,,,,,,,,,,0.0,89.58,79.11,115.38,,,,,,,,,,,,,,,,,,,,,,,,,,,,,,,,,,,,,,,,,,,,,,,,,,,,,,,,,,,
72014,0,1.2002,,0.05,0.04,-0.11,0,-0,-1,0.13,0.47,28,,0.0,89.58,79.53,114.93,,,,,,,,,,,,,,0,0,0,0,0,0,0,0,0,0,0,0,0,0,0,0,0,0,0,0,0,0,0,0,0,0,0,0,0,0,0,0,,,,,,,,,,,,,,
72024,0,1.2004,,,,,,,,,,,,0.0,89.7,79.2,120.3,,,,,,,,,,,,,,,,,,,,,,,,,,,,,,,,,,,,,,,,,,,,,,,,,,,,,,,,,,,
72034,0,1.2006,,,,,,,,,,,,0.0,89.58,79.44,116.46,,,,,,,,,,,,,,0,0,0,0,0,0,0,0,0,0,0,0,0,0,0,0,0,0,0,0,0,0,0,0,0,0,0,0,0,0,0,0,,,,,,,,,,,,,,
72044,0,1.2007,,,,,,,,,,,,0.0,89.58,79.32,119.34,,,,,,,,,,,,,,,,,,,,,,,,,,,,,,,,,,,,,,,,,,,,,,,,,,,,,,,,,,,
72054,0,1.2009,12.46,0.05,0.03,-0.15,0,-1,-1,0.16,0.47,35,1,0.0,89.58,79.2,118.77,2702,63.2,18.6,0,10.0,0.0,0.0,0.0,0.0,64.0,11.7,266.64,181.75,0,0,0,0,0,0,0,0,0,0,0,0,0,0,0,0,0,0,0,0,0,0,0,0,0,0,0,0,0,0,0,0,0.0,0.0,0.0,0.0,0,0,0.0,0,0.0,-1,0.0,0,0.0,1.2009
72064,0,1.2011,,,,,,,,,,,,0.0,89.58,79.32,122.4,,,,,,,,,,,,,,,,,,,,,,,,,,,,,,,,,,,,,,,,,,,,,,,,,,,,,,,,,,,
72074,0,1.2012,,,,,,,,,,,,0.0,89.58,79.11,118.02,,,,,,,,,,,,,,0,0,0,0,0,0,0,0,0,0,0,0,0,0,0,0,0,0,0,0,0,0,0,0,0,0,0,0,0,0,0,0,,,,,,,,,,,,,,
72084,0,1.2014,,,,,,,,,,,,0.0,89.58,79.44,122.4,,,,,,,,,,,,,,,,,,,,,,,,,,,,,,,,,,,,,,,,,,,,,,,,,,,,,,,,,,,
72094,0,1.2016,,-0.03,0.06,-0.12,0,0,0,0.14,0.47,29,,0.0,89.58,79.2,117.45,,,,,,,,,,,,,,0,0,0,0,0,0,0,0,0,0,0,0,0,0,0,0,0,0,0,0,0,0,0,0,0,0,0,0,0,0,0,0,,,,,,,,,,,,,,
72104,0,1.2017,,,,,,,,,,,,0.0,89.58,79.53,116.58,,,,,,,,,,,,,,,,,,,,,,,,,,,,,,,,,,,,,,,,,,,,,,,,,,,,,,,,,,,
72114,0,1.2019,,,,,,,,,,,,0.0,89.7,79.32,121.74,,,,,,,,,,,,,,0,0,0,0,0,0,0,0,0,0,0,0,0,0,0,0,0,0,0,0,0,0,0,0,0,0,0,0,0,0,0,0,,,,,,,,,,,,,,
72124,0,1.2021,,,,,,,,,,,,0.0,89.58,79.44,117.78,,,,,,,,,,,,,,,,,,,,,,,,,,,,,,,,,,,,,,,,,,,,,,,,,,,,,,,,,,,
72134,0,1.2022,,0.05,0.02,-0.0,0,1,0,0.05,0.47,11,,0.0,89.58,79.32,119.88,,,,,,,,,,,,,,0,0,0,0,0,0,0,0,0,0,0,0,0,0,0,0,0,0,0,0,0,0,0,0,0,0,0,0,0,0,0,0,,,,,,,,,,,,,,
72144,0,1.2024,,,,,,,,,,,,0.0,89.58,79.2,120.3,,,,,,,,,,,,,,,,,,,,,,,,,,,,,,,,,,,,,,,,,,,,,,,,,,,,,,,,,,,
72154,0,1.2026,,,,,,,,,,,1,0.0,89.58,79.44,123.18,2674,63.5,18.6,0,10.0,0.0,0.0,0.0,0.0,64.0,12.0,266.64,181.75,0,0,0,0,0,0,0,0,0,0,0,0,0,0,0,0,0,0,0,0,0,0,0,0,0,0,0,0,0,0,0,0,0.0,0.0,0.0,0.0,0,0,0.0,0,0.0,-1,0.0,0,0.0,1.2026
72164,0,1.2027,,,,,,,,,,,,0.0,89.58,79.11,119.67,,,,,,,,,,,,,,,,,,,,,,,,,,,,,,,,,,,,,,,,,,,,,,,,,,,,,,,,,,,
72174,0,1.2029,,0.04,-0.01,-0.18,0,1,0,0.18,0.47,39,,0.0,89.58,79.44,117.69,,,,,,,,,,,,,,0,0,0,0,0,0,0,0,0,0,0,0,0,0,0,0,0,0,0,0,0,0,0,0,0,0,0,0,0,0,0,0,,,,,,,,,,,,,,
72184,0,1.2031,,,,,,,,,,,,0.0,89.7,79.2,118.35,,,,,,,,,,,,,,,,,,,,,,,,,,,,,,,,,,,,,,,,,,,,,,,,,,,,,,,,,,,
72194,0,1.2032,,,,,,,,,,,,0.0,89.58,79.44,119.67,,,,,,,,,,,,,,0,0,0,0,0,0,0,0,0,0,0,0,0,0,0,0,0,0,0,0,0,0,0,0,0,0,0,0,0,0,0,0,,,,,,,,,,,,,,
72204,0,1.2034,,,,,,,,,,,,0.0,89.7,79.32,117.24,,,,,,,,,,,,,,,,,,,,,,,,,,,,,,,,,,,,,,,,,,,,,,,,,,,,,,,,,,,
72214,0,1.2036,,0.04,0.02,-0.22,0,0,0,0.23,0.47,49,,0.0,89.58,79.32,118.44,,,,,,,,,,,,,,0,0,0,0,0,0,0,0,0,0,0,0,0,0,0,0,0,0,0,0,0,0,0,0,0,0,0,0,0,0,0,0,,,,,,,,,,,,,,
72224,0,1.2037,,,,,,,,,,,,0.0,89.58,79.44,121.86,,,,,,,,,,,,,,,,,,,,,,,,,,,,,,,,,,,,,,,,,,,,,,,,,,,,,,,,,,,
72234,0,1.2039,,,,,,,,,,,,0.0,89.58,79.44,120.42,,,,,,,,,,,,,,0,0,0,0,0,0,0,0,0,0,0,0,0,0,0,0,0,0,0,0,0,0,0,0,0,0,0,0,0,0,0,0,,,,,,,,,,,,,,
72244,0,1.2041,,,,,,,,,,,,0.0,89.58,79.11,119.76,,,,,,,,,,,,,,,,,,,,,,,,,,,,,,,,,,,,,,,,,,,,,,,,,,,,,,,,,,,
72254,0,1.2042,,0.08,-0.01,-0.24,0,0,-0,0.25,0.47,54,1,0.0,89.58,79.53,121.62,2813,63.5,18.6,0,11.0,0.0,0.0,0.0,0.0,64.0,11.8,266.64,181.75,0,0,0,0,0,0,0,0,0,0,0,0,0,0,0,0,0,0,0,0,0,0,0,0,0,0,0,0,0,0,0,0,0.0,0.0,0.0,0.0,0,0,0.0,0,0.0,-1,0.0,0,0.0,1.2042
72264,0,1.2044,,,,,,,,,,,,0.0,89.58,79.11,116.58,,,,,,,,,,,,,,,,,,,,,,,,,,,,,,,,,,,,,,,,,,,,,,,,,,,,,,,,,,,
72274,0,1.2046,,,,,,,,,,,,0.0,89.58,79.53,115.38,,,,,,,,,,,,,,0,0,0,0,0,0,0,0,0,0,0,0,0,0,0,0,0,0,0,0,0,0,0,0,0,0,0,0,0,0,0,0,,,,,,,,,,,,,,
72284,0,1.2047,,,,,,,,,,,,0.0,89.58,79.32,120.09,,,,,,,,,,,,,,,,,,,,,,,,,,,,,,,,,,,,,,,,,,,,,,,,,,,,,,,,,,,
72294,0,1.2049,,0.03,-0.04,-0.19,0,-0,-0,0.2,0.47,43,,0.0,89.58,79.32,117.9,,,,,,,,,,,,,,0,0,0,0,0,0,0,0,0,0,0,0,0,0,0,0,0,0,0,0,0,0,0,0,0,0,0,0,0,0,0,0,,,,,,,,,,,,,,
72304,0,1.2051,,,,,,,,,,,,0.0,89.7,79.32,116.79,,,,,,,,,,,,,,,,,,,,,,,,,,,,,,,,,,,,,,,,,,,,,,,,,,,,,,,,,,,
72314,0,1.2052,,,,,,,,,,,,0.0,89.58,79.2,117.24,,,,,,,,,,,,,,0,0,0,0,0,0,0,0,0,0,0,0,0,0,0,0,0,0,0,0,0,0,0,0,0,0,0,0,0,0,0,0,,,,,,,,,,,,,,
72324,0,1.2054,,,,,,,,,,,,0.0,89.58,79.44,121.41,,,,,,,,,,,,,,,,,,,,,,,,,,,,,,,,,,,,,,,,,,,,,,,,,,,,,,,,,,,
72334,0,1.2056,,0.01,-0.07,-0.26,0,-0,-1,0.27,0.47,59,,0.0,89.58,79.2,119.1,,,,,,,,,,,,,,0,0,0,0,0,0,0,0,0,0,0,0,0,0,0,0,0,0,0,0,0,0,0,0,0,0,0,0,0,0,0,0,,,,,,,,,,,,,,
72344,0,1.2057,,,,,,,,,,,,0.0,89.58,79.44,122.28,,,,,,,,,,,,,,,,,,,,,,,,,,,,,,,,,,,,,,,,,,,,,,,,,,,,,,,,,,,
72354,0,1.2059,,,,,,,,,,,1,0.0,89.58,79.11,116.58,2698,63.3,18.6,0,10.0,0.0,0.0,0.0,0.0,64.0,12.0,266.64,181.75,0,0,0,0,0,0,0,0,0,0,0,0,0,0,0,0,0,0,0,0,0,0,0,0,0,0,0,0,0,0,0,0,0.0,0.0,0.0,0.0,0,0,0.0,0,0.0,-1,0.0,0,0.0,1.2059
72364,0,1.2061,,,,,,,,,,,,0.0,89.58,79.44,118.68,,,,,,,,,,,,,,,,,,,,,,,,,,,,,,,,,,,,,,,,,,,,,,,,,,,,,,,,,,,
72374,0,1.2062,,0.11,-0.03,-0.1,0,1,-0,0.15,0.47,32,,0.0,89.7,79.32,120.21,,,,,,,,,,,,,,0,0,0,0,0,0,0,0,0,0,0,0,0,0,0,0,0,0,0,0,0,0,0,0,0,0,0,0,0,0,0,0,,,,,,,,,,,,,,
72384,0,1.2064,,,,,,,,,,,,0.0,89.58,79.32,119.55,,,,,,,,,,,,,,,,,,,,,,,,,,,,,,,,,,,,,,,,,,,,,,,,,,,,,,,,,,,
72394,0,1.2066,,,,,,,,,,,,0.0,89.58,79.32,118.89,,,,,,,,,,,,,,0,0,0,0,0,0,0,0,0,0,0,0,0,0,0,0,0,0,0,0,0,0,0,0,0,0,0,0,0,0,0,0,,,,,,,,,,,,,,
72404,0,1.2067,,,,,,,,,,,,0.0,89.58,79.2,119.1,,,,,,,,,,,,,,,,,,,,,,,,,,,,,,,,,,,,,,,,,,,,,,,,,,,,,,,,,,,
72414,0,1.2069,,0.05,0.01,-0.13,0,1,-0,0.14,0.47,31,,0.0,89.58,79.32,121.86,,,,,,,,,,,,,,0,0,0,0,0,0,0,0,0,0,0,0,0,0,0,0,0,0,0,0,0,0,0,0,0,0,0,0,0,0,0,0,,,,,,,,,,,,,,
72424,0,1.2071,,,,,,,,,,,,0.0,89.58,79.2,119.22,,,,,,,,,,,,,,,,,,,,,,,,,,,,,,,,,,,,,,,,,,,,,,,,,,,,,,,,,,,
72434,0,1.2072,,,,,,,,,,,,0.0,89.58,79.44,121.53,,,,,,,,,,,,,,0,0,0,0,0,0,0,0,0,0,0,0,0,0,0,0,0,0,0,0,0,0,0,0,0,0,0,0,0,0,0,0,,,,,,,,,,,,,,
72444,0,1.2074,,,,,,,,,,,,0.0,89.58,79.2,118.89,,,,,,,,,,,,,,,,,,,,,,,,,,,,,,,,,,,,,,,,,,,,,,,,,,,,,,,,,,,
72454,0,1.2076,,0.08,0.05,-0.1,0,0,-1,0.14,0.47,30,1,0.0,89.58,79.53,120.42,2615,63.6,18.6,0,10.0,0.0,0.0,0.0,0.0,64.0,12.1,266.64,181.75,0,0,0,0,0,0,0,0,0,0,0,0,0,0,0,0,0,0,0,0,0,0,0,0,0,0,0,0,0,0,0,0,0.0,0.0,0.0,0.0,0,0,0.0,0,0.0,-1,0.0,0,0.0,1.2076
72464,0,1.2077,,,,,,,,,,,,0.0,89.7,79.32,118.02,,,,,,,,,,,,,,,,,,,,,,,,,,,,,,,,,,,,,,,,,,,,,,,,,,,,,,,,,,,
72474,0,1.2079,,,,,,,,,,,,0.0,89.58,79.32,123.6,,,,,,,,,,,,,,0,0,0,0,0,0,0,0,0,0,0,0,0,0,0,0,0,0,0,0,0,0,0,0,0,0,0,0,0,0,0,0,,,,,,,,,,,,,,
72484,0,1.2081,,,,,,,,,,,,0.0,89.58,79.32,117.36,,,,,,,,,,,,,,,,,,,,,,,,,,,,,,,,,,,,,,,,,,,,,,,,,,,,,,,,,,,
72494,0,1.2082,,-0.04,0.06,-0.27,0,0,-1,0.28,0.47,60,,0.0,89.58,79.11,115.71,,,,,,,,,,,,,,0,0,0,0,0,0,0,0,0,0,0,0,0,0,0,0,0,0,0,0,0,0,0,0,0,0,0,0,0,0,0,0,,,,,,,,,,,,,,
72504,0,1.2084,,,,,,,,,,,,0.0,89.58,79.44,122.07,,,,,,,,,,,,,,,,,,,,,,,,,,,,,,,,,,,,,,,,,,,,,,,,,,,,,,,,,,,
72514,0,1.2086,,,,,,,,,,,,0.0,89.58,79.2,117.57,,,,,,,,,,,,,,0,0,0,0,0,0,0,0,0,0,0,0,0,0,0,0,0,0,0,0,0,0,0,0,0,0,0,0,0,0,0,0,,,,,,,,,,,,,,
72524,0,1.2087,,,,,,,,,,,,0.0,89.58,79.44,119.43,,,,,,,,,,,,,,,,,,,,,,,,,,,,,,,,,,,,,,,,,,,,,,,,,,,,,,,,,,,
72534,0,1.2089,,0.04,0.05,-0.13,0,1,-0,0.15,0.47,31,,0.0,89.7,79.2,117.24,,,,,,,,,,,,,,0,0,0,0,0,0,0,0,0,0,0,0,0,0,0,0,0,0,0,0,0,0,0,0,0,0,0,0,0,0,0,0,,,,,,,,,,,,,,
72544,0,1.2091,,,,,,,,,,,,0.0,89.58,79.2,118.68,,,,,,,,,,,,,,,,,,,,,,,,,,,,,,,,,,,,,,,,,,,,,,,,,,,,,,,,,,,
72554,0,1.2092,,,,,,,,,,,1,0.0,89.58,79.32,121.74,2718,63.9,18.6,0,10.0,0.0,0.0,0.0,0.0,64.0,12.0,266.64,181.75,0,0,0,0,0,0,0,0,0,0,0,0,0,0,0,0,0,0,0,0,0,0,0,0,0,0,0,0,0,0,0,0,0.0,0.0,0.0,0.0,0,0,0.0,0,0.0,-1,0.0,0,0.0,1.2092
72564,0,1.2094,,,,,,,,,,,,0.0,89.58,79.32,123.39,,,,,,,,,,,,,,,,,,,,,,,,,,,,,,,,,,,,,,,,,,,,,,,,,,,,,,,,,,,
72574,0,1.2096,,0.04,0.09,0.06,0,1,-0,0.12,0.47,25,,0.0,89.58,79.44,123.06,,,,,,,,,,,,,,0,0,0,0,0,0,0,0,0,0,0,0,0,0,0,0,0,0,0,0,0,0,0,0,0,0,0,0,0,0,0,0,,,,,,,,,,,,,,
72584,0,1.2097,,,,,,,,,,,,0.0,89.58,79.11,117.9,,,,,,,,,,,,,,,,,,,,,,,,,,,,,,,,,,,,,,,,,,,,,,,,,,,,,,,,,,,
72594,0,1.2099,,,,,,,,,,,,0.0,89.58,79.53,120.54,,,,,,,,,,,,,,0,0,0,0,0,0,0,0,0,0,0,0,0,0,0,0,0,0,0,0,0,0,0,0,0,0,0,0,0,0,0,0,,,,,,,,,,,,,,
72604,0,1.2101,,,,,,,,,,,,0.0,89.7,79.2,119.01,,,,,,,,,,,,,,,,,,,,,,,,,,,,,,,,,,,,,,,,,,,,,,,,,,,,,,,,,,,
72614,0,1.2102,,0.07,0.07,0.11,0,1,0,0.14,0.47,31,,0.0,89.58,79.44,117.9,,,,,,,,,,,,,,0,0,0,0,0,0,0,0,0,0,0,0,0,0,0,0,0,0,0,0,0,0,0,0,0,0,0,0,0,0,0,0,,,,,,,,,,,,,,
72624,0,1.2104,,,,,,,,,,,,0.0,89.7,79.32,119.01,,,,,,,,,,,,,,,,,,,,,,,,,,,,,,,,,,,,,,,,,,,,,,,,,,,,,,,,,,,
72634,0,1.2106,,,,,,,,,,,,0.0,89.58,79.32,118.35,,,,,,,,,,,,,,0,0,0,0,0,0,0,0,0,0,0,0,0,0,0,0,0,0,0,0,0,0,0,0,0,0,0,0,0,0,0,0,,,,,,,,,,,,,,
72644,0,1.2107,,,,,,,,,,,,0.0,89.58,79.2,120.87,,,,,,,,,,,,,,,,,,,,,,,,,,,,,,,,,,,,,,,,,,,,,,,,,,,,,,,,,,,
72654,0,1.2109,,0.08,0.02,0.1,0,1,0,0.13,0.47,28,1,0.0,89.58,79.44,122.94,2746,63.9,18.6,0,10.0,0.0,0.0,0.0,0.0,64.0,12.1,266.64,181.75,0,0,0,0,0,0,0,0,0,0,0,0,0,0,0,0,0,0,0,0,0,0,0,0,0,0,0,0,0,0,0,0,0.0,0.0,0.0,0.0,0,0,0.0,0,0.0,-1,0.0,0,0.0,1.2109
72664,0,1.2111,,,,,,,,,,,,0.0,89.58,79.11,117.78,,,,,,,,,,,,,,,,,,,,,,,,,,,,,,,,,,,,,,,,,,,,,,,,,,,,,,,,,,,
72674,0,1.2112,,,,,,,,,,,,0.0,89.58,79.53,120.42,,,,,,,,,,,,,,0,0,0,0,0,0,0,0,0,0,0,0,0,0,0,0,0,0,0,0,0,0,0,0,0,0,0,0,0,0,0,0,,,,,,,,,,,,,,
72684,0,1.2114,,,,,,,,,,,,0.0,89.58,79.2,118.68,,,,,,,,,,,,,,,,,,,,,,,,,,,,,,,,,,,,,,,,,,,,,,,,,,,,,,,,,,,
72694,0,1.2116,,0.02,0.0,0.0,0,-0,0,0.02,0.47,5,,0.0,89.58,79.44,119.34,,,,,,,,,,,,,,0,0,0,0,0,0,0,0,0,0,0,0,0,0,0,0,0,0,0,0,0,0,0,0,0,0,0,0,0,0,0,0,,,,,,,,,,,,,,
72704,0,1.2117,,,,,,,,,,,,0.0,89.58,79.32,117.9,,,,,,,,,,,,,,,,,,,,,,,,,,,,,,,,,,,,,,,,,,,,,,,,,,,,,,,,,,,
72714,0,1.2119,,,,,,,,,,,,0.0,89.58,79.32,117.24,,,,,,,,,,,,,,0,0,0,0,0,0,0,0,0,0,0,0,0,0,0,0,0,0,0,0,0,0,0,0,0,0,0,0,0,0,0,0,,,,,,,,,,,,,,
72724,0,1.2121,,,,,,,,,,,,0.0,89.58,79.44,120.42,,,,,,,,,,,,,,,,,,,,,,,,,,,,,,,,,,,,,,,,,,,,,,,,,,,,,,,,,,,
72734,0,1.2122,,-0.01,0.01,-0.09,0,0,-0,0.1,0.47,21,,0.0,89.58,79.32,120.87,,,,,,,,,,,,,,0,0,0,0,0,0,0,0,0,0,0,0,0,0,0,0,0,0,0,0,0,0,0,0,0,0,0,0,0,0,0,0,,,,,,,,,,,,,,
72744,0,1.2124,,,,,,,,,,,,0.0,89.58,79.44,124.83,,,,,,,,,,,,,,,,,,,,,,,,,,,,,,,,,,,,,,,,,,,,,,,,,,,,,,,,,,,
72754,0,1.2126,,,,,,,,,,,1,0.0,89.58,79.11,118.44,2666,63.7,18.6,0,10.0,0.0,0.0,0.0,0.0,64.0,11.9,266.64,181.75,0,0,0,0,0,0,0,0,0,0,0,0,0,0,0,0,0,0,0,0,0,0,0,0,0,0,0,0,0,0,0,0,0.0,0.0,0.0,0.0,0,0,0.0,0,0.0,-1,0.0,0,0.0,1.2126
72764,0,1.2127,,,,,,,,,,,,0.0,89.58,79.44,120.42,,,,,,,,,,,,,,,,,,,,,,,,,,,,,,,,,,,,,,,,,,,,,,,,,,,,,,,,,,,
72774,0,1.2129,,0.09,0.02,0.0,0,1,0,0.09,0.47,19,,0.0,89.7,79.32,120.96,,,,,,,,,,,,,,0,0,0,0,0,0,0,0,0,0,0,0,0,0,0,0,0,0,0,0,0,0,0,0,0,0,0,0,0,0,0,0,,,,,,,,,,,,,,
72784,0,1.2131,,,,,,,,,,,,0.0,89.58,79.32,120.54,,,,,,,,,,,,,,,,,,,,,,,,,,,,,,,,,,,,,,,,,,,,,,,,,,,,,,,,,,,
72794,0,1.2132,,,,,,,,,,,,0.0,89.58,79.32,119.97,,,,,,,,,,,,,,0,0,0,0,0,0,0,0,0,0,0,0,0,0,0,0,0,0,0,0,0,0,0,0,0,0,0,0,0,0,0,0,,,,,,,,,,,,,,
72804,0,1.2134,,,,,,,,,,,,0.0,89.58,79.2,116.79,,,,,,,,,,,,,,,,,,,,,,,,,,,,,,,,,,,,,,,,,,,,,,,,,,,,,,,,,,,
72814,0,1.2136,,0.02,0.04,-0.13,0,1,-1,0.14,0.47,29,,0.0,89.58,79.44,121.95,,,,,,,,,,,,,,0,0,0,0,0,0,0,0,0,0,0,0,0,0,0,0,0,0,0,0,0,0,0,0,0,0,0,0,0,0,0,0,,,,,,,,,,,,,,
72824,0,1.2137,,,,,,,,,,,,0.0,89.58,79.32,122.28,,,,,,,,,,,,,,,,,,,,,,,,,,,,,,,,,,,,,,,,,,,,,,,,,,,,,,,,,,,
72834,0,1.2139,,,,,,,,,,,,0.0,89.58,79.44,123.18,,,,,,,,,,,,,,0,0,0,0,0,0,0,0,0,0,0,0,0,0,0,0,0,0,0,0,0,0,0,0,0,0,0,0,0,0,0,0,,,,,,,,,,,,,,
72844,0,1.2141,,,,,,,,,,,,0.0,89.58,79.11,118.11,,,,,,,,,,,,,,,,,,,,,,,,,,,,,,,,,,,,,,,,,,,,,,,,,,,,,,,,,,,
72854,0,1.2142,,0.04,0.03,-0.05,0,0,0,0.06,0.47,14,1,0.0,89.58,79.53,118.56,2750,63.8,18.6,0,11.0,0.0,0.0,0.0,0.0,64.0,12.2,266.64,181.75,0,0,0,0,0,0,0,0,0,0,0,0,0,0,0,0,0,0,0,0,0,0,0,0,0,0,0,0,0,0,0,0,0.0,0.0,0.0,0.0,0,0,0.0,0,0.0,-1,0.0,0,0.0,1.2142
72864,0,1.2144,,,,,,,,,,,,0.0,89.58,79.32,119.43,,,,,,,,,,,,,,,,,,,,,,,,,,,,,,,,,,,,,,,,,,,,,,,,,,,,,,,,,,,
72874,0,1.2146,,,,,,,,,,,,0.0,89.58,79.44,118.35,,,,,,,,,,,,,,0,0,0,0,0,0,0,0,0,0,0,0,0,0,0,0,0,0,0,0,0,0,0,0,0,0,0,0,0,0,0,0,,,,,,,,,,,,,,
72884,0,1.2147,,,,,,,,,,,,0.0,89.58,79.32,118.11,,,,,,,,,,,,,,,,,,,,,,,,,,,,,,,,,,,,,,,,,,,,,,,,,,,,,,,,,,,
72894,0,1.2149,,0.07,-0.01,-0.18,0,0,-0,0.19,0.47,41,,0.0,89.58,79.2,117.45,,,,,,,,,,,,,,0,0,0,0,0,0,0,0,0,0,0,0,0,0,0,0,0,0,0,0,0,0,0,0,0,0,0,0,0,0,0,0,,,,,,,,,,,,,,
72904,0,1.2151,,,,,,,,,,,,0.0,89.58,79.44,121.29,,,,,,,,,,,,,,,,,,,,,,,,,,,,,,,,,,,,,,,,,,,,,,,,,,,,,,,,,,,
72914,0,1.2152,,,,,,,,,,,,0.0,89.58,79.2,123.06,,,,,,,,,,,,,,0,0,0,0,0,0,0,0,0,0,0,0,0,0,0,0,0,0,0,0,0,0,0,0,0,0,0,0,0,0,0,0,,,,,,,,,,,,,,
72924,0,1.2154,,,,,,,,,,,,0.0,89.58,79.44,123.6,,,,,,,,,,,,,,,,,,,,,,,,,,,,,,,,,,,,,,,,,,,,,,,,,,,,,,,,,,,
72934,0,1.2156,,-0.05,-0.02,-0.19,0,-1,-1,0.2,0.47,43,,0.0,89.58,79.11,118.35,,,,,,,,,,,,,,0,0,0,0,0,0,0,0,0,0,0,0,0,0,0,0,0,0,0,0,0,0,0,0,0,0,0,0,0,0,0,0,,,,,,,,,,,,,,
72944,0,1.2157,,,,,,,,,,,,0.0,89.58,79.44,120.96,,,,,,,,,,,,,,,,,,,,,,,,,,,,,,,,,,,,,,,,,,,,,,,,,,,,,,,,,,,
72954,0,1.2159,,,,,,,,,,,1,0.0,89.58,79.2,117.78,2754,63.7,18.6,0,10.0,0.0,0.0,0.0,0.0,64.0,11.9,266.64,181.75,0,0,0,0,0,0,0,0,0,0,0,0,0,0,0,0,0,0,0,0,0,0,0,0,0,0,0,0,0,0,0,0,0.0,0.0,0.0,0.0,0,0,0.0,0,0.0,-1,0.0,0,0.0,1.2159
72964,0,1.2161,,,,,,,,,,,,0.0,89.58,79.44,119.34,,,,,,,,,,,,,,,,,,,,,,,,,,,,,,,,,,,,,,,,,,,,,,,,,,,,,,,,,,,
72974,0,1.2162,,0.01,-0.04,-0.33,0,-1,-1,0.33,0.47,71,,0.0,89.58,79.32,117.69,,,,,,,,,,,,,,0,0,0,0,0,0,0,0,0,0,0,0,0,0,0,0,0,0,0,0,0,0,0,0,0,0,0,0,0,0,0,0,,,,,,,,,,,,,,
72984,0,1.2164,,,,,,,,,,,,0.0,89.58,79.32,116.79,,,,,,,,,,,,,,,,,,,,,,,,,,,,,,,,,,,,,,,,,,,,,,,,,,,,,,,,,,,
72994,0,1.2166,,,,,,,,,,,,0.0,89.58,79.44,119.43,,,,,,,,,,,,,,0,0,0,0,0,0,0,0,0,0,0,0,0,0,0,0,0,0,0,0,0,0,0,0,0,0,0,0,0,0,0,0,,,,,,,,,,,,,,
73004,0,1.2167,,,,,,,,,,,,0.0,89.58,79.2,121.2,,,,,,,,,,,,,,,,,,,,,,,,,,,,,,,,,,,,,,,,,,,,,,,,,,,,,,,,,,,
73014,0,1.2169,,0.07,-0.03,-0.3,0,-1,-1,0.31,0.47,66,,0.0,89.58,79.44,125.49,,,,,,,,,,,,,,0,0,0,0,0,0,0,0,0,0,0,0,0,0,0,0,0,0,0,0,0,0,0,0,0,0,0,0,0,0,0,0,,,,,,,,,,,,,,
73024,0,1.2171,,,,,,,,,,,,0.0,89.58,79.11,119.76,,,,,,,,,,,,,,,,,,,,,,,,,,,,,,,,,,,,,,,,,,,,,,,,,,,,,,,,,,,
73034,0,1.2172,,,,,,,,,,,,0.0,89.58,79.44,122.28,,,,,,,,,,,,,,0,0,0,0,0,0,0,0,0,0,0,0,0,0,0,0,0,0,0,0,0,0,0,0,0,0,0,0,0,0,0,0,,,,,,,,,,,,,,
73044,0,1.2174,,,,,,,,,,,,0.0,89.58,79.2,118.89,,,,,,,,,,,,,,,,,,,,,,,,,,,,,,,,,,,,,,,,,,,,,,,,,,,,,,,,,,,
73054,0,1.2176,12.23,0.05,-0.02,-0.32,0,-1,-1,0.33,0.47,70,1,0.0,89.58,79.44,116.79,2746,63.5,18.6,0,10.0,0.0,0.0,0.0,0.0,63.0,12.1,264.08,181.75,0,0,0,0,0,0,0,0,0,0,0,0,0,0,0,0,0,0,0,0,0,0,0,0,0,0,0,0,0,0,0,0,0.0,0.0,0.0,0.0,0,0,0.0,0,0.0,-1,0.0,0,0.0,1.2176
73064,0,1.2177,,,,,,,,,,,,0.0,89.58,79.32,120.75,,,,,,,,,,,,,,,,,,,,,,,,,,,,,,,,,,,,,,,,,,,,,,,,,,,,,,,,,,,
73074,0,1.2179,,,,,,,,,,,,0.0,89.58,79.32,117.24,,,,,,,,,,,,,,0,0,0,0,0,0,0,0,0,0,0,0,0,0,0,0,0,0,0,0,0,0,0,0,0,0,0,0,0,0,0,0,,,,,,,,,,,,,,
73084,0,1.2181,,,,,,,,,,,,0.0,89.58,79.32,116.79,,,,,,,,,,,,,,,,,,,,,,,,,,,,,,,,,,,,,,,,,,,,,,,,,,,,,,,,,,,
73094,0,1.2182,,0.04,0.01,-0.25,0,-0,-0,0.25,0.47,54,,0.0,89.58,79.32,120.54,,,,,,,,,,,,,,0,0,0,0,0,0,0,0,0,0,0,0,0,0,0,0,0,0,0,0,0,0,0,0,0,0,0,0,0,0,0,0,,,,,,,,,,,,,,
73104,0,1.2184,,,,,,,,,,,,0.0,89.49,79.2,118.23,,,,,,,,,,,,,,,,,,,,,,,,,,,,,,,,,,,,,,,,,,,,,,,,,,,,,,,,,,,
73114,0,1.2186,,,,,,,,,,,,0.0,89.58,79.44,122.28,,,,,,,,,,,,,,0,0,0,0,0,0,0,0,0,0,0,0,0,0,0,0,0,0,0,0,0,0,0,0,0,0,0,0,0,0,0,0,,,,,,,,,,,,,,
73124,0,1.2187,,,,,,,,,,,,0.0,89.49,79.2,119.88,,,,,,,,,,,,,,,,,,,,,,,,,,,,,,,,,,,,,,,,,,,,,,,,,,,,,,,,,,,
73134,0,1.2189,,0.04,0.05,-0.03,0,0,0,0.07,0.47,16,,0.0,89.58,79.44,123.51,,,,,,,,,,,,,,0,0,0,0,0,0,0,0,0,0,0,0,0,0,0,0,0,0,0,0,0,0,0,0,0,0,0,0,0,0,0,0,,,,,,,,,,,,,,
73144,0,1.2191,,,,,,,,,,,,0.0,89.49,79.2,117.78,,,,,,,,,,,,,,,,,,,,,,,,,,,,,,,,,,,,,,,,,,,,,,,,,,,,,,,,,,,
73154,0,1.2192,,,,,,,,,,,1,0.0,89.58,79.44,121.62,2917,63.2,18.6,0,11.0,0.0,0.0,0.0,0.0,63.0,12.0,264.08,181.75,0,0,0,0,0,0,0,0,0,0,0,0,0,0,0,0,0,0,0,0,0,0,0,0,0,0,0,0,0,0,0,0,0.0,0.0,0.0,0.0,0,0,0.0,0,0.0,-1,0.0,0,0.0,1.2192
73164,0,1.2194,,,,,,,,,,,,0.0,89.49,79.32,116.46,,,,,,,,,,,,,,,,,,,,,,,,,,,,,,,,,,,,,,,,,,,,,,,,,,,,,,,,,,,
73174,0,1.2196,,0.08,0.01,-0.06,0,-0,-0,0.1,0.47,21,,0.0,89.58,79.44,120.96,,,,,,,,,,,,,,0,0,0,0,0,0,0,0,0,0,0,0,0,0,0,0,0,0,0,0,0,0,0,0,0,0,0,0,0,0,0,0,,,,,,,,,,,,,,
73184,0,1.2197,,,,,,,,,,,,0.0,89.49,79.2,115.92,,,,,,,,,,,,,,,,,,,,,,,,,,,,,,,,,,,,,,,,,,,,,,,,,,,,,,,,,,,
73194,0,1.2199,,,,,,,,,,,,0.0,89.58,79.44,118.35,,,,,,,,,,,,,,0,0,0,0,0,0,0,0,0,0,0,0,0,0,0,0,0,0,0,0,0,0,0,0,0,0,0,0,0,0,0,0,,,,,,,,,,,,,,
73204,0,1.2201,,,,,,,,,,,,0.0,89.49,79.2,116.25,,,,,,,,,,,,,,,,,,,,,,,,,,,,,,,,,,,,,,,,,,,,,,,,,,,,,,,,,,,
73214,0,1.2202,,0.14,-0.0,-0.25,0,-0,-1,0.29,0.47,62,,0.0,89.49,79.53,116.25,,,,,,,,,,,,,,0,0,0,0,0,0,0,0,0,0,0,0,0,0,0,0,0,0,0,0,0,0,0,0,0,0,0,0,0,0,0,0,,,,,,,,,,,,,,
73224,0,1.2204,,,,,,,,,,,,0.0,89.49,79.2,121.53,,,,,,,,,,,,,,,,,,,,,,,,,,,,,,,,,,,,,,,,,,,,,,,,,,,,,,,,,,,
73234,0,1.2206,,,,,,,,,,,,0.0,89.58,79.53,117.24,,,,,,,,,,,,,,0,0,0,0,0,0,0,0,0,0,0,0,0,0,0,0,0,0,0,0,0,0,0,0,0,0,0,0,0,0,0,0,,,,,,,,,,,,,,
73244,0,1.2207,,,,,,,,,,,,0.0,89.49,79.2,119.67,,,,,,,,,,,,,,,,,,,,,,,,,,,,,,,,,,,,,,,,,,,,,,,,,,,,,,,,,,,
73254,0,1.2209,,0.17,0.01,-0.29,0,0,-1,0.34,0.47,73,1,0.0,89.49,79.53,120.96,3008,62.3,18.6,0,11.0,0.0,0.0,0.0,0.0,63.0,12.1,264.08,181.75,0,0,0,0,0,0,0,0,0,0,0,0,0,0,0,0,0,0,0,0,0,0,0,0,0,0,0,0,0,0,0,0,0.0,0.0,0.0,0.0,0,0,0.0,0,0.0,-1,0.0,0,0.0,1.2209
73264,0,1.2211,,,,,,,,,,,,0.0,89.49,79.32,118.02,,,,,,,,,,,,,,,,,,,,,,,,,,,,,,,,,,,,,,,,,,,,,,,,,,,,,,,,,,,
73274,0,1.2212,,,,,,,,,,,,0.0,89.49,79.53,121.62,,,,,,,,,,,,,,0,0,0,0,0,0,0,0,0,0,0,0,0,0,0,0,0,0,0,0,0,0,0,0,0,0,0,0,0,0,0,0,,,,,,,,,,,,,,
73284,0,1.2214,,,,,,,,,,,,0.0,89.58,79.32,118.35,,,,,,,,,,,,,,,,,,,,,,,,,,,,,,,,,,,,,,,,,,,,,,,,,,,,,,,,,,,
73294,0,1.2216,,0.17,0.01,-0.22,-0,0,-0,0.28,0.47,59,,0.0,89.49,79.32,117.69,,,,,,,,,,,,,,0,0,0,0,0,0,0,0,0,0,0,0,0,0,0,0,0,0,0,0,0,0,0,0,0,0,0,0,0,0,0,0,,,,,,,,,,,,,,
73304,0,1.2217,,,,,,,,,,,,0.0,89.58,79.32,118.35,,,,,,,,,,,,,,,,,,,,,,,,,,,,,,,,,,,,,,,,,,,,,,,,,,,,,,,,,,,
73314,0,1.2219,,,,,,,,,,,,0.0,89.49,79.44,115.92,,,,,,,,,,,,,,0,0,0,0,0,0,0,0,0,0,0,0,0,0,0,0,0,0,0,0,0,0,0,0,0,0,0,0,0,0,0,0,,,,,,,,,,,,,,
73324,0,1.2221,,,,,,,,,,,,0.0,89.58,79.32,118.23,,,,,,,,,,,,,,,,,,,,,,,,,,,,,,,,,,,,,,,,,,,,,,,,,,,,,,,,,,,
73334,0,1.2222,,0.2,0.0,-0.15,-0,1,-0,0.26,0.47,55,,0.0,89.49,79.32,114.72,,,,,,,,,,,,,,0,0,0,0,0,0,0,0,0,0,0,0,0,0,0,0,0,0,0,0,0,0,0,0,0,0,0,0,0,0,0,0,,,,,,,,,,,,,,
73344,0,1.2224,,,,,,,,,,,,0.0,89.58,79.44,119.88,,,,,,,,,,,,,,,,,,,,,,,,,,,,,,,,,,,,,,,,,,,,,,,,,,,,,,,,,,,
73354,0,1.2226,,,,,,,,,,,1,0.0,89.49,79.32,116.79,2917,61.5,18.6,0,11.0,0.0,0.0,0.0,0.0,63.0,12.1,264.08,181.75,0,0,0,0,0,0,0,0,0,0,0,0,0,0,0,0,0,0,0,0,0,0,0,0,0,0,0,0,0,0,0,0,0.0,0.0,0.0,0.0,0,0,0.0,0,0.0,-1,0.0,0,0.0,1.2226
73364,0,1.2227,,,,,,,,,,,,0.0,89.58,79.32,120.42,,,,,,,,,,,,,,,,,,,,,,,,,,,,,,,,,,,,,,,,,,,,,,,,,,,,,,,,,,,
73374,0,1.2229,,0.12,0.02,-0.1,0,-0,-0,0.16,0.47,34,,0.0,89.49,79.32,115.8,,,,,,,,,,,,,,0,0,0,0,0,0,0,0,0,0,0,0,0,0,0,0,0,0,0,0,0,0,0,0,0,0,0,0,0,0,0,0,,,,,,,,,,,,,,
73384,0,1.2231,,,,,,,,,,,,0.0,89.58,79.44,117.36,,,,,,,,,,,,,,,,,,,,,,,,,,,,,,,,,,,,,,,,,,,,,,,,,,,,,,,,,,,
73394,0,1.2232,,,,,,,,,,,,0.0,89.49,79.32,114.6,,,,,,,,,,,,,,0,0,0,0,0,0,0,0,0,0,0,0,0,0,0,0,0,0,0,0,0,0,0,0,0,0,0,0,0,0,0,0,,,,,,,,,,,,,,
73404,0,1.2234,,,,,,,,,,,,0.0,89.58,79.44,117.36,,,,,,,,,,,,,,,,,,,,,,,,,,,,,,,,,,,,,,,,,,,,,,,,,,,,,,,,,,,
73414,0,1.2236,,0.02,0.02,0.14,0,0,0,0.14,0.47,31,,0.0,89.49,79.2,112.74,,,,,,,,,,,,,,0,0,0,0,0,0,0,0,0,0,0,0,0,0,0,0,0,0,0,0,0,0,0,0,0,0,0,0,0,0,0,0,,,,,,,,,,,,,,
73424,0,1.2237,,,,,,,,,,,,0.0,89.58,79.53,116.04,,,,,,,,,,,,,,,,,,,,,,,,,,,,,,,,,,,,,,,,,,,,,,,,,,,,,,,,,,,
73434,0,1.2239,,,,,,,,,,,,0.0,89.58,79.2,119.88,,,,,,,,,,,,,,0,0,0,0,0,0,0,0,0,0,0,0,0,0,0,0,0,0,0,0,0,0,0,0,0,0,0,0,0,0,0,0,,,,,,,,,,,,,,
73444,0,1.2241,,,,,,,,,,,,0.0,89.58,79.53,118.77,,,,,,,,,,,,,,,,,,,,,,,,,,,,,,,,,,,,,,,,,,,,,,,,,,,,,,,,,,,
73454,0,1.2242,,-0.01,0.04,-0.04,0,-0,-0,0.06,0.47,12,1,0.0,89.58,79.32,118.56,2786,61.4,18.6,0,10.0,0.0,0.0,0.0,0.0,63.0,12.1,264.08,181.75,0,0,0,0,0,0,0,0,0,0,0,0,0,0,0,0,0,0,0,0,0,0,0,0,0,0,0,0,0,0,0,0,0.0,0.0,0.0,0.0,0,0,0.0,0,0.0,-1,0.0,0,0.0,1.2242
73464,0,1.2244,,,,,,,,,,,,0.0,89.49,79.44,115.14,,,,,,,,,,,,,,,,,,,,,,,,,,,,,,,,,,,,,,,,,,,,,,,,,,,,,,,,,,,
73474,0,1.2246,,,,,,,,,,,,0.0,89.58,79.44,116.13,,,,,,,,,,,,,,0,0,0,0,0,0,0,0,0,0,0,0,0,0,0,0,0,0,0,0,0,0,0,0,0,0,0,0,0,0,0,0,,,,,,,,,,,,,,
73484,0,1.2247,,,,,,,,,,,,0.0,89.58,79.32,114.72,,,,,,,,,,,,,,,,,,,,,,,,,,,,,,,,,,,,,,,,,,,,,,,,,,,,,,,,,,,
73494,0,1.2249,,0.02,0.02,0.05,0,0,0,0.05,0.47,12,,0.0,89.49,79.32,113.07,,,,,,,,,,,,,,0,0,0,0,0,0,0,0,0,0,0,0,0,0,0,0,0,0,0,0,0,0,0,0,0,0,0,0,0,0,0,0,,,,,,,,,,,,,,
73504,0,1.2251,,,,,,,,,,,,0.0,89.58,79.44,116.91,,,,,,,,,,,,,,,,,,,,,,,,,,,,,,,,,,,,,,,,,,,,,,,,,,,,,,,,,,,
73514,0,1.2252,,,,,,,,,,,,0.0,89.58,79.11,112.41,,,,,,,,,,,,,,0,0,0,0,0,0,0,0,0,0,0,0,0,0,0,0,0,0,0,0,0,0,0,0,0,0,0,0,0,0,0,0,,,,,,,,,,,,,,
73524,0,1.2254,,,,,,,,,,,,0.0,89.58,79.44,120.42,,,,,,,,,,,,,,,,,,,,,,,,,,,,,,,,,,,,,,,,,,,,,,,,,,,,,,,,,,,
73534,0,1.2256,,0.1,-0.01,0.06,0,0,0,0.11,0.47,24,,0.0,89.58,79.32,114.39,,,,,,,,,,,,,,0,0,0,0,0,0,0,0,0,0,0,0,0,0,0,0,0,0,0,0,0,0,0,0,0,0,0,0,0,0,0,0,,,,,,,,,,,,,,
73544,0,1.2257,,,,,,,,,,,,0.0,89.58,79.44,119.55,,,,,,,,,,,,,,,,,,,,,,,,,,,,,,,,,,,,,,,,,,,,,,,,,,,,,,,,,,,
73554,0,1.2259,,,,,,,,,,,1,0.0,89.58,79.32,116.58,2686,61.7,18.6,0,10.0,0.0,0.0,0.0,0.0,63.0,12.1,264.08,181.75,0,0,0,0,0,0,0,0,0,0,0,0,0,0,0,0,0,0,0,0,0,0,0,0,0,0,0,0,0,0,0,0,0.0,0.0,0.0,0.0,0,0,0.0,0,0.0,-1,0.0,0,0.0,1.2259
73564,0,1.2261,,,,,,,,,,,,0.0,89.49,79.2,116.46,,,,,,,,,,,,,,,,,,,,,,,,,,,,,,,,,,,,,,,,,,,,,,,,,,,,,,,,,,,
73574,0,1.2262,,0.05,0.0,-0.23,0,1,-0,0.23,0.47,50,,0.0,89.58,79.32,116.46,,,,,,,,,,,,,,0,0,0,0,0,0,0,0,0,0,0,0,0,0,0,0,0,0,0,0,0,0,0,0,0,0,0,0,0,0,0,0,,,,,,,,,,,,,,
73584,0,1.2264,,,,,,,,,,,,0.0,89.49,79.11,118.56,,,,,,,,,,,,,,,,,,,,,,,,,,,,,,,,,,,,,,,,,,,,,,,,,,,,,,,,,,,
73594,0,1.2266,,,,,,,,,,,,0.0,89.49,79.44,120.63,,,,,,,,,,,,,,0,0,0,0,0,0,0,0,0,0,0,0,0,0,0,0,0,0,0,0,0,0,0,0,0,0,0,0,0,0,0,0,,,,,,,,,,,,,,
73604,0,1.2267,,,,,,,,,,,,0.0,89.58,79.11,112.08,,,,,,,,,,,,,,,,,,,,,,,,,,,,,,,,,,,,,,,,,,,,,,,,,,,,,,,,,,,
73614,0,1.2269,,0.09,0.03,-0.15,0,1,-0,0.18,0.47,38,,0.0,89.49,79.44,119.1,,,,,,,,,,,,,,0,0,0,0,0,0,0,0,0,0,0,0,0,0,0,0,0,0,0,0,0,0,0,0,0,0,0,0,0,0,0,0,,,,,,,,,,,,,,
73624,0,1.2271,,,,,,,,,,,,0.0,89.58,79.32,119.22,,,,,,,,,,,,,,,,,,,,,,,,,,,,,,,,,,,,,,,,,,,,,,,,,,,,,,,,,,,
73634,0,1.2272,,,,,,,,,,,,0.0,89.58,79.32,118.23,,,,,,,,,,,,,,0,0,0,0,0,0,0,0,0,0,0,0,0,0,0,0,0,0,0,0,0,0,0,0,0,0,0,0,0,0,0,0,,,,,,,,,,,,,,
73644,0,1.2274,,,,,,,,,,,,0.0,89.58,79.32,118.77,,,,,,,,,,,,,,,,,,,,,,,,,,,,,,,,,,,,,,,,,,,,,,,,,,,,,,,,,,,
73654,0,1.2276,,-0.04,0.05,-0.13,0,0,-1,0.15,0.47,31,1,0.0,89.49,79.2,116.04,2670,62.3,18.6,0,10.0,0.0,0.0,0.0,0.0,62.0,12.1,261.52,181.75,0,0,0,0,0,0,0,0,0,0,0,0,0,0,0,0,0,0,0,0,0,0,0,0,0,0,0,0,0,0,0,0,0.0,0.0,0.0,0.0,0,0,0.0,0,0.0,-1,0.0,0,0.0,1.2276
73664,0,1.2277,,,,,,,,,,,,0.0,89.49,79.32,119.43,,,,,,,,,,,,,,,,,,,,,,,,,,,,,,,,,,,,,,,,,,,,,,,,,,,,,,,,,,,
