Time,Utc,ElapsedTime,Battery,AccelX,AccelY,AccelZ,Yaw,Pitch,Roll,Gsum,GsumMax,GsumPct,StAngle,SuspPosFL,SuspPosFR,SuspPosRL,SuspPosRR,ADL_BAT,RPM,TPS,IAT,MAP,LambdaAim,Lambda,ECU_BAT,FuelCut,InjDuty,BrakePres-F,BrakePres-R,AuxUpDuty,AuxDownDuty,EngineTemp,WheelSpdRL,WheelSpdRR,WheelSpdFL,WheelSpdFR,Gear,TireTmpLF1,TireTmpLF2,TireTmpLF3,TireTmpLF4,TireTmpLF5,TireTmpLF6,TireTmpLF7,TireTmpLF8,TireTmpRF1,TireTmpRF2,TireTmpRF3,TireTmpRF4,TireTmpRF5,TireTmpRF6,TireTmpRF7,TireTmpRF8,TireTmpLR1,TireTmpLR2,TireTmpLR3,TireTmpLR4,TireTmpLR5,TireTmpLR6,TireTmpLR7,TireTmpLR8,TireTmpRR1,TireTmpRR2,TireTmpRR3,TireTmpRR4,TireTmpRR5,TireTmpRR6,TireTmpRR7,TireTmpRR8,Latitude,Longitude,Speed,Altitude,GPSSats,GPSQual,GPSDOP,LapCount,LapTime,Sector,SectorTime,CurrentLap,Distance,SessionTime
0,0,2,0,0.1,-0.02,0,0,2,1,0.29,2,14,0,112,28,67,123,0,0,0,0,0,0,0,0,0,0,0,0,0,0,0,0,0,0,0,0,40,43,44,44,44,44,44,43,40,44,44,44,44,44,44,42,36,38,39,40,40,38,38,36,40,41,40,40,40,40,38,36,0,0,0,0,0,0,0,0,0,0,0,0,0,0
0.1,0,2,0,0.08,-0.04,0,0,2,1,0.1,2,5,-1,111,29,67,120,12.7,3534,1,33,53,0.96,0.84,12.43,0,127,52,53,0,0,60,0,0,0,0,1,40,42,43,44,44,44,43,42,40,44,44,44,44,44,43,42,36,38,39,40,39,38,38,36,40,41,41,41,40,40,38,36,0,0,0,0,0,0,0,0,0,-1,0,0,0,2
0.2,0,2,0,0.04,0.04,0,0,2,0,0.1,2,5,-1,112,28,66,122,12.71,3482,1,33,53,0.96,0.84,12.43,0,117,52,53,0,0,60,0,0,0,0,1,40,43,44,44,44,44,44,43,40,44,44,44,44,44,44,42,36,39,39,40,39,38,38,36,40,41,41,41,40,40,38,36,0,0,0,0,0,0,0,0,0,-1,0,0,0,2
0.3,0,2,13,-0.02,0.02,0,0,2,0,0.17,2,8,-1,111,29,67,123,12.75,3267,1,33,53,0.96,0.84,12.43,0,114,52,53,0,0,60,0,0,0,0,1,40,42,43,44,44,44,44,42,40,44,44,44,44,44,43,42,36,38,39,40,39,39,38,36,40,42,41,41,40,40,38,36,0,0,0,0,0,0,0,0,0,-1,0,0,0,2
0.4,0,2,13,-0.03,0,0,0,0,0,0.03,2,2,-1,112,28,66,122,12.73,3339,1,33,51,0.96,0.84,12.42,0,121,52,53,0,0,60,0,0,0,0,1,40,43,44,44,44,44,44,43,40,44,44,44,44,44,43,42,36,38,39,39,39,38,38,36,40,41,41,41,40,40,38,36,0,0,0,0,0,0,0,0,0,-1,0,0,0,2
0.5,0,2,13,0.04,0.01,0,0,0,0,0.09,2,4,-1,112,28,66,121,12.71,3240,1,33,59,0.96,0.85,12.43,0,115,52,53,0,0,60,0,0,0,0,1,40,43,44,44,44,44,44,43,40,44,44,44,44,44,43,42,36,38,39,40,40,38,38,36,40,42,41,41,40,40,38,36,0,0,0,0,0,0,0,0,0,-1,0,0,0,2
0.6,0,2,13,-0.08,0.03,0,0,-2,0,0.09,2,4,-1,111,28,67,123,12.75,3413,1,33,55,0.96,0.82,12.44,0,118,52,53,0,0,60,0,0,0,0,1,40,43,44,44,44,44,44,43,40,44,44,44,44,44,43,42,36,38,39,39,39,38,38,36,40,41,41,41,40,40,38,36,0,0,0,0,0,0,0,0,0,-1,0,0,0,2
0.7,0,2,13,-0.07,0.06,0,0,-2,-1,0.21,2,10,-1,112,28,66,121,12.77,3377,1,32,54,0.96,0.82,12.44,0,118,52,53,0,0,60,0,0,0,0,1,40,43,44,44,44,44,44,43,40,44,44,44,44,44,43,42,36,39,40,40,40,39,38,36,40,41,41,41,40,40,38,36,0,0,0,0,0,0,0,0,0,-1,0,0,0,2
0.8,0,2,13,0.11,0.04,0,0,0,0,0.13,2,6,-1,112,28,66,122,12.74,3211,1,32,54,0.96,0.81,12.45,0,119,52,53,0,0,60,0,0,0,0,1,40,43,44,44,44,44,44,43,40,44,44,44,44,44,44,42,36,38,39,39,39,38,38,36,40,41,41,41,40,40,38,36,0,0,0,0,0,0,0,0,0,-1,0,0,0,2
0.9,0,2,13,-0.05,0.03,0,0,-1,0,0.09,2,4,-1,111,29,67,121,12.7,3271,1,32,52,0.96,0.85,12.45,0,117,52,53,0,0,60,0,0,0,0,1,40,43,44,44,44,44,44,43,40,44,44,44,44,44,44,42,36,38,39,39,39,38,37,36,40,41,41,41,40,40,38,36,0,0,0,0,0,0,0,0,0,-1,0,0,0,2
1,0,2,13,-0.09,0.02,0,0,-1,-1,0.1,2,5,-1,112,28,66,123,12.71,3353,1,32,56,0.96,0.84,12.45,0,112,52,52,0,0,60,0,0,0,0,1,40,43,44,44,44,44,44,42,40,44,44,44,44,44,43,42,36,38,39,39,39,38,38,36,40,41,41,41,40,40,38,36,0,0,0,0,0,0,0,0,0,-1,0,0,0,2
1.1,0,2,13,0.02,0.03,0,0,0,0,0.04,2,2,-1,111,28,67,123,12.78,3424,1,32,56,0.96,0.83,12.45,0,120,52,53,0,0,60,0,0,0,0,1,40,43,44,44,44,44,44,42,40,44,44,44,44,44,44,42,36,38,39,40,39,38,38,36,40,42,41,41,40,40,38,36,0,0,0,0,0,0,0,0,0,-1,0,0,0,2
1.2,0,2,13,-0.04,0.01,0,0,1,1,0.12,2,6,-1,111,28,67,121,12.76,3518,1,32,56,0.96,0.85,12.45,0,117,52,52,0,0,60,0,0,0,0,1,40,43,44,44,44,44,44,43,40,44,44,44,44,44,43,42,36,38,39,40,39,38,38,36,40,41,41,41,40,40,38,36,0,0,0,0,0,0,0,0,0,-1,0,0,0,2
1.3,0,2,13,0.02,0.06,0,0,1,0,0.08,2,4,-1,111,28,66,120,12.7,3267,1,32,54,0.96,0.84,12.45,0,111,52,52,0,0,60,0,0,0,0,1,40,43,44,44,44,44,44,43,40,44,44,44,44,44,43,42,36,38,39,40,39,38,38,36,40,42,41,41,40,40,38,36,0,0,0,0,0,0,0,0,0,-1,0,0,0,2
1.4,0,2,13,-0.04,0.02,0,0,0,0,0.07,2,3,-1,111,28,67,120,12.7,3319,1,32,52,0.96,0.85,12.44,0,122,52,52,0,0,60,0,0,0,0,1,40,43,44,44,44,44,44,43,40,44,44,44,44,44,43,42,36,38,39,39,39,38,38,36,40,41,41,41,40,40,38,36,0,0,0,0,0,0,0,0,0,-1,0,0,0,2
1.5,0,2,13,0.04,0.01,0,0,-2,0,0.14,2,7,-1,111,29,66,120,12.74,3346,1,32,56,0.96,0.84,12.45,0,116,52,52,0,0,60,0,0,0,0,1,40,43,44,44,44,44,44,43,40,44,44,44,44,44,43,42,36,38,39,40,39,38,38,36,40,42,41,41,41,40,38,36,0,0,0,0,0,0,0,0,0,-1,0,0,0,2
1.6,0,2,13,-0.02,0.06,0,0,0,0,0.14,2,7,-1,112,28,67,122,12.74,3436,1,32,57,0.96,0.83,12.45,0,113,52,52,0,0,60,0,0,0,0,1,40,43,44,44,44,44,44,43,40,44,44,44,44,44,43,42,36,38,39,39,39,38,38,36,40,42,41,41,41,40,38,36,0,0,0,0,0,0,0,0,0,-1,0,0,0,2
1.7,0,2,13,-0.11,0.03,0,0,-1,0,0.13,2,6,-1,111,28,67,120,12.73,3543,1,32,56,0.96,0.85,12.44,0,121,52,52,0,0,60,0,0,0,0,1,40,43,44,44,44,44,44,43,40,44,44,44,44,44,43,42,36,38,39,39,39,38,38,36,40,42,41,41,40,40,38,36,0,0,0,0,0,0,0,0,0,-1,0,0,0,2
1.8,0,2,13,0.04,0.03,0,0,-2,0,0.17,2,8,-1,111,28,66,121,12.72,3356,1,32,55,0.96,0.84,12.45,0,120,52,52,0,0,60,0,0,0,0,1,40,43,44,44,44,44,44,43,40,44,44,44,44,44,43,42,36,39,39,40,40,38,38,36,40,41,41,41,40,40,38,36,0,0,0,0,0,0,0,0,0,-1,0,0,0,2
1.9,0,2,13,0.03,-0.01,0,0,-1,0,0.28,2,13,-1,112,28,67,119,12.71,3205,1,32,53,0.96,0.84,12.45,0,115,52,52,0,0,60,0,0,0,0,1,40,43,44,44,44,44,44,43,40,44,44,44,44,44,44,42,36,38,39,39,39,38,38,36,40,41,41,41,40,40,38,36,0,0,0,0,0,0,0,0,0,-1,0,0,0,2
2,0,2,13,-0.15,0.04,0,0,-2,0,0.2,2,10,-1,111,29,67,119,12.76,3415,1,32,55,0.96,0.85,12.45,0,114,52,52,0,0,60,0,0,0,0,1,40,43,44,44,44,44,44,43,40,44,44,44,44,44,43,42,36,38,39,39,39,38,38,36,40,42,41,41,40,40,38,36,0,0,0,0,0,0,0,0,0,-1,0,0,0,2
2.1,0,2,13,0.02,0.05,0,0,0,0,0.06,2,3,-1,111,29,67,121,12.74,3429,1,32,57,0.96,0.84,12.45,0,119,52,52,0,0,60,0,0,0,0,1,40,43,44,44,44,44,44,43,40,44,44,44,44,44,43,42,36,38,39,39,39,38,38,36,40,42,41,42,41,40,39,36,0,0,0,0,0,0,0,0,0,-1,0,0,0,2
2.2,0,2,13,0.02,0.04,0,0,1,0,0.19,2,9,-1,111,29,67,125,12.74,3657,1,32,56,0.96,0.86,12.45,0,120,52,52,0,0,60,0,0,0,0,1,40,43,44,44,44,44,44,43,40,44,44,44,44,44,43,42,36,38,40,40,39,38,38,36,40,42,41,41,40,40,38,36,0,0,0,0,0,0,0,0,0,-1,0,0,0,2
2.3,0,2,13,-0.03,0,0,0,1,0,0.16,2,8,-1,112,29,67,120,12.75,3674,1,32,54,0.96,0.85,12.44,0,127,52,52,0,0,60,0,0,0,0,1,40,43,44,44,44,44,44,43,40,44,44,44,44,44,43,42,36,38,39,40,40,38,38,36,40,41,41,41,40,40,38,36,0,0,0,0,0,0,0,0,0,-1,0,0,0,2
2.4,0,2,13,-0.02,0.01,0,0,0,0,0.47,2,22,-1,112,29,67,118,12.75,3831,1,32,54,0.96,0.82,12.45,0,127,52,52,0,0,60,0,0,0,0,1,40,44,44,44,44,44,44,44,40,44,44,44,44,44,43,42,36,38,39,40,39,39,38,36,40,42,41,41,40,40,38,36,0,0,0,0,0,0,0,0,0,-1,0,0,0,2
2.5,0,2,13,-0.06,0.01,0,0,0,0,0.31,2,15,-1,111,29,67,122,12.7,3657,1,32,53,0.96,0.8,12.44,0,127,52,52,0,0,60,0,0,0,0,1,40,43,44,44,44,44,44,43,40,44,44,44,44,44,43,42,36,39,39,40,39,39,38,36,40,42,41,41,40,40,38,36,0,0,0,0,0,0,0,0,0,-1,0,0,0,2
2.6,0,2,13,0.09,0.02,0,0,-2,0,0.14,2,7,-1,112,29,67,121,12.71,3394,1,32,53,0.96,0.82,12.45,0,118,52,52,0,0,60,0,0,0,0,1,40,43,44,44,44,44,44,43,40,44,44,44,44,44,43,42,36,39,39,40,40,39,38,36,40,41,41,41,40,40,38,36,0,0,0,0,0,0,0,0,0,-1,0,0,0,2
2.7,0,2,13,-0.01,0.04,0,0,-2,-1,0.19,2,9,-1,111,29,67,118,12.74,3214,1,32,52,0.96,0.84,12.45,0,118,52,52,0,0,60,0,0,0,0,1,40,43,44,44,44,44,44,42,40,44,44,44,44,44,43,42,36,38,40,40,40,39,38,36,40,42,41,42,40,40,38,36,0,0,0,0,0,0,0,0,0,-1,0,0,0,2
2.8,0,2,13,0.03,0.04,0,0,1,0,0.05,2,3,-2,112,28,67,119,12.75,3475,1,32,51,0.96,0.83,12.44,0,129,52,52,0,0,60,0,0,0,0,1,40,43,44,44,44,44,44,43,40,44,44,44,44,44,43,42,36,38,39,40,39,38,38,36,40,41,41,41,40,40,38,36,0,0,0,0,0,0,0,0,0,-1,0,0,0,2
2.9,0,2,13,-0.05,0.05,0,0,-1,-1,0.15,2,7,-1,111,28,67,118,12.73,3387,1,32,51,0.96,0.83,12.44,0,121,52,52,0,0,60,0,0,0,0,1,40,43,44,44,44,44,44,43,40,44,44,44,44,44,43,42,36,38,39,40,39,38,38,36,40,41,40,41,40,40,38,36,0,0,0,0,0,0,0,0,0,-1,0,0,0,2
3,0,2,13,0.09,-0.01,0,0,-1,0,0.09,2,5,-1,112,28,66,120,12.74,3255,1,32,57,0.96,0.81,12.45,0,111,52,52,0,0,60,0,0,0,0,1,40,43,44,44,44,44,44,42,40,44,44,44,44,44,43,42,36,38,39,40,39,38,38,36,40,41,40,41,40,40,38,36,0,0,0,0,0,0,0,0,0,-1,0,0,0,2
3.1,0,2,13,0,0.02,0,0,0,0,0.16,2,8,-1,111,29,67,119,12.66,3433,1,32,56,0.96,0.83,12.43,0,120,52,52,0,0,60,0,0,0,0,1,40,43,44,44,44,44,44,43,40,44,44,44,44,44,43,42,36,38,39,40,40,39,38,36,40,41,40,40,40,40,38,36,0,0,0,0,0,0,0,0,0,-1,0,0,0,2
3.2,0,2,13,0.02,0.03,0,0,1,0,0.11,2,5,-1,111,28,66,119,12.68,3454,1,32,55,0.96,0.83,12.44,0,112,52,52,0,0,60,0,0,0,0,1,40,43,44,44,44,44,44,43,40,44,44,44,44,44,43,42,36,38,39,40,39,38,38,36,40,42,41,41,40,40,38,36,0,0,0,0,0,0,0,0,0,-1,0,0,0,2
3.3,0,2,13,0.11,0.05,0,0,2,0,0.18,2,9,-1,112,28,66,120,12.73,3300,1,32,54,0.96,0.84,12.43,0,114,52,52,0,0,60,0,0,0,0,1,40,43,44,44,44,44,44,43,40,44,44,44,44,44,43,42,36,38,39,40,39,38,38,36,40,41,41,41,40,40,38,36,0,0,0,0,0,0,0,0,0,-1,0,0,0,2
3.4,0,2,13,0.06,0.02,0,0,2,0,0.19,2,9,-1,111,29,67,117,12.68,3328,1,32,53,0.96,0.82,12.44,0,123,52,52,0,0,60,0,0,0,0,1,40,43,44,44,44,44,44,43,40,44,44,44,44,44,43,42,36,38,39,39,40,38,38,36,40,41,40,40,40,40,38,36,0,0,0,0,0,0,0,0,0,-1,0,0,0,2
3.5,0,2,13,0.05,0.01,0,0,3,1,0.26,2,12,-1,112,28,67,118,12.7,3457,1,32,53,0.96,0.84,12.43,0,120,52,52,0,0,60,0,0,0,0,1,40,42,44,44,44,44,44,43,40,44,44,44,44,44,43,42,36,38,39,40,39,38,38,36,40,41,40,41,40,40,38,36,0,0,0,0,0,0,0,0,0,-1,0,0,0,2
3.6,0,2,13,0.01,0.03,0,0,2,0,0.12,2,6,-1,111,28,66,120,12.69,3439,1,32,58,0.96,0.82,12.43,0,114,52,52,0,0,60,0,0,0,0,1,40,43,44,44,44,44,44,43,40,44,44,44,44,44,43,42,36,38,39,40,39,39,38,36,40,41,40,40,40,40,38,36,0,0,0,0,0,0,0,0,0,-1,0,0,0,2
3.7,0,2,13,0.04,0.06,0,0,0,0,0.17,2,8,-1,112,28,66,118,12.74,3411,1,32,56,0.96,0.83,12.43,0,122,52,52,0,0,60,0,0,0,0,1,40,43,44,44,44,44,44,42,40,44,44,44,44,44,43,42,36,39,39,40,40,38,38,36,40,41,40,40,40,40,38,36,0,0,0,0,0,0,0,0,0,-1,0,0,0,2
3.8,0,2,13,-0.14,0.04,0,0,-3,-1,0.16,2,8,-1,111,29,67,120,12.72,3454,1,32,55,0.96,0.85,12.43,0,121,52,52,0,0,60,0,0,0,0,1,40,43,44,44,44,44,44,42,40,44,44,44,44,44,43,42,36,38,39,40,39,38,38,36,40,41,40,40,40,40,38,36,0,0,0,0,0,0,0,0,0,-1,0,0,0,2
3.9,0,2,13,0.09,0.03,0,0,-1,-1,0.12,2,6,-1,112,28,66,119,12.66,3475,1,32,54,0.96,0.82,12.42,0,115,52,52,0,0,60,0,0,0,0,1,40,43,44,44,44,44,44,42,40,44,44,44,44,44,43,42,36,39,40,40,40,39,38,36,40,41,40,41,40,40,38,36,0,0,0,0,0,0,0,0,0,-1,0,0,0,2
4,0,2,13,-0.06,0.06,0,0,-1,0,0.09,2,4,-1,111,28,67,120,12.72,3115,1,32,54,0.96,0.84,12.41,0,120,52,52,0,0,60,0,0,0,0,1,40,43,44,44,44,44,44,43,40,44,44,44,44,44,43,42,36,39,39,39,39,39,38,36,40,41,41,41,40,40,38,36,0,0,0,0,0,0,0,0,0,-1,0,0,0,2
4.1,0,2,13,0,0.04,0,0,-1,-1,0.08,2,4,-1,111,28,67,119,12.7,3287,1,32,55,0.96,0.86,12.41,0,114,52,52,0,0,60,0,0,0,0,1,40,43,44,44,44,44,44,43,40,44,44,44,44,44,43,42,36,38,40,40,39,38,38,36,40,41,40,40,40,40,38,36,0,0,0,0,0,0,0,0,0,-1,0,0,0,2
4.2,0,2,13,0.02,0.05,0,0,0,0,0.09,2,4,-1,111,28,67,117,12.69,3387,1,32,57,0.96,0.87,12.41,0,112,52,52,0,0,60,0,0,0,0,1,40,43,44,44,44,44,44,43,40,44,44,44,44,44,43,42,36,38,39,40,39,38,38,36,40,41,41,41,40,40,38,36,0,0,0,0,0,0,0,0,0,-1,0,0,0,2
4.3,0,2,13,-0.09,0.03,0,0,1,0,0.2,2,10,-1,112,28,67,119,12.69,3545,1,32,56,0.96,0.89,12.42,0,124,52,52,0,0,60,0,0,0,0,1,40,43,44,44,44,44,44,43,40,44,44,44,44,44,43,42,36,39,39,40,40,38,38,36,40,41,40,41,40,40,38,36,0,0,0,0,0,0,0,0,0,-1,0,0,0,2
4.4,0,2,13,-0.04,0,0,0,1,1,0.11,2,5,-1,112,28,67,121,12.65,3745,1,32,55,0.96,0.83,12.42,0,127,52,52,0,0,60,0,0,0,0,1,40,43,44,44,44,44,44,43,40,44,44,44,44,44,43,42,37,39,40,40,40,39,38,36,40,41,40,40,40,40,38,36,0,0,0,0,0,0,0,0,0,-1,0,0,0,2
4.5,0,2,13,-0.07,0.02,0,0,1,0,0.21,2,10,-1,112,28,67,121,12.69,3740,1,32,54,0.96,0.83,12.41,0,125,51,51,0,0,60,0,0,0,0,1,40,43,44,44,44,44,44,43,40,44,44,44,44,44,43,42,36,39,40,40,40,39,38,36,40,40,40,40,40,39,38,35,0,0,0,0,0,0,0,0,0,-1,0,0,0,2
4.6,0,2,13,-0.03,0.05,0,0,1,0,0.2,2,10,-1,112,28,67,118,12.66,3501,1,32,53,0.96,0.86,12.42,0,125,49,50,0,0,60,0,0,0,0,1,40,43,44,44,44,44,44,43,40,44,44,44,44,44,43,42,36,39,40,40,40,39,38,36,40,41,40,40,40,39,38,35,0,0,0,0,0,0,0,0,0,-1,0,0,0,2
4.7,0,2,13,-0.05,0.04,0,0,0,0,0.32,2,15,-1,112,28,67,118,12.67,3236,1,32,53,0.96,0.84,12.42,0,115,49,49,0,0,60,0,0,0,0,1,40,43,44,44,44,44,44,43,40,44,44,44,44,44,43,42,36,38,40,40,40,39,38,36,40,41,40,40,40,39,38,36,0,0,0,0,0,0,0,0,0,-1,0,0,0,2
4.8,0,2,13,0.01,0.03,0,0,-1,0,0.08,2,4,-1,112,28,67,117,12.73,3403,1,32,52,0.96,0.81,12.41,0,124,49,49,0,0,60,0,0,0,0,1,40,43,44,44,44,44,44,43,40,44,44,44,44,44,43,42,36,38,39,40,39,39,38,36,40,41,40,40,40,40,38,36,0,0,0,0,0,0,0,0,0,-1,0,0,0,2
4.9,0,2,13,0.15,0,0,0,1,1,0.16,2,7,-1,111,28,67,119,12.71,3357,1,32,59,0.96,0.83,12.41,0,118,49,49,0,0,60,0,0,0,0,1,40,43,44,44,44,44,44,43,40,44,44,44,44,44,44,42,36,39,40,40,40,39,38,36,40,41,41,41,40,40,38,36,0,0,0,0,0,0,0,0,0,-1,0,0,0,2
5,0,2,13,-0.02,0.04,0,0,0,0,0.09,2,4,-1,111,28,67,123,12.66,3366,1,32,56,0.96,0.85,12.41,0,118,49,50,0,0,60,0,0,0,0,1,40,43,44,44,44,44,44,43,40,44,44,44,44,44,43,42,36,38,39,40,39,38,38,36,40,41,41,41,40,40,38,36,0,0,0,0,0,0,0,0,0,-1,0,0,0,2
5.1,0,2,13,0.01,0.03,0,0,0,0,0.05,2,2,-1,112,28,66,117,12.65,3545,1,32,55,0.96,0.85,12.41,0,118,49,50,0,0,60,0,0,0,0,1,40,43,44,44,44,44,44,43,40,44,44,44,44,44,43,41,36,39,39,40,40,38,38,36,40,41,41,41,40,40,38,36,0,0,0,0,0,0,0,0,0,-1,0,0,0,2
5.2,0,2,13,0.17,0.02,0,0,2,0,0.18,2,9,-1,111,28,67,119,12.69,3280,1,32,54,0.96,0.87,12.4,0,123,49,50,0,0,60,0,0,0,0,1,40,43,44,44,44,44,44,43,40,44,44,44,44,44,43,42,36,39,39,40,39,39,38,36,40,41,41,41,40,40,38,36,0,0,0,0,0,0,0,0,0,-1,0,0,0,2
5.3,0,2,13,0.04,-0.01,0,0,2,1,0.07,2,3,-1,112,28,67,121,12.73,3229,1,32,53,0.96,0.82,12.4,0,116,49,50,0,0,60,0,0,0,0,1,40,42,44,44,44,44,44,43,40,44,44,44,44,44,43,42,36,39,39,40,39,38,38,36,40,41,40,40,40,40,38,36,0,0,0,0,0,0,0,0,0,-1,0,0,0,2
5.4,0,2,13,-0.11,0.01,0,0,1,0,0.24,2,12,-1,112,28,67,119,12.73,3472,1,32,54,0.96,0.82,12.41,0,117,49,50,0,0,60,0,0,0,0,1,40,42,44,44,44,44,44,42,40,44,44,44,44,44,43,42,36,39,39,40,39,39,38,36,40,41,40,40,40,39,38,36,0,0,0,0,0,0,0,0,0,-1,0,0,0,2
5.5,0,2,13,0,0.04,0,0,-1,0,0.14,2,7,-1,112,28,67,119,12.67,3411,1,32,57,0.96,0.81,12.41,0,122,49,50,0,0,60,0,0,0,0,1,40,42,44,44,44,44,44,43,40,44,44,44,44,44,43,42,36,38,39,39,39,38,38,36,40,41,40,40,40,40,38,36,0,0,0,0,0,0,0,0,0,-1,0,0,0,2
5.6,0,2,13,-0.15,0.03,0,0,-2,0,0.16,2,8,-1,111,28,67,121,12.65,3419,1,32,56,0.96,0.84,12.41,0,121,49,50,0,0,60,0,0,0,0,1,40,42,44,44,44,44,44,43,40,44,44,44,44,44,43,41,36,39,39,40,40,39,38,36,40,41,40,41,40,40,38,36,0,0,0,0,0,0,0,0,0,-1,0,0,0,2
5.7,0,2,13,-0.06,0.04,0,0,-1,-1,0.2,2,9,-1,112,28,66,119,12.73,3542,1,32,55,0.96,0.83,12.41,0,119,49,50,0,0,60,0,0,0,0,1,40,42,43,44,44,44,44,42,40,44,44,44,44,44,43,42,36,39,40,40,40,39,38,36,40,42,40,41,40,40,38,36,0,0,0,0,0,0,0,0,0,-1,0,0,0,2
5.8,0,2,13,0.05,0.02,0,0,1,0,0.11,2,5,-1,112,28,66,120,12.74,3277,1,32,54,0.96,0.83,12.41,0,123,49,50,0,0,60,0,0,0,0,1,40,43,44,44,44,44,44,43,40,44,44,44,44,44,43,42,36,38,39,39,39,38,38,36,40,41,41,41,40,40,38,36,0,0,0,0,0,0,0,0,0,-1,0,0,0,2
5.9,0,2,13,0.16,0.05,0,0,1,1,0.18,2,9,-1,112,28,66,118,12.68,3530,1,32,53,0.96,0.82,12.41,0,122,50,50,0,0,60,0,0,0,0,1,40,42,44,44,44,44,44,43,40,44,44,44,44,44,43,42,36,38,39,39,39,38,38,36,40,41,41,40,40,40,38,36,0,0,0,0,0,0,0,0,0,-1,0,0,0,2
6,0,2,13,0,0.08,0,0,0,1,0.08,2,4,-1,112,28,67,119,12.71,3344,1,32,53,0.96,0.79,12.41,0,127,50,50,0,0,60,0,0,0,0,1,40,43,44,44,44,44,44,43,40,44,44,44,44,44,43,42,36,39,39,40,40,39,38,36,40,41,40,40,40,39,38,35,0,0,0,0,0,0,0,0,0,-1,0,0,0,2
6.1,0,2,13,0.07,0.03,0,0,2,1,0.23,2,11,-1,111,28,67,119,12.7,3408,1,32,52,0.96,0.81,12.41,0,119,49,50,0,0,60,0,0,0,0,1,40,42,44,44,44,44,44,43,40,44,44,44,44,44,43,42,36,39,40,40,40,38,38,36,40,41,41,41,40,40,38,36,0,0,0,0,0,0,0,0,0,-1,0,0,0,2
6.2,0,2,13,0.06,0.03,0,0,2,1,0.14,2,7,-1,111,28,67,118,12.72,3366,1,32,52,0.96,0.82,12.43,0,125,50,50,0,0,60,0,0,0,0,1,40,43,44,44,44,44,44,43,40,44,44,44,44,44,43,42,36,39,39,40,39,39,38,36,40,41,41,40,40,40,38,36,0,0,0,0,0,0,0,0,0,-1,0,0,0,2
6.3,0,2,13,0.03,0.05,0,0,2,0,0.17,2,8,-1,111,28,67,118,12.65,3467,1,32,52,0.96,0.83,12.41,0,122,49,50,0,0,60,0,0,0,0,1,40,43,44,44,44,44,44,43,40,44,44,44,44,44,43,42,36,39,40,40,40,39,38,36,40,41,41,41,40,40,38,36,0,0,0,0,0,0,0,0,0,-1,0,0,0,2
6.4,0,2,13,-0.07,0.07,0,0,0,-1,0.1,2,5,-1,112,28,66,119,12.69,3436,1,32,56,0.96,0.84,12.41,0,116,49,50,0,0,60,0,0,0,0,1,40,42,44,44,44,44,44,43,40,44,44,44,44,44,42,42,36,39,40,40,40,39,38,36,40,42,41,41,40,40,38,36,0,0,0,0,0,0,0,0,0,-1,0,0,0,2
6.5,0,2,13,0.01,0.07,0,0,1,0,0.07,2,3,-1,111,29,67,121,12.73,3517,1,32,56,0.96,0.85,12.41,0,123,50,50,0,0,60,0,0,0,0,1,40,42,44,44,44,44,44,43,40,44,44,44,44,44,43,42,36,38,39,40,40,39,38,36,40,42,41,41,40,40,38,36,0,0,0,0,0,0,0,0,0,-1,0,0,0,2
6.6,0,2,13,0.06,0.02,0,0,2,0,0.07,2,3,-1,112,28,66,119,12.72,3475,1,32,55,0.96,0.86,12.41,0,118,49,50,0,0,60,0,0,0,0,1,40,43,44,44,44,44,44,43,40,44,44,44,44,44,43,42,36,38,39,40,39,38,38,36,40,41,41,41,40,40,38,36,0,0,0,0,0,0,0,0,0,-1,0,0,0,2
6.7,0,2,13,0.15,0,0,0,2,0,0.18,2,9,-1,112,28,66,119,12.67,3545,1,32,55,0.96,0.84,12.41,0,115,49,50,0,0,60,0,0,0,0,1,40,43,44,44,44,44,44,43,40,44,44,44,44,44,42,41,36,38,40,40,39,39,38,36,40,41,41,41,40,40,38,36,0,0,0,0,0,0,0,0,0,-1,0,0,0,2
6.8,0,2,13,-0.02,0.04,0,0,0,0,0.09,2,4,-1,111,28,67,123,12.64,3220,1,32,54,0.96,0.84,12.4,0,120,49,50,0,0,60,0,0,0,0,1,40,42,43,44,44,44,44,43,40,44,44,44,44,44,43,42,36,38,39,40,39,38,38,36,40,41,41,41,40,40,38,36,0,0,0,0,0,0,0,0,0,-1,0,0,0,2
6.9,0,2,13,0.03,0.01,0,0,0,0,0.05,2,2,-1,112,28,66,120,12.73,3306,1,32,54,0.96,0.84,12.41,0,115,49,50,0,0,61,0,0,0,0,1,40,42,44,44,44,44,44,43,40,44,44,44,44,44,42,41,36,38,39,39,39,38,38,36,40,41,40,40,40,39,38,35,0,0,0,0,0,0,0,0,0,-1,0,0,0,2
7,0,2,13,-0.02,0.04,0,0,0,0,0.13,2,6,-1,112,28,67,118,12.7,3380,1,32,57,0.96,0.88,12.41,0,110,49,50,0,0,61,0,0,0,0,1,40,42,43,44,44,44,44,43,40,44,44,44,44,44,42,41,36,38,39,39,39,38,38,36,39,40,40,40,40,38,38,35,0,0,0,0,0,0,0,0,0,-1,0,0,0,2
7.1,0,2,13,0.11,0.06,0,0,1,-1,0.13,2,6,-1,112,28,67,119,12.74,3523,1,32,56,0.96,0.88,12.42,0,116,49,50,0,0,61,0,0,0,0,1,40,42,43,44,44,44,44,43,40,43,44,44,44,44,42,40,36,38,39,39,38,38,37,36,38,40,40,40,40,38,37,34,0,0,0,0,0,0,0,0,0,-1,0,0,0,2
7.2,0,2,13,0.2,0.02,0,0,1,0,0.24,2,12,-1,112,28,67,121,12.63,3066,1,32,55,0.96,0.85,12.42,0,116,50,50,0,0,61,0,0,0,0,1,38,40,42,43,44,44,44,43,40,43,44,44,44,43,42,40,36,38,38,38,38,38,36,35,38,40,40,40,38,38,36,34,0,0,0,0,0,0,0,0,0,-1,0,0,0,2
7.3,0,2,13,0.07,0.06,0,0,0,-1,0.24,2,11,-1,112,27,67,118,12.65,3126,1,32,60,0.96,0.89,12.43,0,111,49,50,0,0,61,0,0,0,0,1,38,39,41,43,44,44,44,43,39,43,44,44,44,42,40,40,35,38,38,38,38,37,36,34,38,39,39,39,38,37,35,34,0,0,0,0,0,0,0,0,0,-1,0,0,0,2
7.4,0,2,13,-0.02,0.06,0,0,0,0,0.18,2,8,-1,112,27,67,121,12.73,2620,1,32,59,0.96,0.89,12.42,0,103,50,50,0,0,61,0,0,0,0,1,36,36,40,42,44,44,44,42,37,40,40,40,40,40,36,38,34,36,37,36,36,36,34,34,36,38,38,38,36,36,34,32,0,0,0,0,0,0,0,0,0,-1,0,0,0,2
7.5,0,2,13,0.09,0.03,0,0,1,0,0.22,2,10,-1,112,27,68,123,12.68,3109,1,32,63,0.96,0.88,12.42,0,108,50,50,0,0,61,0,0,0,0,1,32,34,36,40,41,42,41,40,34,36,37,38,38,37,34,36,32,34,34,34,34,33,32,32,34,34,34,34,34,33,31,30,0,0,0,0,0,0,0,0,0,-1,0,0,0,2
7.6,0,2,13,0.13,0.03,0,0,2,0,0.39,2,19,-1,112,28,68,116,12.62,2666,1,32,61,0.96,0.85,12.42,0,107,49,50,0,0,61,0,0,0,0,1,30,33,36,38,39,39,39,38,34,37,38,38,37,35,34,34,31,32,33,32,32,32,32,32,32,34,33,33,32,32,30,30,0,0,0,0,0,0,0,0,0,-1,0,0,0,2
7.7,0,2,13,-0.03,-0.02,0,0,0,0,0.21,2,10,-1,112,28,69,121,12.69,3162,1,32,64,0.96,0.87,12.42,0,113,49,50,0,0,61,0,0,0,0,1,30,32,34,34,34,34,35,34,34,36,37,37,36,36,34,34,30,30,30,30,30,30,30,31,30,30,30,30,30,30,30,30,0,0,0,0,0,0,0,0,0,-1,0,0,0,2
7.8,0,2,13,0.26,-0.02,0,0,1,0,0.32,2,15,-1,112,28,69,119,12.72,3323,2,32,61,0.96,0.88,12.4,0,110,49,50,0,0,61,0,0,0,0,1,30,32,32,32,32,33,33,32,32,33,34,34,34,34,32,32,30,30,30,30,30,30,29,30,30,30,30,30,30,30,30,30,0,0,0,0,0,0,0,0,0,-1,0,0,0,2
7.9,0,2,13,0.11,0.04,0,0,-2,0,0.26,2,13,-1,113,27,70,118,12.74,3101,2,32,60,0.95,0.89,12.37,0,110,49,50,0,0,61,0,0,0,0,1,30,30,30,30,30,30,30,30,30,30,30,31,31,31,30,30,30,30,30,30,30,30,30,30,31,30,30,30,30,30,30,30,0,0,0,0,0,0,0,0,0,-1,0,0,0,2
8,0,2,13,0.16,-0.04,0,0,1,0,0.19,2,9,-1,112,27,71,119,12.72,3162,2,32,63,0.95,0.91,12.37,0,112,49,50,0,0,61,1,0,1,0,1,31,31,31,30,30,30,30,30,30,30,30,30,30,30,30,30,31,31,31,31,30,30,30,31,31,31,31,31,31,31,30,31,0,0,0,0,0,0,0,0,0,-1,0,0,0,2
8.1,0,2,13,0.16,-0.02,0,0,2,0,0.16,2,8,-1,112,27,72,118,12.7,3323,2,32,61,0.95,0.92,12.38,0,110,49,50,0,0,61,1,1,1,0,1,32,32,32,31,31,31,30,30,30,30,30,30,30,30,30,30,32,32,32,32,31,31,30,32,31,32,32,32,32,32,32,32,0,0,0,0,0,0,0,0,0,-1,0,0,0,2
8.2,0,2,13,0.07,0.02,0,0,-2,-1,0.26,2,13,-1,113,27,72,117,12.67,3280,2,32,58,0.95,0.92,12.38,0,125,49,50,0,0,61,1,1,1,0,1,32,32,32,32,32,32,32,32,30,30,30,30,30,30,30,30,31,32,32,32,32,32,32,32,31,32,32,32,32,32,32,32,0,0,0,0,0,0,0,0,0,-1,0,0,0,2
8.3,0,2,13,0.18,0,0,0,1,0,0.34,2,16,-1,113,26,73,117,12.72,3323,2,32,62,0.95,0.89,12.38,0,119,49,50,0,0,61,1,1,1,1,1,33,32,33,32,32,32,32,32,30,30,30,30,30,30,30,30,32,32,32,32,32,32,32,32,32,32,32,32,32,32,32,32,0,0,0,0,0,0,0,0,0,-1,0,0,0,2
8.4,0,2,13,0.16,0.02,0,0,2,0,0.3,2,14,-1,112,26,73,118,12.64,3450,2,32,61,0.95,0.86,12.37,0,119,50,50,0,0,61,2,2,2,2,1,34,34,34,33,33,33,33,32,30,30,30,30,30,30,30,30,32,32,33,32,32,32,32,32,32,32,32,33,33,33,33,32,0,0,0,0,0,0,0,0,0,-1,0,0,0,2
8.5,0,2,13,0.24,0.05,0,0,0,0,0.26,2,13,-1,112,26,74,120,12.72,3377,2,32,59,0.95,0.87,12.37,0,114,50,50,0,0,61,2,2,2,2,1,34,34,34,34,34,34,34,34,30,32,32,32,32,32,31,31,33,34,34,34,34,34,34,34,34,34,34,34,34,34,34,34,0,0,0,0,0,0,0,0,0,-1,0,0,0,2
8.6,0,2,13,-0.03,0.09,0,0,-1,0,0.17,2,8,-1,113,26,74,119,12.63,2949,2,32,58,0.95,0.9,12.36,0,116,49,50,0,0,61,2,2,2,2,1,35,36,36,36,36,35,35,35,32,34,34,34,34,34,34,33,32,32,32,32,31,31,31,32,33,33,32,32,32,32,32,31,0,0,0,0,0,0,0,0,0,-1,0,0,0,2
8.7,0,2,13,0.16,0.04,0,0,1,1,0.17,2,8,-1,112,26,75,120,12.71,3112,2,32,65,0.94,0.94,12.35,0,104,49,50,0,0,61,2,2,2,2,1,30,30,30,30,30,30,30,30,30,30,30,30,30,29,28,28,32,33,32,32,32,32,32,32,31,32,32,32,32,32,32,32,0,0,0,0,0,0,0,0,0,-1,0,0,0,2
8.8,0,2,13,0.07,0.02,0,0,0,0,0.08,2,4,-1,113,26,75,118,12.71,2768,2,32,69,0.95,0.91,12.37,0,89,49,50,0,0,61,3,3,2,3,1,30,30,30,30,30,30,30,32,28,28,28,28,28,28,28,28,37,38,38,38,38,37,36,36,33,34,36,36,36,36,36,34,0,0,0,0,0,0,0,0,0,-1,0,0,0,2
8.9,0,2,13,0.17,-0.02,0,0,1,0,0.18,2,9,-1,114,26,74,126,12.67,2612,2,32,67,0.94,0.9,12.36,0,99,50,50,0,0,61,3,3,2,3,1,38,40,40,40,40,40,40,40,31,34,35,36,36,36,36,36,40,42,42,42,41,40,40,38,39,42,41,42,41,40,40,38,0,0,0,0,0,0,0,0,0,-1,0,0,0,2
9,0,2,13,0.07,0.04,0,0,0,0,0.12,2,6,-1,114,27,74,122,12.63,3097,3,32,70,0.94,0.88,12.36,0,107,49,50,0,0,61,3,3,3,3,1,40,42,42,42,42,42,42,42,40,43,42,42,42,42,41,40,40,41,40,40,40,40,40,38,42,43,42,43,42,42,42,38,0,0,0,0,0,0,0,0,0,-1,0,0,0,2
9.1,0,2,13,0.1,0,0,0,1,0,0.34,2,16,-1,115,27,74,118,12.65,3162,3,32,65,0.94,0.86,12.36,0,112,50,50,0,0,61,4,4,4,4,1,34,36,38,40,41,41,41,40,39,42,42,43,42,42,40,40,32,34,34,34,34,33,32,32,35,36,36,36,35,34,33,32,0,0,0,0,0,0,0,0,0,-1,0,0,0,2
9.2,0,2,13,0.18,0,0,0,3,1,0.28,2,13,-1,116,27,74,118,12.65,3295,3,32,62,0.94,0.89,12.37,0,133,50,50,0,0,61,4,4,4,4,1,30,31,32,32,32,32,32,32,30,30,30,30,30,30,30,29,30,30,30,30,30,30,30,30,30,30,30,30,30,30,30,30,0,0,0,0,0,0,0,0,0,-1,0,0,0,2
9.3,0,2,13,0.18,-0.03,0,0,1,1,0.25,2,12,-1,116,27,73,120,12.71,3344,3,32,61,0.94,0.88,12.38,0,122,49,50,0,0,61,4,4,4,3,1,32,32,32,32,32,32,32,31,30,30,30,30,30,30,30,30,32,32,32,32,32,32,32,32,31,32,32,32,32,32,32,32,0,0,0,0,0,0,0,0,0,-1,0,0,0,2
9.4,0,2,13,0.28,0.02,0,0,1,1,0.28,2,13,-1,118,25,73,120,12.71,3319,3,32,64,0.94,0.93,12.38,0,112,50,50,0,0,61,5,5,5,4,1,34,35,35,35,34,34,34,34,30,31,32,32,32,31,31,30,33,34,34,34,34,34,33,34,33,34,33,33,33,32,32,32,0,0,0,0,0,0,0,0,0,-1,0,0,0,2
9.5,0,2,13,0.16,0.05,0,1,-2,0,0.26,2,12,0,117,26,73,122,12.65,2863,3,32,63,0.94,0.94,12.39,0,98,50,50,0,0,61,6,6,5,5,1,31,31,32,31,32,31,31,30,28,28,28,28,28,27,27,26,34,35,36,36,35,34,34,34,30,31,32,32,32,32,32,32,0,0,0,0,0,0,0,0,0,-1,0,0,0,2
9.6,0,2,13,0.18,0.07,0,2,0,0,0.19,2,9,1,117,26,74,116,12.65,2855,3,32,68,0.94,0.95,12.38,0,94,49,50,0,0,61,6,6,4,6,1,38,40,40,40,40,40,40,40,32,34,34,35,35,35,35,35,39,40,40,40,40,40,40,38,41,42,42,42,41,41,40,38,0,0,0,0,0,0,0,0,0,-1,0,0,0,2
9.7,0,2,13,0.16,0.09,0,3,0,1,0.18,2,9,2,111,28,75,120,12.72,2754,3,32,66,0.94,0.96,12.38,0,100,50,50,0,0,61,6,6,6,6,1,38,41,42,42,42,42,42,42,36,39,40,40,40,38,37,36,34,36,36,36,36,36,35,34,39,40,40,40,39,38,37,34,0,0,0,0,0,0,0,0,0,-1,0,0,0,2
9.8,0,2,13,0.1,0.07,0,4,-1,0,0.13,2,6,4,116,22,74,119,12.65,2363,3,32,70,0.94,0.92,12.38,0,103,49,50,0,0,61,7,7,7,5,1,32,32,32,32,32,32,31,30,29,30,30,30,30,30,30,29,31,32,32,32,32,32,32,32,31,32,32,32,32,32,32,32,0,0,0,0,0,0,0,0,0,-1,0,0,0,2
9.9,0,2,13,0.27,0.09,0,5,1,1,0.3,2,15,4,113,25,74,121,12.72,3094,3,32,73,0.94,0.97,12.38,0,109,49,50,0,0,62,7,7,7,6,1,32,34,33,33,33,33,32,32,30,32,32,32,32,32,31,30,33,34,34,34,34,33,33,33,33,33,34,34,34,34,34,33,0,0,0,0,0,0,0,0,0,-1,0,0,0,2
10,0,2,13,0.26,0.06,0,6,3,2,0.28,2,13,5,114,22,76,118,12.72,2970,3,32,72,0.93,0.97,12.39,0,101,49,50,0,0,62,8,8,7,7,1,30,30,30,30,30,30,31,32,29,30,30,31,31,30,30,30,37,38,39,38,38,38,37,36,33,34,35,36,35,35,35,34,0,0,0,0,0,0,0,0,0,-1,0,0,0,2
10.1,0,2,13,0.37,0.07,0,6,2,1,0.39,2,19,5,114,25,72,121,12.72,3370,3,32,71,0.93,0.93,12.39,0,106,49,50,0,0,62,8,8,8,8,1,36,38,40,40,41,41,40,40,38,40,41,40,40,40,40,38,38,40,40,40,40,40,39,37,38,38,38,38,38,37,36,34,0,0,0,0,0,0,0,0,0,-1,0,0,0,2
10.2,0,2,13,0.52,0.12,0,8,4,0,0.74,2,35,6,114,26,71,120,12.67,2965,3,32,69,0.94,0.92,12.4,0,109,49,50,0,0,62,9,9,9,7,1,31,32,32,31,31,31,30,30,28,30,30,30,30,30,30,29,30,32,32,31,31,31,30,32,30,31,31,31,31,31,31,31,0,0,0,0,0,0,0,0,0,-1,0,0,0,2
10.3,0,2,13,0.13,0.11,0,9,0,1,0.32,2,15,6,114,24,76,122,12.75,3405,3,32,70,0.94,0.92,12.41,0,121,50,50,0,0,62,9,9,9,8,1,32,34,34,33,33,33,32,32,30,30,31,31,30,30,30,30,33,34,34,34,34,33,33,32,32,33,33,33,33,32,32,32,0,0,0,0,0,0,0,0,0,-1,0,0,0,2
10.4,0,2,13,0.13,0.05,0,10,0,2,0.14,2,7,7,112,26,73,121,12.67,2916,3,32,65,0.94,0.95,12.41,0,124,49,50,0,0,62,10,9,8,9,1,32,33,33,33,33,34,34,34,30,32,32,32,32,32,32,32,38,40,40,40,39,38,38,36,34,36,36,36,36,36,36,34,0,0,0,0,0,0,0,0,0,-1,0,0,0,2
10.5,0,2,13,0.13,0.03,0,11,-1,3,0.15,2,7,7,113,24,72,117,12.69,3300,3,32,63,0.94,0.92,12.4,0,120,50,50,0,0,62,10,10,10,10,1,30,32,32,33,33,33,33,32,38,41,42,42,41,41,40,39,31,31,32,31,30,30,30,31,33,34,34,34,33,32,32,32,0,0,0,0,0,0,0,0,0,-1,0,0,0,2
10.6,0,2,13,0.17,0.16,0,12,-2,1,0.27,2,13,7,111,25,74,117,12.63,3519,3,32,66,0.93,0.92,12.39,0,118,50,50,0,0,62,10,10,10,10,1,33,34,34,33,33,33,33,32,30,30,30,30,30,30,30,30,32,33,33,33,33,33,33,33,31,32,32,32,32,32,32,32,0,0,0,0,0,0,0,0,0,-1,0,0,0,2
10.7,0,2,13,0.02,0.14,0,12,-2,3,0.17,2,8,7,112,23,75,120,12.65,3615,3,32,64,0.93,0.95,12.37,0,134,50,50,0,0,62,11,10,9,10,1,34,34,34,34,34,34,35,36,29,30,31,31,31,31,31,30,38,40,40,40,40,39,38,37,33,34,34,35,35,35,34,34,0,0,0,0,0,0,0,0,0,-1,0,0,0,2
10.8,0,2,13,0.25,0.12,0,12,4,3,0.29,2,14,7,113,26,70,118,12.74,3807,3,32,63,0.93,0.94,12.37,0,137,50,50,0,0,62,11,10,10,10,1,32,32,32,32,32,32,32,31,38,41,41,41,41,40,40,39,34,35,36,36,35,35,34,34,33,34,34,34,33,32,32,32,0,0,0,0,0,0,0,0,0,-1,0,0,0,2
10.9,0,2,13,-0.03,0.21,0,13,-2,0,0.43,2,20,8,111,26,74,120,12.72,3512,4,32,62,0.93,0.93,12.38,0,133,50,50,0,0,62,11,11,11,9,1,33,34,34,34,34,34,33,33,29,30,30,30,30,30,30,30,32,33,33,33,32,32,32,32,32,32,32,32,32,32,32,32,0,0,0,0,0,0,0,0,0,-1,0,0,0,2
11,0,2,13,0.18,0.15,0,13,-1,1,0.6,2,29,7,111,27,73,120,12.65,3736,4,32,62,0.93,0.93,12.38,0,132,49,50,0,0,62,12,11,10,10,1,38,40,40,40,40,40,40,40,30,30,31,31,31,30,30,30,38,39,39,39,39,38,38,36,34,36,36,37,36,36,36,34,0,0,0,0,0,0,0,0,0,-1,0,0,0,2
11.1,0,2,13,-0.09,0.1,0,13,-4,3,0.28,2,13,7,111,26,72,122,12.68,3927,4,32,62,0.92,0.94,12.35,0,159,50,50,0,0,62,12,11,11,11,1,33,34,36,36,36,36,36,36,36,40,40,40,40,39,38,38,30,32,32,32,31,31,30,31,41,42,41,42,40,40,40,37,0,0,0,0,0,0,0,0,0,-1,0,0,0,2
11.2,0,2,13,0.17,0.09,0,14,1,4,0.24,2,11,7,114,24,74,120,12.74,3720,5,32,60,0.91,0.91,12.35,0,134,50,50,0,0,62,12,11,11,9,1,33,34,34,34,33,33,33,32,30,31,31,31,31,31,31,30,33,34,34,34,34,33,33,33,32,33,33,34,33,34,34,33,0,0,0,0,0,0,0,0,0,-1,0,0,0,2
11.3,0,2,13,0.31,0.07,0,13,4,3,0.33,2,16,8,106,26,70,117,12.65,3740,5,32,58,0.91,0.86,12.35,0,153,49,50,0,0,62,12,12,11,11,1,36,38,39,40,40,40,40,39,28,29,29,29,29,29,28,28,38,40,39,39,39,38,38,36,32,32,33,33,33,33,32,33,0,0,0,0,0,0,0,0,0,-1,0,0,0,2
11.4,0,2,13,0.12,0.2,0,14,-6,-1,0.37,2,18,8,110,22,74,124,12.67,4125,5,32,60,0.91,0.83,12.34,0,164,49,50,0,0,62,12,12,12,11,1,31,32,32,32,32,32,31,30,32,34,34,34,34,34,32,32,31,32,32,32,32,32,32,32,36,36,36,36,36,36,34,34,0,0,0,0,0,0,0,0,0,-1,0,0,0,2
11.5,0,2,13,-0.11,0.11,0,15,-2,1,0.36,2,17,7,108,22,78,118,12.65,4074,5,32,62,0.91,0.8,12.34,0,166,49,50,0,0,62,13,12,12,11,1,33,34,34,34,34,34,34,34,29,30,30,30,30,30,30,30,33,34,34,34,34,33,32,33,32,33,33,33,33,33,32,32,0,0,0,0,0,0,0,0,0,-1,0,0,0,2
11.6,0,2,13,-0.16,0.11,0,15,0,2,0.44,2,21,7,106,20,82,120,12.73,4091,4,32,58,0.91,0.8,12.34,0,171,49,50,0,0,62,13,12,12,12,1,36,38,40,40,40,40,40,40,32,34,34,35,34,34,34,34,33,34,34,34,34,34,34,33,34,36,37,38,37,37,36,35,0,0,0,0,0,0,0,0,0,-1,0,0,0,2
11.7,0,2,13,-0.03,0.04,-1,15,-1,0,0.74,2,35,7,107,21,79,119,12.65,4203,4,32,60,0.91,0.79,12.35,0,169,50,50,0,0,62,13,12,13,11,1,33,34,34,34,34,34,34,33,34,37,38,38,38,37,36,35,33,34,34,34,33,33,32,33,30,31,31,32,32,32,31,31,0,0,0,0,0,0,0,0,0,-1,0,0,0,2
11.8,0,2,13,-0.27,0.05,-1,12,-4,-1,0.94,2,45,6,114,27,72,113,12.69,4159,4,32,56,0.91,0.81,12.35,0,167,49,50,0,0,62,13,13,12,12,1,34,34,34,34,34,34,34,35,30,31,31,32,31,31,30,30,37,39,38,38,38,38,38,36,33,34,33,34,34,34,33,33,0,0,0,0,0,0,0,0,0,-1,0,0,0,2
11.9,0,2,13,-0.02,-0.08,-1,9,-1,-2,0.74,2,36,3,116,33,71,116,12.71,4317,5,32,59,0.91,0.82,12.36,0,175,49,50,0,0,62,13,13,13,13,1,32,32,32,32,32,32,31,30,36,38,38,38,38,38,37,36,31,32,32,32,32,32,32,32,40,40,40,40,40,39,38,36,0,0,0,0,0,0,0,0,0,-1,0,0,0,2
12,0,2,13,-0.12,-0.03,0,1,0,-2,0.61,2,29,-1,122,33,72,116,12.67,4205,5,32,56,0.91,0.81,12.35,0,184,50,50,0,0,62,13,13,13,11,1,34,35,35,35,35,35,35,36,28,30,30,30,30,30,30,29,33,34,34,34,33,33,32,33,33,33,33,34,33,33,33,33,0,0,0,0,0,0,0,0,0,-1,0,0,0,2
12.1,0,2,13,-0.32,-0.09,-1,-5,-8,-2,0.92,2,44,-6,119,33,80,117,12.72,4273,5,32,59,0.91,0.79,12.35,0,177,50,50,0,0,62,14,14,12,13,1,36,38,38,39,39,39,39,38,32,34,34,34,34,34,34,34,32,32,33,33,32,32,32,32,34,36,36,37,36,36,36,35,0,0,0,0,0,0,0,0,0,-1,0,0,0,2
12.2,0,2,13,-0.32,-0.16,-1,-9,-7,-4,1.07,2,51,-8,118,31,75,118,12.69,4553,5,32,57,0.91,0.81,12.35,0,186,49,50,0,0,62,14,14,13,13,1,32,33,34,33,33,33,33,32,33,36,36,36,36,36,34,34,32,32,32,32,32,32,32,32,30,31,32,32,32,32,32,32,0,0,0,0,0,0,0,0,0,-1,0,0,0,2
12.3,0,2,13,-0.38,-0.19,-1,-11,-6,-4,1.06,2,51,-8,114,31,77,116,12.68,4295,5,32,55,0.91,0.79,12.36,0,179,50,50,0,0,62,14,14,13,13,1,34,36,36,36,36,36,36,36,28,30,30,30,30,30,29,29,37,38,39,39,39,38,38,36,32,32,32,33,32,33,32,33,0,0,0,0,0,0,0,0,0,-1,0,0,0,2
12.4,0,2,13,-0.4,-0.1,-1,-12,-7,-6,1.2,2,58,-8,113,29,78,118,12.73,4462,5,32,55,0.91,0.79,12.35,0,180,49,50,0,0,62,14,14,13,14,1,32,32,32,32,32,32,32,31,35,38,38,38,38,38,38,37,32,32,33,32,32,32,32,32,34,36,35,35,35,34,34,34,0,0,0,0,0,0,0,0,0,-1,0,0,0,2
12.5,0,2,13,-0.23,-0.05,-1,-12,-1,-3,1.11,2,53,-8,117,31,77,115,12.74,4584,5,32,56,0.91,0.8,12.37,0,189,49,50,0,0,62,14,14,12,14,1,36,38,38,38,38,38,38,38,30,31,31,32,31,31,30,30,34,36,36,36,36,35,34,34,32,32,32,33,33,33,33,33,0,0,0,0,0,0,0,0,0,-1,0,0,0,2
12.6,0,2,13,-0.55,-0.17,0,-16,-8,-6,0.81,2,39,-11,114,33,80,121,12.7,4597,5,32,55,0.91,0.78,12.37,0,188,49,50,0,0,62,14,14,13,14,1,32,34,34,35,35,35,35,34,34,37,38,38,38,37,36,36,30,31,32,31,31,31,31,32,40,40,40,40,40,40,39,37,0,0,0,0,0,0,0,0,0,-1,0,0,0,2
12.7,0,2,13,-0.25,-0.28,0,-21,5,-4,0.6,2,29,-14,120,33,79,116,12.68,4748,5,32,53,0.91,0.78,12.38,0,182,50,50,0,0,62,14,15,13,13,1,32,32,32,32,32,32,32,32,28,30,30,30,30,30,30,29,32,33,33,32,32,32,32,33,32,33,33,34,33,33,33,33,0,0,0,0,0,0,0,0,0,-1,0,0,0,2
12.8,0,2,13,-0.73,-0.39,-1,-27,-10,-7,1.1,2,53,-17,121,29,83,116,12.72,4547,5,32,52,0.9,0.8,12.36,0,194,49,50,0,0,62,14,15,13,14,1,37,40,40,40,40,40,40,39,35,37,38,38,38,38,37,36,34,36,36,36,36,36,36,34,35,36,37,37,37,37,36,35,0,0,0,0,0,0,0,0,0,-1,0,0,0,2
12.9,0,2,13,-0.69,-0.34,0,-31,3,-3,0.91,2,44,-19,116,37,79,119,12.71,4438,5,32,51,0.9,0.78,12.37,0,188,49,50,0,0,62,14,15,13,14,1,33,34,34,34,34,34,33,33,30,32,32,32,32,32,31,30,30,31,32,31,31,31,30,32,32,32,32,33,33,33,33,32,0,0,0,0,0,0,0,0,0,-1,0,0,0,2
13,0,2,13,-0.41,-0.29,0,-33,-3,-6,0.66,2,31,-19,121,31,82,117,12.65,4435,5,32,57,0.91,0.78,12.37,0,182,50,50,0,0,62,14,15,12,15,1,32,32,32,32,32,32,32,32,31,32,33,33,33,33,32,32,36,38,38,38,38,38,37,36,32,33,34,34,34,34,33,33,0,0,0,0,0,0,0,0,0,-1,0,0,0,2
13.1,0,2,13,-0.5,-0.4,-1,-35,-6,-7,1.03,2,49,-21,121,33,82,116,12.66,4650,5,32,55,0.91,0.77,12.38,0,192,50,50,0,0,62,14,15,13,15,1,32,32,32,32,33,32,33,32,34,36,36,36,36,36,34,34,30,32,32,32,32,32,32,32,32,32,32,32,32,32,32,32,0,0,0,0,0,0,0,0,0,-1,0,0,0,2
13.2,0,2,13,-0.33,-0.35,0,-39,-6,-8,0.72,2,34,-22,119,34,82,117,12.71,4674,5,32,54,0.91,0.75,12.38,0,186,50,50,0,0,62,13,15,13,15,1,32,32,32,32,32,32,32,32,29,30,30,30,30,30,30,30,32,33,34,34,33,33,32,33,32,33,33,34,33,34,33,33,0,0,0,0,0,0,0,0,0,-1,0,0,0,2
13.3,0,2,13,-0.14,-0.37,0,-41,-6,-10,0.7,2,33,-24,118,34,88,121,12.66,4672,5,32,53,0.91,0.78,12.37,0,184,49,50,0,0,62,13,15,13,15,1,37,39,40,40,40,40,40,40,28,30,30,30,30,30,30,29,34,34,35,35,34,34,34,34,36,36,36,36,36,35,34,34,0,0,0,0,0,0,0,0,0,-1,0,0,0,2
13.4,0,2,13,-0.24,-0.48,0,-45,2,-8,0.62,2,30,-26,117,33,89,115,12.67,4336,5,32,53,0.9,0.77,12.37,0,188,50,50,0,0,63,13,15,13,16,1,32,34,34,34,34,34,34,32,29,30,30,30,30,30,30,30,31,32,32,32,32,32,32,32,32,34,34,34,34,34,34,34,0,0,0,0,0,0,0,0,0,-1,0,0,0,2
13.5,0,2,13,-0.51,-0.52,0,-49,-1,-9,0.86,2,41,-29,119,34,86,116,12.65,4652,6,32,56,0.89,0.78,12.36,0,203,49,50,0,0,63,13,15,12,16,1,31,32,32,32,32,32,32,32,30,32,32,32,32,32,31,30,36,38,38,38,38,38,37,36,40,40,40,40,40,39,38,36,0,0,0,0,0,0,0,0,0,-1,0,0,0,2
13.6,0,2,13,-0.57,-0.56,-1,-55,0,-11,1.04,2,50,-32,119,32,87,118,12.7,4681,6,32,58,0.88,0.76,12.35,0,207,50,50,0,0,63,13,15,13,15,1,31,32,32,32,32,32,32,31,30,31,31,31,31,30,30,30,34,35,35,35,35,34,34,34,32,33,34,34,34,34,33,32,0,0,0,0,0,0,0,0,0,-1,0,0,0,2
13.7,0,2,13,-0.68,-0.56,-1,-57,1,-10,1.13,2,54,-32,114,29,91,115,12.68,4613,6,32,57,0.88,0.75,12.37,0,202,50,50,0,0,63,13,16,13,16,1,32,34,34,34,34,34,33,32,32,34,34,34,34,34,33,32,32,34,34,34,33,33,32,32,38,40,40,40,40,39,38,36,0,0,0,0,0,0,0,0,0,-1,0,0,0,2
13.8,0,2,13,-0.42,-0.62,-1,-59,1,-9,1,2,48,-32,108,31,93,111,12.73,4694,6,32,56,0.88,0.76,12.36,0,205,49,50,0,0,63,13,16,12,16,1,37,39,40,40,40,40,40,40,30,32,32,32,32,32,31,30,34,35,36,36,35,35,34,34,32,34,33,34,34,34,34,33,0,0,0,0,0,0,0,0,0,-1,0,0,0,2
13.9,0,2,13,-0.25,-0.54,0,-60,3,-9,0.76,2,36,-33,114,29,91,113,12.67,4691,6,32,56,0.88,0.76,12.37,0,196,50,50,0,0,63,13,16,13,16,1,32,34,34,34,34,34,33,32,34,36,36,36,36,36,35,34,30,32,32,32,32,32,32,32,35,36,37,37,37,37,36,35,0,0,0,0,0,0,0,0,0,-1,0,0,0,2
14,0,2,13,-0.69,-0.67,0,-61,3,-10,1.12,2,54,-33,126,43,83,115,12.65,4496,6,32,55,0.88,0.77,12.35,0,202,50,50,0,0,63,13,16,12,15,1,31,32,32,32,32,32,32,32,30,31,32,32,31,31,31,30,36,38,38,38,38,38,38,36,32,32,33,33,33,34,33,33,0,0,0,0,0,0,0,0,0,-1,0,0,0,2
14.1,0,2,13,-0.82,-0.62,-1,-65,0,-10,1.23,2,59,-35,129,39,81,115,12.72,4440,6,32,54,0.88,0.77,12.36,0,200,50,50,0,0,63,13,16,13,16,1,31,32,32,32,32,32,32,32,35,38,38,38,38,37,36,35,34,36,36,36,36,36,36,35,40,40,40,40,39,38,38,36,0,0,0,0,0,0,0,0,0,-1,0,0,0,2
14.2,0,2,13,-0.5,-0.57,-1,-67,-3,-11,1.39,2,67,-36,128,35,87,115,12.71,4748,6,32,60,0.88,0.77,12.36,0,206,50,51,0,0,63,13,16,12,16,1,32,34,34,34,34,34,34,33,30,31,31,31,30,30,30,30,32,33,34,33,33,32,32,33,32,32,32,32,32,32,32,32,0,0,0,0,0,0,0,0,0,-1,0,0,0,2
14.3,0,2,13,-0.37,-0.6,-1,-68,-2,-10,1.12,2,54,-37,122,35,88,117,12.69,4748,6,32,59,0.88,0.76,12.36,0,209,50,50,0,0,63,13,16,12,17,1,38,40,40,40,40,40,40,40,36,38,38,38,38,38,36,36,36,37,38,38,38,37,36,36,38,40,40,40,40,39,38,36,0,0,0,0,0,0,0,0,0,-1,0,0,0,2
14.4,0,2,13,-0.77,-0.68,-1,-70,1,-11,1.4,2,67,-37,122,32,91,118,12.7,4559,6,32,58,0.88,0.75,12.34,0,208,50,50,0,0,63,13,16,13,16,1,31,32,32,32,32,32,32,32,30,31,31,31,30,30,30,30,31,32,32,32,32,32,32,32,32,32,32,32,32,32,32,32,0,0,0,0,0,0,0,0,0,-1,0,0,0,2
14.5,0,2,13,-0.61,-0.75,-1,-70,-1,-11,1.43,2,68,-37,122,33,92,115,12.66,4793,7,32,58,0.88,0.76,12.35,0,213,50,50,0,0,63,13,16,12,16,1,32,32,32,32,32,32,33,33,36,38,38,38,38,38,37,36,36,38,38,38,38,38,37,36,38,38,38,39,38,38,38,36,0,0,0,0,0,0,0,0,0,-1,0,0,0,2
14.6,0,2,13,-0.7,-0.7,-1,-71,1,-12,1.49,2,71,-37,122,34,90,115,12.7,4952,6,32,57,0.88,0.77,12.34,0,216,50,51,0,0,63,13,16,13,16,1,32,32,32,32,32,32,32,31,30,31,31,31,31,30,30,30,36,37,38,37,38,37,36,36,33,34,34,34,34,33,33,32,0,0,0,0,0,0,0,0,0,-1,0,0,0,2
14.7,0,2,13,-0.29,-0.66,-1,-70,-1,-12,1.28,2,61,-37,123,32,91,116,12.66,4989,6,32,56,0.88,0.79,12.36,0,226,50,50,0,0,63,13,17,13,15,1,32,34,34,34,34,34,34,32,30,30,31,31,30,30,30,29,32,34,34,34,33,33,33,33,36,37,38,38,38,38,37,35,0,0,0,0,0,0,0,0,0,-1,0,0,0,2
14.8,0,2,13,-0.29,-0.86,-1,-71,-7,-14,1.38,2,66,-37,122,30,91,112,12.71,5073,6,32,49,0.88,0.89,12.36,0,230,50,50,0,0,63,14,17,12,16,1,35,37,38,38,39,39,38,38,30,32,32,32,31,31,31,30,37,39,39,39,39,38,38,36,32,33,34,34,34,34,33,33,0,0,0,0,0,0,0,0,0,-1,0,0,0,2
14.9,0,2,13,0.12,-0.75,-1,-71,7,-13,1.43,2,68,-36,120,33,94,115,12.67,5500,6,32,50,0.88,0.8,12.35,0,244,50,50,0,0,63,16,17,13,15,1,32,32,32,32,32,32,32,31,30,31,32,32,31,31,30,30,32,34,34,34,34,34,33,33,35,36,36,37,36,36,36,35,0,0,0,0,0,0,0,0,0,-1,0,0,0,2
15,0,2,13,0.05,-0.6,-1,-69,6,-9,1.35,2,65,-35,123,28,94,119,12.71,5290,7,32,47,0.88,0.77,12.35,0,246,50,51,0,0,63,16,17,13,17,1,35,37,37,37,37,37,37,37,30,32,32,32,32,32,32,30,36,38,38,37,37,38,38,36,33,34,34,34,34,34,33,33,0,0,0,0,0,0,0,0,0,-1,0,0,0,2
15.1,0,2,13,-0.4,-0.44,0,-68,2,-11,0.77,2,37,-33,121,34,92,114,12.61,5324,6,32,45,0.88,0.76,12.35,0,241,50,51,0,0,63,16,18,14,18,1,32,34,34,34,34,34,33,32,30,32,32,32,32,32,31,30,32,34,34,34,34,34,33,32,36,36,37,38,37,37,36,36,0,0,0,0,0,0,0,0,0,-1,0,0,0,2
15.2,0,2,13,0,-0.54,-1,-64,2,-10,1.32,2,63,-30,124,32,88,117,12.64,5131,7,32,46,0.88,0.75,12.33,0,236,50,50,0,0,63,16,18,12,18,1,32,32,33,32,32,32,33,33,34,36,36,36,36,36,35,34,36,38,38,39,39,39,38,36,33,34,33,34,34,34,34,33,0,0,0,0,0,0,0,0,0,-1,0,0,0,2
15.3,0,2,13,0.02,-0.42,-1,-63,0,-13,1.05,2,50,-30,125,38,86,120,12.64,5320,8,32,49,0.87,0.8,12.34,0,246,50,51,0,0,63,15,18,14,18,1,32,32,32,32,32,32,32,32,30,32,32,32,32,32,31,30,30,32,32,32,32,32,32,32,34,34,35,35,34,34,34,33,0,0,0,0,0,0,0,0,0,-1,0,0,0,2
15.4,0,2,13,-0.36,-0.71,-1,-59,-7,-11,1.38,2,66,-27,126,33,87,114,12.69,5354,9,32,49,0.85,0.78,12.31,0,255,50,50,0,0,63,15,18,14,19,1,32,34,34,34,33,34,33,32,32,34,34,34,34,34,32,32,37,40,40,40,40,40,39,38,33,34,34,34,34,34,34,33,0,0,0,0,0,0,0,0,0,-1,0,0,0,2
15.5,0,2,13,-0.46,-0.65,-1,-57,-13,-9,1.36,2,65,-26,120,37,86,115,12.69,5458,9,32,52,0.84,0.76,12.31,0,266,50,50,0,0,63,15,18,15,18,1,32,34,34,34,35,35,34,34,30,32,32,32,32,31,30,30,32,34,35,34,34,34,34,33,34,34,34,34,34,34,33,32,0,0,0,0,0,0,0,0,0,-1,0,0,0,2
15.6,0,2,13,0.48,-0.61,-1,-49,8,-10,1.17,2,56,-23,121,30,85,115,12.64,5611,10,32,51,0.84,0.71,12.3,0,277,50,50,0,0,63,15,18,15,18,1,33,34,34,34,34,34,34,34,30,32,32,32,32,32,31,30,35,37,37,37,36,37,36,35,33,34,34,34,34,34,34,33,0,0,0,0,0,0,0,0,0,-1,0,0,0,2
15.7,0,2,13,-0.41,-0.79,-1,-45,-4,-8,1.29,2,62,-21,125,29,83,117,12.67,5668,11,32,56,0.83,0.73,12.32,0,296,49,50,0,0,63,16,18,15,18,1,34,36,38,38,38,38,38,37,30,32,32,32,32,32,31,30,35,37,37,37,37,37,36,35,33,34,33,34,34,34,33,32,0,0,0,0,0,0,0,0,0,-1,0,0,0,2
15.8,0,2,13,0.76,-0.57,0,-40,28,-2,0.96,2,46,-19,118,34,82,111,12.72,5878,10,32,53,0.83,0.8,12.31,0,282,50,50,0,0,63,17,19,16,17,1,33,34,34,34,34,34,34,34,30,32,32,32,32,32,32,30,36,37,38,37,36,37,36,35,34,34,34,34,34,34,34,34,0,0,0,0,0,0,0,0,0,-1,0,0,0,2
15.9,0,2,13,0.77,-0.98,-1,-36,16,-5,1.52,2,73,-16,126,24,81,112,12.73,6375,14,32,54,0.83,0.74,12.32,0,349,49,50,0,0,63,17,19,16,18,1,36,38,38,39,39,39,39,38,34,36,37,37,36,36,36,34,32,34,34,34,33,34,32,32,33,34,33,34,34,34,34,33,0,0,0,0,0,0,0,0,0,-1,0,0,0,2
16,0,2,13,0.08,0.04,0,-29,19,-3,0.37,2,18,-15,122,24,86,120,12.69,6320,12,32,55,0.83,0.8,12.32,0,343,49,49,0,0,63,19,19,17,18,1,34,34,34,34,34,34,34,34,30,32,32,32,32,32,32,30,36,38,38,38,38,38,37,36,38,38,38,38,37,36,36,35,0,0,0,0,0,0,0,0,0,-1,0,0,0,2
16.1,0,2,13,-0.46,-0.37,-1,-27,7,-6,0.92,2,44,-12,111,31,83,114,12.67,6342,12,32,49,0.83,0.76,12.32,0,338,49,50,0,0,63,19,20,18,19,1,36,37,38,38,38,38,38,38,32,34,34,34,34,33,32,32,34,35,35,34,34,34,34,34,33,34,34,34,34,34,34,33,0,0,0,0,0,0,0,0,0,-1,0,0,0,2
16.2,0,2,13,-1.39,-0.03,0,-24,-14,3,1.43,2,68,-9,118,29,83,118,12.69,5643,15,32,52,0.83,0.91,12.3,0,318,50,51,100,0,63,20,20,16,19,1,35,36,36,36,36,36,36,36,31,32,32,32,32,32,32,31,38,40,40,40,40,40,40,37,33,34,34,34,34,34,33,32,0,0,0,0,0,0,0,0,0,-1,0,0,0,2
16.3,0,2,13,-0.75,-0.59,0,-20,-15,0,0.96,2,46,-8,114,32,75,116,12.72,5968,16,32,51,0.83,0.73,12.3,0,340,50,51,0,0,63,20,20,18,20,1,34,35,35,36,36,36,36,35,31,32,32,32,32,32,32,31,35,36,36,36,36,36,36,34,34,34,34,35,34,35,34,34,0,0,0,0,0,0,0,0,0,-1,0,0,0,2
16.4,0,2,13,-1.61,-0.08,0,-14,-28,5,1.64,2,78,-6,126,18,80,117,12.64,5901,15,32,58,0.83,0.8,12.29,0,336,49,50,0,0,63,21,21,18,20,2,36,38,38,38,39,38,38,38,33,35,35,35,35,35,34,34,36,38,38,38,38,38,38,36,33,34,34,34,34,34,33,32,0,0,0,0,0,0,0,0,0,-1,0,0,0,2
16.5,0,2,13,-1.76,0.08,0,-13,-44,5,1.83,2,87,-6,121,24,80,117,12.69,6324,11,32,56,0.83,0.91,12.31,0,309,49,50,0,0,63,22,22,20,20,2,34,36,36,35,35,36,36,35,31,32,32,32,32,32,32,31,38,40,40,40,40,40,38,36,37,38,38,38,38,38,38,36,0,0,0,0,0,0,0,0,0,-1,0,0,0,2
16.6,0,2,13,0.56,-0.43,0,-7,-1,-3,0.76,2,36,-4,114,30,79,116,12.72,6385,10,32,53,0.83,0.79,12.31,0,319,50,50,0,0,63,22,23,21,20,2,34,35,36,36,36,36,36,35,30,32,32,32,31,31,31,30,36,38,38,38,38,38,37,36,35,36,36,36,36,36,36,34,0,0,0,0,0,0,0,0,0,-1,0,0,0,2
16.7,0,2,13,-0.38,0.04,0,-6,-20,-4,0.49,2,23,-3,115,24,75,116,12.66,6440,11,32,51,0.83,0.78,12.34,0,339,49,50,0,0,63,23,23,21,22,2,35,37,38,38,38,38,38,37,34,36,37,37,36,36,36,35,34,36,36,36,36,36,34,34,34,34,35,35,35,35,34,34,0,0,0,0,0,0,0,0,0,-1,0,0,0,2
16.8,0,2,13,0.07,-0.23,-1,-5,7,-3,1,2,48,-2,124,27,76,119,12.72,6289,9,32,52,0.84,0.75,12.32,0,313,50,50,0,0,63,24,24,22,23,2,33,34,34,34,34,34,34,32,34,36,36,36,36,36,35,34,36,37,37,37,37,37,36,34,37,38,37,37,36,36,36,34,0,0,0,0,0,0,0,0,0,-1,0,0,0,2
16.9,0,2,13,0.36,-0.03,-1,-3,9,-3,0.81,2,39,-2,116,30,62,115,12.69,6571,12,32,47,0.83,0.76,12.33,0,333,49,50,0,0,63,24,24,23,24,2,33,34,34,34,34,34,34,32,30,32,32,32,32,32,31,30,34,36,36,36,35,35,34,34,38,38,38,38,38,38,37,35,0,0,0,0,0,0,0,0,0,-1,0,0,0,2
17,0,2,13,-0.72,0.11,0,-4,-15,-1,0.89,2,43,-2,110,29,86,118,12.66,6328,12,32,49,0.83,0.75,12.33,0,344,50,51,0,0,63,24,24,22,22,2,33,34,34,34,34,34,34,33,31,32,32,32,32,32,32,31,34,34,35,34,34,34,34,33,33,34,34,34,34,34,33,32,0,0,0,0,0,0,0,0,0,-1,0,0,0,2
17.1,0,2,13,-0.64,-0.03,-1,-3,0,0,1.08,2,52,-2,115,26,75,118,12.65,6525,15,32,52,0.83,0.73,12.32,0,363,50,51,100,0,63,24,24,22,24,2,35,36,36,36,36,36,36,36,32,34,34,34,34,34,34,32,36,38,39,39,39,39,38,36,33,34,34,34,34,34,34,32,0,0,0,0,0,0,0,0,0,-1,0,0,0,2
17.2,0,3,13,-1.51,-0.2,0,-4,-32,2,1.53,2,73,-2,113,32,81,120,12.68,5834,15,32,55,0.83,1.16,12.3,0,329,50,51,0,0,63,24,24,23,24,2,34,34,35,34,34,34,34,34,31,32,33,32,32,32,32,32,37,39,39,39,39,38,38,36,36,38,38,38,38,37,37,35,0,0,0,0,0,0,0,0,0,-1,0,0,0,2
17.3,0,3,13,-0.55,-0.17,0,-3,-12,1,0.68,2,33,-2,108,26,79,115,12.67,6881,16,32,58,0.83,0.7,12.31,0,382,50,51,0,0,63,24,24,24,24,2,34,36,36,36,36,36,36,36,30,32,32,32,32,31,31,30,36,38,38,38,38,38,37,36,36,36,36,36,36,36,36,34,0,0,0,0,0,0,0,0,0,-1,0,0,0,3
17.4,0,3,13,-0.64,-0.13,0,-2,-2,3,0.83,2,40,-2,119,22,75,115,12.75,6858,16,32,56,0.83,0.8,12.28,0,372,49,51,0,0,63,24,24,24,23,2,35,36,37,37,38,37,37,36,34,36,36,36,36,36,36,34,33,34,35,34,34,34,34,33,34,36,36,36,36,36,35,34,0,0,0,0,0,0,0,0,0,-1,0,0,0,3
17.5,0,3,13,-0.45,-0.31,0,-2,-3,-2,0.62,2,30,-2,109,32,79,118,12.68,6604,13,32,58,0.83,0.76,12.31,0,359,50,51,0,0,63,25,25,24,24,2,32,33,34,33,33,33,33,32,34,36,36,36,36,36,35,34,34,35,36,36,35,35,34,33,36,36,36,36,36,36,35,33,0,0,0,0,0,0,0,0,0,-1,0,0,0,3
17.6,0,3,13,-0.35,0.02,0,-1,0,-1,0.68,2,33,-2,121,25,78,119,12.69,7122,12,32,51,0.83,0.79,12.31,0,364,50,51,0,0,63,25,25,24,25,2,32,34,34,33,33,33,33,32,30,31,32,32,31,30,30,30,36,37,38,37,36,37,36,34,36,36,36,36,36,36,35,33,0,0,0,0,0,0,0,0,0,-1,0,0,0,3
17.7,0,3,13,-0.4,-0.09,0,-2,5,1,0.67,2,32,-2,111,26,79,122,12.61,6847,12,32,48,0.83,0.74,12.31,0,350,50,51,0,0,63,26,25,24,25,2,33,34,34,34,34,33,34,32,30,31,32,32,31,31,30,30,36,37,37,37,36,36,36,34,33,34,34,34,34,34,34,32,0,0,0,0,0,0,0,0,0,-1,0,0,0,3
17.8,0,3,13,-0.87,0.04,-1,-2,10,3,1.27,2,61,-2,109,28,80,116,12.65,6791,12,32,50,0.83,0.75,12.29,0,366,50,51,0,0,63,26,26,23,25,2,35,36,37,37,38,38,38,37,33,36,36,36,36,36,35,34,34,36,36,36,36,36,35,34,34,34,34,34,34,34,34,32,0,0,0,0,0,0,0,0,0,-1,0,0,0,3
17.9,0,3,13,-0.23,0.18,0,-2,-1,0,0.65,2,31,-2,111,29,80,115,12.66,6484,13,32,49,0.83,0.74,12.28,0,339,50,52,0,0,63,26,26,22,26,2,35,36,37,37,37,37,37,37,33,36,36,36,36,36,35,34,34,36,36,36,36,36,36,34,36,37,37,37,36,36,36,34,0,0,0,0,0,0,0,0,0,-1,0,0,0,3
18,0,3,13,-0.51,0.08,-1,-3,-7,-2,1.08,2,52,-2,110,31,76,113,12.64,7026,14,32,53,0.83,0.86,12.28,0,365,50,52,0,0,63,25,25,24,25,2,33,34,34,34,34,34,34,32,33,36,36,36,36,36,35,34,35,36,37,37,36,36,36,34,36,38,38,38,37,36,36,34,0,0,0,0,0,0,0,0,0,-1,0,0,0,3
18.1,0,3,13,-0.1,0.18,-1,-2,-2,-2,0.95,2,45,-2,107,29,80,117,12.68,6891,16,32,53,0.83,1.08,12.29,0,379,50,51,0,0,63,25,25,24,24,2,32,34,34,34,34,34,33,32,30,32,32,32,32,32,31,30,34,35,35,35,34,34,34,33,36,38,38,38,38,37,36,34,0,0,0,0,0,0,0,0,0,-1,0,0,0,3
18.2,0,3,13,-0.43,-0.02,-1,0,-2,-3,0.81,2,39,-1,110,29,83,115,12.66,6756,16,32,50,0.83,1.16,12.28,0,362,50,51,0,0,63,25,25,23,22,2,34,36,36,36,36,36,36,36,30,32,32,32,32,32,32,31,33,34,34,34,34,34,34,32,32,33,33,33,33,33,33,32,0,0,0,0,0,0,0,0,0,-1,0,0,0,3
18.3,0,3,13,-0.83,0.01,-1,-1,-1,1,1.18,2,56,-1,116,24,72,116,12.69,6677,16,32,55,0.83,0.84,12.29,0,383,50,51,0,0,63,25,25,22,24,2,34,36,36,36,36,36,36,36,33,35,35,35,35,35,34,34,36,38,38,38,38,38,37,34,33,33,33,34,33,33,33,32,0,0,0,0,0,0,0,0,0,-1,0,0,0,3
18.4,0,3,13,-0.14,-0.07,0,0,2,-1,0.59,2,28,-1,115,26,79,126,12.59,6702,14,32,55,0.83,0.74,12.28,0,389,49,50,100,0,64,26,25,24,25,2,34,36,36,36,36,35,35,35,32,34,35,34,34,34,34,33,36,38,38,38,38,38,37,35,36,38,38,38,38,38,36,34,0,0,0,0,0,0,0,0,0,-1,0,0,0,3
18.5,0,3,13,-0.68,-0.46,0,-1,-9,10,0.87,2,42,-1,114,26,77,123,12.65,5832,13,32,50,0.83,0.94,12.33,0,315,50,51,0,0,64,26,25,24,25,2,34,34,35,35,35,35,35,34,31,32,32,32,32,32,32,31,33,34,34,34,34,34,34,32,36,38,38,38,38,38,36,35,0,0,0,0,0,0,0,0,0,-1,0,0,0,3
18.6,0,3,13,-1.56,-0.18,0,-1,-30,4,1.57,2,75,-1,116,26,72,115,12.7,6336,13,31,52,0.83,0.71,12.31,0,335,49,50,0,0,64,26,26,24,24,3,33,34,35,35,35,35,34,34,31,32,32,33,32,32,32,31,32,34,34,34,34,34,33,32,36,38,38,38,37,37,36,34,0,0,0,0,0,0,0,0,0,-1,0,0,0,3
18.7,0,3,13,-0.21,-0.01,0,-1,-10,2,0.35,2,17,-1,121,20,82,122,12.68,6356,9,31,30,0.84,0.77,12.31,0,295,50,51,0,0,64,27,27,24,24,3,34,35,35,35,35,35,34,34,30,32,32,32,32,32,32,31,33,34,34,34,34,34,34,32,33,34,34,34,34,34,33,32,0,0,0,0,0,0,0,0,0,-1,0,0,0,3
18.8,0,3,13,0.27,-0.59,0,0,-10,0,0.65,2,31,-1,112,29,84,116,12.68,6149,9,31,49,0.84,0.78,12.31,0,318,50,51,0,0,64,27,27,23,26,3,34,36,36,36,36,36,36,35,32,34,34,34,34,34,34,33,36,38,38,38,38,38,36,34,34,34,34,34,34,34,34,32,0,0,0,0,0,0,0,0,0,-1,0,0,0,3
18.9,0,3,13,-0.95,0.14,0,1,-19,2,0.99,2,48,-1,111,26,70,118,12.57,6253,9,31,49,0.84,0.79,12.31,0,319,50,51,0,0,64,28,28,26,26,3,34,34,34,34,34,34,34,34,33,35,35,35,35,34,34,34,36,37,37,37,37,37,36,34,36,38,38,38,37,37,36,34,0,0,0,0,0,0,0,0,0,-1,0,0,0,3
19,0,3,13,0.14,-0.53,0,2,-3,-1,0.62,2,30,-1,114,23,80,118,12.7,6234,9,31,49,0.84,0.76,12.3,0,314,50,51,0,0,64,28,28,26,27,3,32,34,34,34,34,34,34,33,30,32,32,32,32,31,31,30,34,36,36,36,36,36,35,34,36,38,38,38,37,36,36,34,0,0,0,0,0,0,0,0,0,-1,0,0,0,3
19.1,0,3,13,-0.77,0.04,0,1,10,9,0.77,2,37,-1,108,33,74,118,12.71,5930,10,31,44,0.84,0.76,12.33,0,304,50,51,0,0,64,28,28,26,27,3,32,34,34,33,34,33,33,32,30,31,31,31,31,30,30,30,35,36,37,36,36,36,36,34,34,34,34,34,34,34,34,32,0,0,0,0,0,0,0,0,0,-1,0,0,0,3
19.2,0,3,13,-1.45,0.57,0,0,14,14,1.58,2,76,-1,110,31,77,117,12.65,5817,10,31,38,0.83,0.72,12.31,0,307,50,51,0,0,64,28,28,26,25,3,34,36,36,36,36,36,36,36,30,31,31,31,31,31,30,30,34,36,36,35,35,35,34,33,34,35,35,35,35,35,34,33,0,0,0,0,0,0,0,0,0,-1,0,0,0,3
19.3,0,3,13,-0.58,0.16,0,1,3,6,0.66,2,31,-1,111,25,83,118,12.62,6431,11,31,51,0.83,0.75,12.3,0,334,50,51,0,0,64,28,28,26,27,3,34,36,36,36,36,36,36,36,33,35,35,36,35,34,34,34,33,35,35,34,34,34,34,32,34,36,36,36,36,36,36,34,0,0,0,0,0,0,0,0,0,-1,0,0,0,3
19.4,0,3,13,-1.4,-0.13,0,0,-22,1,1.42,2,68,-1,113,28,77,116,12.57,6009,12,31,50,0.83,0.75,12.29,0,339,50,52,0,0,64,28,28,25,27,3,33,34,34,33,33,33,33,32,32,34,35,35,34,34,34,33,33,34,34,34,34,34,34,32,35,36,36,36,36,35,34,33,0,0,0,0,0,0,0,0,0,-1,0,0,0,3
19.5,0,3,13,0.15,0.15,0,3,2,-1,0.22,2,10,-1,113,26,75,115,12.65,6086,10,31,51,0.83,0.74,12.3,0,309,50,52,0,0,64,28,28,27,27,3,33,34,34,34,34,34,34,33,31,33,33,33,32,32,32,32,36,38,38,38,38,37,37,34,34,35,35,35,34,34,34,32,0,0,0,0,0,0,0,0,0,-1,0,0,0,3
19.6,0,3,13,-0.81,0.05,0,1,-19,-2,0.87,2,42,-1,113,28,78,116,12.72,6271,10,31,31,0.83,0.77,12.32,0,325,50,52,0,0,64,28,28,26,27,3,34,34,34,34,34,34,34,34,32,34,34,34,34,34,34,32,36,38,38,38,38,38,37,35,36,37,37,37,37,36,36,34,0,0,0,0,0,0,0,0,0,-1,0,0,0,3
19.7,0,3,13,-0.23,-0.14,0,1,-18,-6,0.27,2,13,-1,112,28,77,116,12.62,6076,10,31,46,0.83,0.87,12.31,0,309,50,52,0,0,64,28,28,26,26,3,34,36,36,36,36,36,36,35,31,32,33,33,33,32,32,31,33,34,34,34,34,34,33,32,36,38,38,38,37,37,36,34,0,0,0,0,0,0,0,0,0,-1,0,0,0,3
19.8,0,3,13,-0.77,0.04,0,0,-5,-2,0.9,2,43,-1,111,31,74,118,12.68,6356,10,31,47,0.84,0.79,12.32,0,328,50,52,0,0,64,28,28,26,28,3,34,35,35,35,35,35,34,34,30,32,32,32,32,32,31,30,34,34,35,34,34,34,34,32,34,34,34,34,34,34,34,32,0,0,0,0,0,0,0,0,0,-1,0,0,0,3
19.9,0,3,13,-0.86,0.09,0,0,-23,1,0.87,2,42,-1,117,27,79,118,12.65,6361,10,31,45,0.84,0.81,12.32,0,314,50,53,0,0,64,28,28,25,28,3,34,36,36,36,36,36,36,35,30,32,32,32,31,31,30,30,36,37,37,37,36,36,36,34,33,34,34,34,34,34,34,32,0,0,0,0,0,0,0,0,0,-1,0,0,0,3
20,0,3,13,-0.3,-0.46,0,-2,-3,4,0.65,2,31,-2,108,34,76,112,12.61,6567,10,31,46,0.83,0.79,12.31,0,324,51,52,0,0,64,28,28,26,27,3,34,36,36,36,36,36,36,36,32,34,35,35,35,34,34,34,34,36,36,36,36,36,36,34,34,34,34,34,34,34,34,32,0,0,0,0,0,0,0,0,0,-1,0,0,0,3
20.1,0,3,13,-1.13,0.09,0,-3,-9,4,1.17,2,56,-2,114,24,75,113,12.55,6132,10,31,41,0.83,0.79,12.31,0,309,50,52,0,0,64,28,28,27,27,3,33,34,34,34,34,34,34,33,33,35,36,36,35,35,34,34,34,36,36,36,36,35,34,33,37,38,38,38,37,37,36,34,0,0,0,0,0,0,0,0,0,-1,0,0,0,3
20.2,0,3,13,0.65,-0.44,-1,-2,-5,-15,1.63,2,78,-2,114,30,80,119,12.58,6097,11,31,49,0.83,0.8,12.3,0,330,50,52,0,0,64,28,28,26,27,3,33,34,34,34,34,34,33,32,30,32,32,32,32,31,31,30,36,37,37,36,36,36,36,34,36,37,37,37,36,36,36,34,0,0,0,0,0,0,0,0,0,-1,0,0,0,3
20.3,0,3,13,-0.54,-0.07,-1,-4,0,-11,1.41,2,67,-3,111,32,79,122,12.65,6247,11,31,44,0.83,0.73,12.32,0,325,50,52,0,0,64,28,28,26,26,3,33,34,34,34,34,34,33,32,30,32,32,32,32,32,32,31,36,38,38,37,37,37,36,35,34,35,35,35,35,35,34,33,0,0,0,0,0,0,0,0,0,-1,0,0,0,3
20.4,0,3,13,0.59,-0.42,-1,-3,-6,-12,1.4,2,67,-3,115,22,78,116,12.68,6312,11,31,52,0.83,0.75,12.32,0,337,50,52,0,0,64,28,28,25,27,3,34,36,36,36,36,36,36,36,32,34,34,34,34,34,34,32,34,34,34,34,34,34,34,32,35,36,36,36,36,36,36,34,0,0,0,0,0,0,0,0,0,-1,0,0,0,3
20.5,0,3,13,-0.47,-0.15,-1,-5,3,-8,1.02,2,49,-3,116,25,80,116,12.7,6232,11,31,30,0.83,0.74,12.34,0,319,50,52,0,0,64,28,28,27,28,3,34,36,36,36,37,36,36,36,31,33,34,34,33,33,32,32,32,34,34,34,34,34,33,32,35,36,36,36,35,35,34,32,0,0,0,0,0,0,0,0,0,-1,0,0,0,3
20.6,0,3,13,-1.55,-0.34,0,-7,-47,0,1.63,2,78,-3,116,30,82,116,12.65,5945,11,31,48,0.83,0.74,12.31,0,320,50,52,0,0,64,28,28,27,28,3,33,34,34,34,34,34,34,33,30,32,32,32,32,32,32,31,36,38,38,38,38,37,36,34,34,35,34,35,34,34,34,32,0,0,0,0,0,0,0,0,0,-1,0,0,0,3
20.7,0,3,13,-0.57,-0.36,0,-7,-16,-2,0.69,2,33,-4,115,29,79,116,12.64,6613,12,31,50,0.83,0.75,12.3,0,319,50,52,0,0,64,28,28,27,28,3,34,35,34,34,34,34,34,34,32,34,35,35,34,34,34,33,36,38,38,38,37,37,36,34,34,34,34,34,34,34,33,32,0,0,0,0,0,0,0,0,0,-1,0,0,0,3
20.8,0,3,13,0.08,-0.08,0,-6,14,4,0.21,2,10,-4,116,27,81,119,12.67,6293,12,31,53,0.83,0.75,12.28,0,335,50,51,0,0,64,28,28,26,28,3,34,36,36,36,36,36,36,36,33,35,36,36,35,35,34,34,36,38,37,37,37,37,36,34,36,38,37,38,37,36,36,34,0,0,0,0,0,0,0,0,0,-1,0,0,0,3
20.9,0,3,13,0.05,-0.54,0,-7,15,-1,0.62,2,30,-3,114,33,79,118,12.66,6395,12,31,51,0.83,0.73,12.29,0,327,50,52,0,0,64,28,28,27,28,3,34,36,36,36,36,36,36,34,30,32,32,32,31,31,30,30,34,35,35,34,34,34,34,32,36,38,38,38,37,36,36,34,0,0,0,0,0,0,0,0,0,-1,0,0,0,3
21,0,3,13,0.5,-0.38,-1,-5,0,-12,1.43,2,69,-3,118,26,79,114,12.61,6505,13,31,49,0.83,0.75,12.29,0,341,50,52,0,0,64,28,29,26,26,3,33,34,34,34,34,34,34,34,30,32,32,32,32,32,31,30,34,36,36,36,36,35,35,33,33,34,34,34,34,34,34,32,0,0,0,0,0,0,0,0,0,-1,0,0,0,3
21.1,0,3,13,-0.33,-0.09,-1,-6,-12,-6,0.82,2,39,-3,113,31,75,113,12.67,6688,12,31,52,0.83,0.75,12.32,0,345,50,52,0,0,64,28,29,24,27,3,34,36,36,36,36,36,36,36,32,34,35,35,34,34,34,33,34,36,36,36,36,36,34,33,34,34,34,35,34,34,34,33,0,0,0,0,0,0,0,0,0,-1,0,0,0,3
21.2,0,3,13,0.51,-0.91,-1,-7,-17,-10,1.48,2,71,-3,115,32,79,117,12.65,6161,9,31,48,0.84,0.74,12.33,0,317,50,52,0,0,64,28,29,24,27,3,34,36,36,36,36,36,36,36,32,34,34,34,34,34,33,32,34,35,35,35,34,34,34,32,36,36,36,36,36,36,36,34,0,0,0,0,0,0,0,0,0,-1,0,0,0,3
21.3,0,3,13,-0.75,-0.22,-1,-7,-5,-1,1.14,2,55,-3,111,28,78,117,12.65,6201,9,31,12,0.84,0.73,12.33,0,313,50,52,0,0,64,28,29,27,28,3,33,34,34,34,34,34,33,32,31,32,32,32,32,32,32,31,36,38,38,37,37,37,36,34,35,36,36,36,35,35,34,33,0,0,0,0,0,0,0,0,0,-1,0,0,0,3
21.4,0,3,13,-0.42,-0.12,0,-7,-8,1,0.46,2,22,-3,116,31,76,116,12.63,6587,10,31,47,0.84,0.76,12.32,0,337,50,52,0,0,64,28,28,27,27,3,33,34,34,34,34,34,33,33,32,34,35,35,34,34,34,34,36,38,38,38,38,38,37,34,34,34,34,34,34,34,34,32,0,0,0,0,0,0,0,0,0,-1,0,0,0,3
21.5,0,3,13,-0.37,-0.56,0,-8,-5,4,0.68,2,33,-3,113,34,79,117,12.65,6207,10,31,43,0.84,0.76,12.32,0,334,50,51,0,0,64,28,28,27,27,3,33,34,34,34,34,34,34,34,33,35,35,35,35,34,34,34,36,38,38,37,37,37,36,34,36,38,38,38,37,37,36,34,0,0,0,0,0,0,0,0,0,-1,0,0,0,3
21.6,0,3,13,-1.42,0.03,-1,-6,17,6,1.8,2,86,-3,117,21,77,115,12.68,6118,10,31,16,0.84,0.71,12.33,0,301,50,52,0,0,64,28,29,26,27,3,34,36,36,36,36,36,36,35,30,32,32,32,31,31,31,30,34,34,34,34,34,34,34,32,37,38,38,38,37,37,36,34,0,0,0,0,0,0,0,0,0,-1,0,0,0,3
21.7,0,3,13,-0.4,0.15,0,-6,8,3,0.43,2,21,-3,109,36,66,114,12.65,6361,11,31,38,0.83,0.75,12.29,0,321,49,50,0,0,64,28,28,26,27,3,34,36,36,36,36,36,36,34,30,32,32,32,32,32,32,30,34,35,35,35,34,34,34,32,34,34,34,34,34,34,34,33,0,0,0,0,0,0,0,0,0,-1,0,0,0,3
21.8,0,3,13,-0.09,-0.26,-1,-4,15,1,1.02,2,49,-2,112,29,77,118,12.59,6510,12,31,46,0.83,0.83,12.29,0,324,49,50,0,0,64,28,28,25,25,3,34,36,36,36,36,36,36,35,32,34,34,34,34,34,34,33,34,36,36,36,36,36,35,34,34,34,34,34,34,34,34,33,0,0,0,0,0,0,0,0,0,-1,0,0,0,3
21.9,0,3,13,-0.44,-0.06,-1,-2,12,-1,1.14,2,54,-2,117,27,76,117,12.64,6903,11,31,50,0.83,0.79,12.3,0,347,49,50,0,0,64,28,28,24,26,3,35,36,36,36,36,36,36,36,32,33,34,34,34,33,32,32,34,36,36,36,35,35,34,33,34,34,35,35,35,35,34,34,0,0,0,0,0,0,0,0,0,-1,0,0,0,3
22,0,3,13,-1.59,0.01,0,-3,-43,1,1.62,2,77,-2,110,30,82,124,12.67,5851,11,31,42,0.83,0.75,12.3,0,312,49,50,0,0,64,28,28,27,26,3,34,34,34,34,34,34,34,33,31,32,33,32,32,32,32,32,35,36,36,36,36,36,36,34,36,37,36,36,36,36,36,34,0,0,0,0,0,0,0,0,0,-1,0,0,0,3
22.1,0,3,13,-1.88,0.61,0,-2,-10,6,2,2,96,-2,109,31,78,122,12.71,5832,11,31,49,0.83,0.8,12.3,0,303,49,50,0,0,64,28,28,27,27,3,34,34,34,34,34,34,34,33,32,34,35,35,34,34,34,34,36,37,37,37,36,36,36,34,35,36,36,36,36,36,35,33,0,0,0,0,0,0,0,0,0,-1,0,0,0,3
22.2,0,3,13,-0.87,0.24,0,-2,-6,5,0.9,2,43,-2,113,29,76,117,12.63,6774,14,31,49,0.83,0.74,12.29,0,345,49,50,0,0,64,28,28,26,27,3,34,34,34,34,34,34,34,33,34,35,36,36,35,35,34,34,36,38,38,37,37,36,36,34,36,36,36,36,36,36,36,34,0,0,0,0,0,0,0,0,0,-1,0,0,0,3
22.3,0,3,13,-0.55,-0.41,0,-3,5,7,0.7,2,33,-2,112,28,79,119,12.65,6361,15,31,52,0.83,0.76,12.3,0,378,49,50,0,0,64,28,28,25,27,3,35,36,36,36,36,37,36,36,30,32,32,32,32,32,31,30,33,34,34,34,34,34,33,32,36,37,38,38,37,37,36,34,0,0,0,0,0,0,0,0,0,-1,0,0,0,3
22.4,0,3,13,-0.55,0.08,0,-3,-16,0,0.63,2,30,-2,110,30,79,116,12.67,6361,11,31,54,0.83,0.74,12.31,0,321,49,50,0,0,64,28,28,27,26,3,36,36,37,37,37,36,36,36,30,32,32,32,32,32,31,30,32,34,34,34,34,33,33,32,34,35,34,35,34,34,34,32,0,0,0,0,0,0,0,0,0,-1,0,0,0,3
22.5,0,3,13,-0.88,0.03,-1,-2,-12,-1,1.11,2,53,-2,112,24,79,115,12.7,6459,12,31,49,0.83,0.73,12.32,0,333,49,50,0,0,64,28,28,27,27,3,34,34,34,34,34,34,34,34,33,35,35,36,35,35,34,34,36,37,37,37,36,36,36,34,34,34,34,34,34,34,34,32,0,0,0,0,0,0,0,0,0,-1,0,0,0,3
22.6,0,3,13,-0.48,0,-1,-2,10,-1,0.98,2,47,-2,115,28,82,118,12.63,6422,13,31,50,0.83,0.74,12.3,0,331,49,50,0,0,64,28,28,27,26,3,34,35,35,35,35,35,34,34,32,34,34,34,34,34,34,32,34,36,36,36,36,36,36,34,34,34,34,34,34,34,34,32,0,0,0,0,0,0,0,0,0,-1,0,0,0,3
22.7,0,3,13,-0.04,-0.26,0,-3,8,-1,0.43,2,20,-2,118,25,75,118,12.69,6666,11,31,49,0.83,0.76,12.31,0,340,49,50,0,0,64,29,29,27,28,3,34,35,36,36,36,36,35,34,32,33,34,34,33,33,32,32,34,36,36,36,35,35,34,33,36,38,38,38,37,37,36,34,0,0,0,0,0,0,0,0,0,-1,0,0,0,3
22.8,0,3,13,0.2,0.17,0,-6,6,1,0.36,2,17,-3,114,32,83,117,12.64,6230,8,31,48,0.86,0.79,12.3,0,310,52,54,0,0,64,29,29,27,29,3,34,34,34,34,34,34,34,34,33,34,34,34,34,34,34,33,36,36,36,36,36,36,36,34,36,37,36,37,36,36,36,34,0,0,0,0,0,0,0,0,0,-1,0,0,0,3
22.9,0,3,13,0.58,-0.57,0,-7,15,-3,0.99,2,47,-4,115,43,73,120,12.72,6300,4,31,43,0.92,0.79,12.31,0,247,60,66,0,0,64,29,29,26,28,3,33,34,34,34,34,34,33,32,33,34,35,35,35,34,34,33,36,37,37,37,36,36,36,34,36,36,36,36,36,36,36,34,0,0,0,0,0,0,0,0,0,-1,0,0,0,3
23,0,3,13,-0.34,0.04,0,-12,-15,1,0.52,2,25,-4,115,37,81,116,12.69,6230,2,31,33,0.95,0.79,12.31,0,232,64,73,0,0,64,28,29,26,28,3,35,36,36,36,36,36,36,36,30,32,32,32,32,31,31,30,33,34,34,34,34,34,33,32,36,37,37,37,37,37,36,34,0,0,0,0,0,0,0,0,0,-1,0,0,0,3
23.1,0,3,13,-0.06,0.5,0,-11,-39,-4,0.73,2,35,-4,110,33,85,118,12.69,5855,2,31,33,0.96,0.74,12.32,0,215,67,73,0,0,64,28,28,25,27,3,34,36,36,36,36,36,36,36,30,32,32,32,32,32,32,30,32,34,34,34,33,33,32,31,34,35,34,35,34,34,34,33,0,0,0,0,0,0,0,0,0,-1,0,0,0,3
23.2,0,3,13,-0.73,0.07,0,-11,-7,4,0.73,2,35,-4,107,34,84,119,12.66,5707,2,31,33,0.96,0.75,12.31,0,201,69,75,0,0,64,26,27,25,26,3,33,34,34,34,34,33,33,32,30,32,32,32,32,32,32,31,36,38,38,38,37,37,36,34,34,35,34,35,34,34,34,33,0,0,0,0,0,0,0,0,0,-1,0,0,0,3
23.3,0,3,13,-0.86,0.01,-1,-9,2,-2,1.14,2,54,-4,106,38,84,116,12.68,5350,2,31,33,0.96,0.82,12.3,0,196,69,75,0,0,64,25,26,24,26,3,34,34,34,34,34,34,34,32,34,35,36,36,35,35,34,34,36,38,38,38,38,37,37,34,34,34,35,35,34,34,34,33,0,0,0,0,0,0,0,0,0,-1,0,0,0,3
23.4,0,3,13,-0.26,-0.32,-1,-12,-4,-5,1.22,2,58,-6,112,31,88,115,12.71,5257,2,31,16,0.96,0.71,12.3,0,188,69,69,0,0,64,24,24,23,25,3,34,34,34,34,34,34,34,33,34,36,36,36,36,35,34,34,32,34,34,34,34,34,33,32,36,37,37,37,36,37,36,34,0,0,0,0,0,0,0,0,0,-1,0,0,0,3
23.5,0,3,13,-0.23,-0.77,-1,-21,-5,-8,1.34,2,64,-12,116,40,89,115,12.67,5012,2,31,36,0.96,0.75,12.3,0,176,52,54,0,0,64,23,24,21,24,3,34,36,36,36,36,36,36,35,30,32,32,32,31,31,30,30,33,34,34,34,34,34,34,32,34,36,36,36,36,36,35,34,0,0,0,0,0,0,0,0,0,-1,0,0,0,3
23.6,0,3,13,-0.47,-1,-1,-41,-2,-10,1.52,2,73,-20,127,42,97,117,12.62,5040,6,31,38,0.89,0.88,12.28,0,211,49,50,0,0,64,22,23,21,20,3,34,34,34,34,34,34,34,34,31,32,32,32,32,32,32,31,36,38,38,38,38,37,36,34,37,38,38,38,38,37,36,34,0,0,0,0,0,0,0,0,0,-1,0,0,0,3
